{"type":"FeatureCollection","features":[
{"type":"Feature","geometry":{"type":"Point","coordinates":[5.939626,46.270925]},"properties":{"ele":"1718","ele:source":"https://serval.unil.ch/fr/notice/serval:BIB_74DF5BB40E91","name":"Crêt de la Neige","natural":"peak","prominence":"1267","wikidata":"Q1142554"}},
{"type":"Feature","geometry":{"type":"Point","coordinates":[5.9509453,46.2492909]},"properties":{"ele":"1039","hiking":"yes","horse":"yes","information":"guidepost","tourism":"information"}},
{"type":"Feature","geometry":{"type":"Point","coordinates":[5.9496064,46.2491247]},"properties":{"ele":"1061","hiking":"yes","information":"guidepost","tourism":"information"}},
{"type":"Feature","geometry":{"type":"Point","coordinates":[5.93856,46.248448]},"properties":{"ele":"1310","hiking":"yes","information":"guidepost","tourism":"information"}},
{"type":"Feature","geometry":{"type":"Point","coordinates":[5.9376957,46.2473207]},"properties":{"ele":"1347.1630859","tourism":"viewpoint"}},
{"type":"Feature","geometry":{"type":"Point","coordinates":[5.9226,46.2460813]},"properties":{"created_by":"Potlatch 0.10f","ele":"1680","name":"Brie","natural":"peak"}},
{"type":"Feature","geometry":{"type":"Point","coordinates":[5.9225914,46.2482715]},"properties":{"created_by":"Potlatch 0.10f","ele":"1690","natural":"peak"}},
{"type":"Feature","geometry":{"type":"Point","coordinates":[5.9249689,46.2519276]},"properties":{"created_by":"Potlatch 0.10f","ele":"1680","natural":"peak"}},
{"type":"Feature","geometry":{"type":"Point","coordinates":[5.9516933,46.2134359]},"properties":{"source":"cadastre-dgi-fr source : Direction Générale des Impôts - Cadastre. Mise à jour : 2009"}},
{"type":"Feature","geometry":{"type":"Point","coordinates":[5.9517109,46.2134339]},"properties":{"source":"cadastre-dgi-fr source : Direction Générale des Impôts - Cadastre. Mise à jour : 2009"}},
{"type":"Feature","geometry":{"type":"Point","coordinates":[5.9517267,46.2134239]},"properties":{"source":"cadastre-dgi-fr source : Direction Générale des Impôts - Cadastre. Mise à jour : 2009"}},
{"type":"Feature","geometry":{"type":"Point","coordinates":[5.9517343,46.2134257]},"properties":{"source":"cadastre-dgi-fr source : Direction Générale des Impôts - Cadastre. Mise à jour : 2009"}},
{"type":"Feature","geometry":{"type":"Point","coordinates":[5.9517457,46.2134248]},"properties":{"source":"cadastre-dgi-fr source : Direction Générale des Impôts - Cadastre. Mise à jour : 2009"}},
{"type":"Feature","geometry":{"type":"Point","coordinates":[5.951752,46.21342]},"properties":{"source":"cadastre-dgi-fr source : Direction Générale des Impôts - Cadastre. Mise à jour : 2009"}},
{"type":"Feature","geometry":{"type":"Point","coordinates":[5.9517543999999999,46.213413]},"properties":{"source":"cadastre-dgi-fr source : Direction Générale des Impôts - Cadastre. Mise à jour : 2009"}},
{"type":"Feature","geometry":{"type":"Point","coordinates":[5.9517516,46.213408]},"properties":{"source":"cadastre-dgi-fr source : Direction Générale des Impôts - Cadastre. Mise à jour : 2009"}},
{"type":"Feature","geometry":{"type":"Point","coordinates":[5.9517489,46.2134044]},"properties":{"source":"cadastre-dgi-fr source : Direction Générale des Impôts - Cadastre. Mise à jour : 2009"}},
{"type":"Feature","geometry":{"type":"Point","coordinates":[5.9517543999999999,46.2133996]},"properties":{"source":"cadastre-dgi-fr source : Direction Générale des Impôts - Cadastre. Mise à jour : 2009"}},
{"type":"Feature","geometry":{"type":"Point","coordinates":[5.9517536,46.2133939]},"properties":{"source":"cadastre-dgi-fr source : Direction Générale des Impôts - Cadastre. Mise à jour : 2009"}},
{"type":"Feature","geometry":{"type":"Point","coordinates":[5.9517489,46.2133858]},"properties":{"source":"cadastre-dgi-fr source : Direction Générale des Impôts - Cadastre. Mise à jour : 2009"}},
{"type":"Feature","geometry":{"type":"Point","coordinates":[5.951741,46.213384]},"properties":{"source":"cadastre-dgi-fr source : Direction Générale des Impôts - Cadastre. Mise à jour : 2009"}},
{"type":"Feature","geometry":{"type":"Point","coordinates":[5.9517302,46.2133824]},"properties":{"source":"cadastre-dgi-fr source : Direction Générale des Impôts - Cadastre. Mise à jour : 2009"}},
{"type":"Feature","geometry":{"type":"Point","coordinates":[5.9517241,46.2133846]},"properties":{"source":"cadastre-dgi-fr source : Direction Générale des Impôts - Cadastre. Mise à jour : 2009"}},
{"type":"Feature","geometry":{"type":"Point","coordinates":[5.9517159,46.2133908]},"properties":{"source":"cadastre-dgi-fr source : Direction Générale des Impôts - Cadastre. Mise à jour : 2009"}},
{"type":"Feature","geometry":{"type":"Point","coordinates":[5.9517084,46.2133951]},"properties":{"source":"cadastre-dgi-fr source : Direction Générale des Impôts - Cadastre. Mise à jour : 2009"}},
{"type":"Feature","geometry":{"type":"Point","coordinates":[5.9517024,46.2133981]},"properties":{"source":"cadastre-dgi-fr source : Direction Générale des Impôts - Cadastre. Mise à jour : 2009"}},
{"type":"Feature","geometry":{"type":"Point","coordinates":[5.9516913,46.213399]},"properties":{"source":"cadastre-dgi-fr source : Direction Générale des Impôts - Cadastre. Mise à jour : 2009"}},
{"type":"Feature","geometry":{"type":"Point","coordinates":[5.9516804,46.2134023]},"properties":{"source":"cadastre-dgi-fr source : Direction Générale des Impôts - Cadastre. Mise à jour : 2009"}},
{"type":"Feature","geometry":{"type":"Point","coordinates":[5.9516726,46.2134079]},"properties":{"source":"cadastre-dgi-fr source : Direction Générale des Impôts - Cadastre. Mise à jour : 2009"}},
{"type":"Feature","geometry":{"type":"Point","coordinates":[5.95167,46.2134135]},"properties":{"source":"cadastre-dgi-fr source : Direction Générale des Impôts - Cadastre. Mise à jour : 2009"}},
{"type":"Feature","geometry":{"type":"Point","coordinates":[5.9516705,46.2134206]},"properties":{"source":"cadastre-dgi-fr source : Direction Générale des Impôts - Cadastre. Mise à jour : 2009"}},
{"type":"Feature","geometry":{"type":"Point","coordinates":[5.9516726,46.2134274]},"properties":{"source":"cadastre-dgi-fr source : Direction Générale des Impôts - Cadastre. Mise à jour : 2009"}},
{"type":"Feature","geometry":{"type":"Point","coordinates":[5.9516816,46.2134322]},"properties":{"source":"cadastre-dgi-fr source : Direction Générale des Impôts - Cadastre. Mise à jour : 2009"}},
{"type":"Feature","geometry":{"type":"Point","coordinates":[5.9437621,46.3044907]},"properties":{"information":"office","name":"Office du Tourisme","official_name":"Office de Tourisme du Pays de Gex","opening_hours":"Oct 01-Dec 17,Mar 28-May 05 Mo,We-Fr 09:00-12:30; Dec 18-Jan 02,Feb 05-Mar 06 09:00-18:00; Jan 03-Feb 04,Mar 07-27 09:00-12:30,13:30-18:00; Nov 01,11,easter +1 day,easter +39 days,May 01,08 off","phone":"+33 4 50 28 09 16","sport":"skiing","tourism":"information","website":"https://www.paysdegex-montsjura.com/commerce-service/office-de-tourisme-du-pays-de-gex-agence-de-lelex/"}},
{"type":"Feature","geometry":{"type":"Point","coordinates":[5.8692884,46.2647825]},"properties":{"heritage":"2","heritage:operator":"mhs","historic":"boundary_stone","mhs:inscription_date":"1926-01-12","name":"Borne au Lion","ref:mhs":"PA00116403;PA00116360","source:heritage":"data.gouv.fr, Ministère de la Culture - 2016;Ministère de la Culture - 06/2019","start_date":"C17","tourism":"attraction","wikidata":"Q2911130","wikimedia_commons":"File:Borne Lion Chézery Forens 9.jpg","wikipedia":"fr:Borne au Lion"}},
{"type":"Feature","geometry":{"type":"Point","coordinates":[5.9342806,46.2632564]},"properties":{"hiking":"yes","information":"guidepost","tourism":"information"}},
{"type":"Feature","geometry":{"type":"Point","coordinates":[5.9319583,46.2617063]},"properties":{"hiking":"yes","information":"guidepost","name":"Sur Thoiry","tourism":"information"}},
{"type":"Feature","geometry":{"type":"Point","coordinates":[5.9307144,46.2592426]},"properties":{"hiking":"yes","information":"guidepost","tourism":"information"}},
{"type":"Feature","geometry":{"type":"Point","coordinates":[5.9109897,46.2558689]},"properties":{"hiking":"yes","information":"guidepost","tourism":"information"}},
{"type":"Feature","geometry":{"type":"Point","coordinates":[5.902079,46.251259]},"properties":{"hiking":"yes","information":"guidepost","tourism":"information"}},
{"type":"Feature","geometry":{"type":"Point","coordinates":[5.9413436,46.3009074]},"properties":{"hiking":"yes","information":"guidepost","tourism":"information"}},
{"type":"Feature","geometry":{"type":"Point","coordinates":[5.9518745,46.2777481]},"properties":{"ele":"1680","hiking":"yes","information":"guidepost","name":"Sous le Crêt","tourism":"information"}},
{"type":"Feature","geometry":{"type":"Point","coordinates":[5.8688462,46.2667872]},"properties":{"source":"cadastre-dgi-fr source : Direction Générale des Impôts - Cadastre. Mise à jour : 2010","tourism":"picnic_site"}},
{"type":"Feature","geometry":{"type":"Point","coordinates":[5.8688954,46.2669533]},"properties":{"source":"cadastre-dgi-fr source : Direction Générale des Impôts - Cadastre. Mise à jour : 2010","tourism":"picnic_site"}},
{"type":"Feature","geometry":{"type":"Point","coordinates":[5.8614303,46.2504565]},"properties":{"ele":"1545","name":"Crêt de Chalam","natural":"peak","tourism":"viewpoint","wikidata":"Q3006348"}},
{"type":"Feature","geometry":{"type":"Point","coordinates":[5.9248211,46.2776417]},"properties":{"tourism":"picnic_site"}},
{"type":"Feature","geometry":{"type":"Point","coordinates":[5.9439141,46.2644335]},"properties":{"ele":"1199","hiking":"yes","information":"guidepost","tourism":"information"}},
{"type":"Feature","geometry":{"type":"Point","coordinates":[5.8630373,46.2526188]},"properties":{"ele":"1440","name":"Col de l'encoche","natural":"saddle"}},
{"type":"Feature","geometry":{"type":"Point","coordinates":[5.8764044,46.2347601]},"properties":{"name":"Gîte Le Tilleret","source":"http://www.gites-de-france-ain.com/gite-rural-aujoulat-yves-a-chezery-forens-dans-BUGEY-G104020.html","tourism":"chalet","website":"http://www.gites-de-france-ain.com/gite-rural-aujoulat-yves-a-chezery-forens-dans-BUGEY-G104020.html"}},
{"type":"Feature","geometry":{"type":"Point","coordinates":[5.920878,46.300268]},"properties":{"name":"Le Truchet","tourism":"viewpoint"}},
{"type":"Feature","geometry":{"type":"Point","coordinates":[5.8662898,46.2216296]},"properties":{"addr:city":"Chézery-Forens","addr:postcode":"01410","addr:street":"Rue de la Fromagerie","email":"relaisdesmoines@gmail.com","facebook":"https://www.facebook.com/Le-Relais-des-Moines-174836863141644/","name":"Le Relais des Moines","phone":"+33 4 50 56 61 83","tourism":"guest_house","website":"http://relaisdesmoines.fr"}},
{"type":"Feature","geometry":{"type":"Point","coordinates":[5.8790606,46.2695668]},"properties":{"ele":"1448","name":"Crêt au Merle","natural":"peak","source":"Releve JVt 120602","wikidata":"Q3006346","wikipedia":"fr:Crêt au Merle"}},
{"type":"Feature","geometry":{"type":"Point","coordinates":[5.9197752,46.2393235]},"properties":{"name":"Grotte de la Marie du Jura","natural":"cave_entrance","tourism":"cave_entrance"}},
{"type":"Feature","geometry":{"type":"Point","coordinates":[5.8471843,46.2846007]},"properties":{"email":"contact.ot@hautjurasaintclaude.fr","information":"office","name":"Point info Hautes Combes","official_name":"Bureau d’Information Touristique des Hautes Combes","opening_hours":"Mo-Fr 09:00-12:15,14:00-17:00; Sa 09:00-12:15; Jul-Aug Th 12:00+ off; Dec-Mar Sa-Su 09:00-17:00; Dec-Mar SH Mo-Su 09:00-17:00; Dec 24,Dec 31 16:00+ off; Dec 25 off; Jan 01 09:00-13:00; Jul 14,Aug 15 off","operator":"Office de tourisme Haut-Jura Saint-Claude","phone":"+33 3 84 42 72 85","tourism":"information","website":"https://www.saint-claude-haut-jura.com/"}},
{"type":"Feature","geometry":{"type":"Point","coordinates":[5.8679951,46.27734]},"properties":{"ele":"1317","name":"Crêt du Nerbier","natural":"peak","source":"cadastre-dgi-fr source : Direction Générale des Impôts - Cadastre. Mise à jour : 2012"}},
{"type":"Feature","geometry":{"type":"Point","coordinates":[5.866801,46.2218683]},"properties":{"historic":"wayside_cross"}},
{"type":"Feature","geometry":{"type":"Point","coordinates":[5.8670002,46.2221976]},"properties":{"historic":"wayside_cross"}},
{"type":"Feature","geometry":{"type":"Point","coordinates":[5.8868908,46.2286536]},"properties":{"amenity":"fountain","amenity_1":"drinking_water","drinking_water":"yes","historic":"wayside_cross","name":"Calvaire","source":"http://www.refuges.info/point/6975/point-d-eau/Jura-et-avant-pays-comtois/Fontaine-de-Rosset/"}},
{"type":"Feature","geometry":{"type":"Point","coordinates":[5.8981063,46.21458]},"properties":{"ele":"1461","fee":"no","name":"Le Gralet","ref:refuges.info":"1085","tourism":"wilderness_hut"}},
{"type":"Feature","geometry":{"type":"Point","coordinates":[5.8666606,46.2217537]},"properties":{"historic":"memorial","memorial":"war_memorial","ref:FR:MemorialGenWeb":"56203","wikidata":"Q90852631"}},
{"type":"Feature","geometry":{"type":"Point","coordinates":[5.878045,46.2664104]},"properties":{"mountain_pass":"yes","name":"Col du Merle","natural":"saddle","source":"IGN - 2021-06"}},
{"type":"Feature","geometry":{"type":"Point","coordinates":[5.9517574,46.289082]},"properties":{"ele":"1455","fixme":"position approximative","hiking":"yes","information":"guidepost","name":"Brillones d'en Haut","tourism":"information"}},
{"type":"Feature","geometry":{"type":"Point","coordinates":[5.9377204,46.2473088]},"properties":{"information":"map","map_size":"region","map_type":"toposcope","tourism":"information"}},
{"type":"Feature","geometry":{"type":"Point","coordinates":[5.9439078,46.2487967]},"properties":{"ele":"1199","hiking":"yes","information":"guidepost","name":"La Croisée","tourism":"information"}},
{"type":"Feature","geometry":{"type":"Point","coordinates":[5.8957285,46.3180079]},"properties":{"leisure":"sports_centre","name":"Station Les Moussières","sport":"skiing"}},
{"type":"Feature","geometry":{"type":"Point","coordinates":[5.8494737,46.2869012]},"properties":{"leisure":"sports_centre","name":"Station La Pesse","sport":"ski;snowboard"}},
{"type":"Feature","geometry":{"type":"Point","coordinates":[5.9436385,46.3044726]},"properties":{"addr:housenumber":"435","addr:street":"Rue des Monts Jura","leisure":"sports_centre","name":"Station Monts Jura (Site de Lélex)"}},
{"type":"Feature","geometry":{"type":"Point","coordinates":[5.9341764,46.3182809]},"properties":{"historic":"ruins","source":"Relevés de terrain;cadastre"}},
{"type":"Feature","geometry":{"type":"Point","coordinates":[5.9404872,46.3024629]},"properties":{"leisure":"playground","name":"Jeux d'Enfants"}},
{"type":"Feature","geometry":{"type":"Point","coordinates":[5.8566431,46.2979743]},"properties":{"amenity":"restaurant","contact:facebook":"100063507855691","cuisine":"regional","email":"reservations@aubergedeserables-jura.com","name":"Auberge des Érables","phone":"+33 3 84 45 05 20","ref:FR:SIRET":"41040989000010","tourism":"hotel","website":"https://www.aubergedeserables-jura.com/","wheelchair":"limited"}},
{"type":"Feature","geometry":{"type":"Point","coordinates":[5.8478204,46.2857146]},"properties":{"historic":"memorial","inscription":"La commune de La Pesse à ses enfants morts pour la France","memorial":"war_memorial","wikimedia_commons":"File:Monument morts Pesse 1.jpg"}},
{"type":"Feature","geometry":{"type":"Point","coordinates":[5.8967665,46.3232245]},"properties":{"ele":"1147","fixme":"position approximative","hiking":"yes","information":"guidepost","name":"La Combe aux Prosts","tourism":"information"}},
{"type":"Feature","geometry":{"type":"Point","coordinates":[5.9069609,46.3148104]},"properties":{"ele":"1255","hiking":"yes","information":"guidepost","name":"La Combe d'Enfer","tourism":"information"}},
{"type":"Feature","geometry":{"type":"Point","coordinates":[5.9073709,46.314519]},"properties":{"ele":"1260","information":"guidepost","name":"École de Bellecombe","tourism":"information"}},
{"type":"Feature","geometry":{"type":"Point","coordinates":[5.8992119,46.2869593]},"properties":{"ele":"1286","hiking":"yes","information":"guidepost","name":"La Mignatte","tourism":"information"}},
{"type":"Feature","geometry":{"type":"Point","coordinates":[5.8965416,46.2898927]},"properties":{"ele":"1380","hiking":"yes","information":"guidepost","name":"Col des Salettes","tourism":"information"}},
{"type":"Feature","geometry":{"type":"Point","coordinates":[5.8696977,46.2697809]},"properties":{"ele":"1280","name":"Le Berbois","place":"hamlet","ref:FR:FANTOIR":"39413B003M","tourism":"information"}},
{"type":"Feature","geometry":{"type":"Point","coordinates":[5.9072039,46.3113828]},"properties":{"ele":"1258","hiking":"yes","information":"guidepost","name":"Les Grandes Coupes","tourism":"information"}},
{"type":"Feature","geometry":{"type":"Point","coordinates":[5.8855099,46.2832446]},"properties":{"ele":"1315","hiking":"yes","information":"guidepost","mtb":"yes","name":"Sous Les Loges","tourism":"information"}},
{"type":"Feature","geometry":{"type":"Point","coordinates":[5.9483095,46.28744]},"properties":{"ele":"1450","fixme":"position approximative","hiking":"yes","information":"guidepost","name":"Brulats Frésy","tourism":"information"}},
{"type":"Feature","geometry":{"type":"Point","coordinates":[5.9414546,46.2772551]},"properties":{"name":"Brûlât d'en Haut - 1505m","name:fr":"Brûlât d'en Haut - 1505m","tourism":"information"}},
{"type":"Feature","geometry":{"type":"Point","coordinates":[5.8695689,46.2649073]},"properties":{"tourism":"viewpoint"}},
{"type":"Feature","geometry":{"type":"Point","coordinates":[5.8974679,46.2170082]},"properties":{"name":"Passage du Gralet","natural":"saddle","source":"IGN - 2021-06"}},
{"type":"Feature","geometry":{"type":"Point","coordinates":[5.8919056,46.2540045]},"properties":{"access":"private","tourism":"picnic_site"}},
{"type":"Feature","geometry":{"type":"Point","coordinates":[5.942822,46.3043115]},"properties":{"name":"La pomme de pin","tourism":"guest_house"}},
{"type":"Feature","geometry":{"type":"Point","coordinates":[5.8684256,46.3130164]},"properties":{"historic":"ruins","historic:civilization":"modern"}},
{"type":"Feature","geometry":{"type":"Point","coordinates":[5.8440981,46.2817791]},"properties":{"name":"Gîte de la Haute Molune","phone":"+33367100486","tourism":"apartment","website":"https://www.location-haut-jura.com/"}},
{"type":"Feature","geometry":{"type":"Point","coordinates":[5.9407161,46.3030491]},"properties":{"historic":"memorial","memorial":"plaque","ref:FR:MemorialGenWeb":"3181","war_memorial":"yes","wikidata":"Q90853028","wikimedia_commons":"File:Monument aux morts 14-18 à Lélex.jpg"}},
{"type":"Feature","geometry":{"type":"Point","coordinates":[5.8545982,46.2345363]},"properties":{"ele":"970","historic":"ruins","name":"Grand Mannet"}},
{"type":"Feature","geometry":{"type":"Point","coordinates":[5.8543232,46.2325999]},"properties":{"name":"Le petit Mannet","tourism":"chalet"}},
{"type":"Feature","geometry":{"type":"Point","coordinates":[5.8922246,46.3175614]},"properties":{"historic":"wayside_cross"}},
{"type":"Feature","geometry":{"type":"Point","coordinates":[5.8383368,46.256457]},"properties":{"operator":"Enedis","power":"pole"}},
{"type":"Feature","geometry":{"type":"Point","coordinates":[5.9380799,46.3005197]},"properties":{"leisure":"resort","name":"VVF"}},
{"type":"Feature","geometry":{"type":"Point","coordinates":[5.8689102,46.2652806]},"properties":{"covered":"yes","leisure":"picnic_table","material":"wood","shelter":"yes"}},
{"type":"Feature","geometry":{"type":"Point","coordinates":[5.8965489,46.2151081]},"properties":{"tourism":"viewpoint"}},
{"type":"Feature","geometry":{"type":"Point","coordinates":[5.8456026,46.28323]},"properties":{"artwork_type":"statue","denomination":"catholic","name":"Madone","religion":"christian","tourism":"artwork"}},
{"type":"Feature","geometry":{"type":"Point","coordinates":[5.9434432,46.2485644]},"properties":{"tourism":"viewpoint"}},
{"type":"Feature","geometry":{"type":"Point","coordinates":[5.9410313,46.2480653]},"properties":{"tourism":"viewpoint"}},
{"type":"Feature","geometry":{"type":"Point","coordinates":[5.9400454,46.2709107]},"properties":{"tourism":"viewpoint"}},
{"type":"Feature","geometry":{"type":"Point","coordinates":[5.9400973,46.2482577]},"properties":{"tourism":"viewpoint"}},
{"type":"Feature","geometry":{"type":"Point","coordinates":[5.9433967,46.2528922]},"properties":{"tourism":"viewpoint"}},
{"type":"Feature","geometry":{"type":"Point","coordinates":[5.8763342,46.2769343]},"properties":{"amenity":"watering_place","drinking_water":"no","natural":"spring"}},
{"type":"Feature","geometry":{"type":"Point","coordinates":[5.8775324,46.2781061]},"properties":{"amenity":"watering_place","drinking_water":"no","natural":"spring"}},
{"type":"Feature","geometry":{"type":"Point","coordinates":[5.8731466,46.2729584]},"properties":{"amenity":"watering_place","drinking_water":"no","natural":"spring"}},
{"type":"Feature","geometry":{"type":"Point","coordinates":[5.8886495,46.2821879]},"properties":{"amenity":"watering_place","drinking_water":"no","natural":"spring"}},
{"type":"Feature","geometry":{"type":"Point","coordinates":[5.8583992,46.2870221]},"properties":{"natural":"spring","seasonal":"yes"}},
{"type":"Feature","geometry":{"type":"Point","coordinates":[5.8580426,46.2876232]},"properties":{"natural":"spring","seasonal":"yes"}},
{"type":"Feature","geometry":{"type":"Point","coordinates":[5.8601492,46.2909122]},"properties":{"natural":"spring"}},
{"type":"Feature","geometry":{"type":"Point","coordinates":[5.8602545,46.2921478]},"properties":{"natural":"spring"}},
{"type":"Feature","geometry":{"type":"Point","coordinates":[5.8424147,46.2822922]},"properties":{"amenity":"watering_place","natural":"spring","seasonal":"yes"}},
{"type":"Feature","geometry":{"type":"Point","coordinates":[5.843169,46.2821838]},"properties":{"natural":"spring","seasonal":"yes"}},
{"type":"Feature","geometry":{"type":"Point","coordinates":[5.850369,46.2911693]},"properties":{"natural":"sinkhole","sinkhole":"ponor"}},
{"type":"Feature","geometry":{"type":"Point","coordinates":[5.8502129,46.2900897]},"properties":{"natural":"sinkhole","sinkhole":"ponor"}},
{"type":"Feature","geometry":{"type":"Point","coordinates":[5.8582967,46.2859564]},"properties":{"natural":"sinkhole","sinkhole":"ponor"}},
{"type":"Feature","geometry":{"type":"Point","coordinates":[5.8688764,46.2692121]},"properties":{"natural":"spring"}},
{"type":"Feature","geometry":{"type":"Point","coordinates":[5.8464267,46.2711501]},"properties":{"mobile":"+33 6 38 18 23 59","name":"La Petite Taïga","phone":"+33 3 84 41 54 08","ref:FR:SIRET":"88480794200013","tourism":"chalet","website":"https://lapetitetaiga.wordpress.com"}},
{"type":"Feature","geometry":{"type":"Point","coordinates":[5.8481705,46.2842171]},"properties":{"covered":"yes","leisure":"picnic_table"}},
{"type":"Feature","geometry":{"type":"Point","coordinates":[5.8453835,46.2807001]},"properties":{"ele":"1162","hiking":"yes","information":"guidepost","mtb":"yes","name":"Sur la Semine","survey:date":"2022-01-16","tourism":"information"}},
{"type":"Feature","geometry":{"type":"Point","coordinates":[5.8469578,46.2840664]},"properties":{"ele":"1169","information":"guidepost","name":"Les Gentianes","ski":"yes","snowshoe":"yes","survey:date":"2022-01-16","tourism":"information"}},
{"type":"Feature","geometry":{"type":"Point","coordinates":[5.8476632,46.2847317]},"properties":{"amenity":"bar","amenity_1":"fast_food","description":"Gîte et bistrot","name":"Gîte Les Tavaillons","opening_hours":"Jul-Aug; Dec 20-Apr 01","phone":"+33 7 82 39 62 28","ref:FR:SIRET":"34136924700042","tourism":"hostel","website":"http://www.gitelestavaillons.com/","wheelchair":"no"}},
{"type":"Feature","geometry":{"type":"Point","coordinates":[5.8472319,46.2844706]},"properties":{"ele":"1170","hiking":"yes","information":"guidepost","mtb":"yes","name":"La Pesse","survey:date":"2022-01-16","tourism":"information"}},
{"type":"Feature","geometry":{"type":"Point","coordinates":[5.8488013,46.2840044]},"properties":{"ele":"1160","hiking":"yes","information":"route_marker","name":"Porte d'entrée de la Pesse","ski":"yes","tourism":"information"}},
{"type":"Feature","geometry":{"type":"Point","coordinates":[5.8536093,46.283759]},"properties":{"information":"route_marker","name":"Les Cruzes","tourism":"information"}},
{"type":"Feature","geometry":{"type":"Point","coordinates":[5.8673282,46.2835195]},"properties":{"ele":"1250","information":"guidepost","name":"Combe Froide","tourism":"information"}},
{"type":"Feature","geometry":{"type":"Point","coordinates":[5.8489035,46.2840145]},"properties":{"ele":"1160","information":"guidepost","name":"La Pesse - Village","ski":"yes","tourism":"information"}},
{"type":"Feature","geometry":{"type":"Point","coordinates":[5.8680098,46.2774371]},"properties":{"ele":"1365","hiking":"yes","information":"guidepost","name":"Belvédère Crêt du Nerbier","tourism":"information"}},
{"type":"Feature","geometry":{"type":"Point","coordinates":[5.8584528,46.2758113]},"properties":{"ele":"1253","information":"guidepost","name":"La Basse Combe Froide","tourism":"information"}},
{"type":"Feature","geometry":{"type":"Point","coordinates":[5.8572541,46.2827825]},"properties":{"ele":"1215","hiking":"yes","information":"guidepost","mtb":"yes","name":"Au Berbouiller","running":"yes","survey:date":"2022-01-16","tourism":"information"}},
{"type":"Feature","geometry":{"type":"Point","coordinates":[5.8582668,46.2758621]},"properties":{"ele":"1252","fixme":"doublon ?","information":"guidepost","name":"Combe Froide","tourism":"information"}},
{"type":"Feature","geometry":{"type":"Point","coordinates":[5.8566741,46.2832544]},"properties":{"leisure":"picnic_table"}},
{"type":"Feature","geometry":{"type":"Point","coordinates":[5.8490039,46.2841327]},"properties":{"ele":"1160","information":"guidepost","name":"La Pesse","snowshoe":"yes","tourism":"information"}},
{"type":"Feature","geometry":{"type":"Point","coordinates":[5.8606655,46.2745162]},"properties":{"ele":"1272","hiking":"yes","information":"guidepost","mtb":"yes","name":"Sur les Puits","running":"yes","survey:date":"2022-01-16","tourism":"information"}},
{"type":"Feature","geometry":{"type":"Point","coordinates":[5.8569004,46.2833848]},"properties":{"ele":"1121","information":"guidepost","name":"Le Berbouiller","ski":"yes","survey:date":"2022-01-16","tourism":"information","wikimedia_commons":"File:Panneaux ski de fond jura 09.jpg"}},
{"type":"Feature","geometry":{"type":"Point","coordinates":[5.8548409,46.2838118]},"properties":{"ele":"1209","hiking":"yes","information":"guidepost","mtb":"yes","name":"Sous Les Bois","running":"yes","survey:date":"2022-01-16","tourism":"information"}},
{"type":"Feature","geometry":{"type":"Point","coordinates":[5.8613162,46.286326]},"properties":{"ele":"1240","information":"guidepost","name":"Sur le Talonnard","tourism":"information"}},
{"type":"Feature","geometry":{"type":"Point","coordinates":[5.8580586,46.2760455]},"properties":{"ele":"1250","fixme":"position approximative","information":"guidepost","name":"Combe Froide","survey:date":"2021-10-22","tourism":"information"}},
{"type":"Feature","geometry":{"type":"Point","coordinates":[5.863041,46.2723177]},"properties":{"ele":"1312","information":"guidepost","name":"Col du Nerbier","tourism":"information"}},
{"type":"Feature","geometry":{"type":"Point","coordinates":[5.9420622,46.3036691]},"properties":{"internet_access":"wlan","internet_access:fee":"no","mobile":"+33633477445","name":"Relais Mont Jura","tourism":"guest_house"}},
{"type":"Feature","geometry":{"type":"Point","coordinates":[5.9396782,46.3011902]},"properties":{"amenity":"restaurant","mobile":"+33680364070","name":"Le Telemark","tourism":"apartment"}},
{"type":"Feature","geometry":{"type":"Point","coordinates":[5.9194329,46.2833934]},"properties":{"ele":"855","hiking":"yes","information":"guidepost","name":"Le Niaizet","survey:date":"2021-10-22","tourism":"information"}},
{"type":"Feature","geometry":{"type":"Point","coordinates":[5.9195245,46.2222476]},"properties":{"hiking":"yes","information":"guidepost","name":"Sentier des Gardes","tourism":"information"}},
{"type":"Feature","geometry":{"type":"Point","coordinates":[5.8401663,46.2879649]},"properties":{"ele":"1152","information":"guidepost","name":"Le cernois","snowshoe":"yes","survey:date":"2022-01-22","tourism":"information"}},
{"type":"Feature","geometry":{"type":"Point","coordinates":[5.9140406,46.2526439]},"properties":{"ele":"1400","free_flying:official":"no","free_flying:site":"takeoff","name":"Décollage Parapente","sport":"free_flying","tourism":"attraction"}},
{"type":"Feature","geometry":{"type":"Point","coordinates":[5.8397991,46.3056199]},"properties":{"hiking":"yes","information":"guidepost","name":"Le Crêt","tourism":"information"}},
{"type":"Feature","geometry":{"type":"Point","coordinates":[5.8469651,46.2840355]},"properties":{"hiking":"no","information":"route_marker","name":"Domaine nordique des Haute-Combes","ski":"yes","tourism":"information"}},
{"type":"Feature","geometry":{"type":"Point","coordinates":[5.846881,46.2840566]},"properties":{"covered":"no","leisure":"picnic_table"}},
{"type":"Feature","geometry":{"type":"Point","coordinates":[5.84801,46.285617]},"properties":{"ele":"1170","hiking":"yes","information":"guidepost","mtb":"yes","name":"Église","running":"yes","survey:date":"2022-01-16","tourism":"information"}},
{"type":"Feature","geometry":{"type":"Point","coordinates":[5.845335,46.2805701]},"properties":{"denomination":"catholic","historic":"wayside_cross","religion":"christian"}},
{"type":"Feature","geometry":{"type":"Point","coordinates":[5.8453013,46.2801374]},"properties":{"information":"route_marker","tourism":"information"}},
{"type":"Feature","geometry":{"type":"Point","coordinates":[5.8688724,46.2651543]},"properties":{"hiking":"yes","information":"map","map_type":"topo","name":"Randonnées les voies du Jura","tourism":"information"}},
{"type":"Feature","geometry":{"type":"Point","coordinates":[5.8688763,46.2651388]},"properties":{"ele":"1289","hiking":"yes","information":"guidepost","mtb":"yes","name":"La Borne au Lion","survey:date":"2022-01-16","tourism":"information"}},
{"type":"Feature","geometry":{"type":"Point","coordinates":[5.8607451,46.249277]},"properties":{"fixme":"position approximative","hiking":"yes","information":"guidepost","tourism":"information"}},
{"type":"Feature","geometry":{"type":"Point","coordinates":[5.8411906,46.2920406]},"properties":{"hiking":"yes","information":"guidepost","name":"Chaudezembre","tourism":"information"}},
{"type":"Feature","geometry":{"type":"Point","coordinates":[5.9090113,46.3037598]},"properties":{"ele":"1230","hiking":"yes","information":"guidepost","name":"Les Trois Cheminées","tourism":"information"}},
{"type":"Feature","geometry":{"type":"Point","coordinates":[5.865517,46.2218151]},"properties":{"hiking":"yes","information":"guidepost","tourism":"information"}},
{"type":"Feature","geometry":{"type":"Point","coordinates":[5.9172919,46.3162947]},"properties":{"hiking":"yes","horse":"yes","information":"guidepost","name":"Les Humberts","tourism":"information"}},
{"type":"Feature","geometry":{"type":"Point","coordinates":[5.8481948,46.2856958]},"properties":{"amenity":"restaurant","cuisine":"regional","email":"contact@gite-burdet.fr","name":"Chez Burdet","opening_hours":"Mo,We 08:00-15:00 open, Mo,We 18:00-20:00 \"Le soir sur réservation\"; Th 08:00-20:00 \"Fermé sauf réservation préalable \"; Fr-Su 08:00-20:00","phone":"+33 3 84 42 70 12","ref:FR:SIRET":"45330378600017","tourism":"hostel","website":"https://gite-burdet.fr"}},
{"type":"Feature","geometry":{"type":"Point","coordinates":[5.8697318,46.2685904]},"properties":{"fixme":"position approximative","hiking":"yes","information":"guidepost","name":"Combe du Berbois","tourism":"information"}},
{"type":"Feature","geometry":{"type":"Point","coordinates":[5.8696964,46.2697982]},"properties":{"fixme":"position approximative","hiking":"yes","information":"guidepost","name":"Le Berbois","tourism":"information"}},
{"type":"Feature","geometry":{"type":"Point","coordinates":[5.8615443,46.2504474]},"properties":{"information":"map","map_type":"toposcope","tourism":"information"}},
{"type":"Feature","geometry":{"type":"Point","coordinates":[5.8614026,46.2505312]},"properties":{"information":"map","map_type":"toposcope","tourism":"information"}},
{"type":"Feature","geometry":{"type":"Point","coordinates":[5.9227817,46.3245701]},"properties":{"hiking":"yes","information":"map","map_type":"topo","tourism":"information"}},
{"type":"Feature","geometry":{"type":"Point","coordinates":[5.9227495,46.3245737]},"properties":{"leisure":"picnic_table"}},
{"type":"Feature","geometry":{"type":"Point","coordinates":[5.8962567,46.3241966]},"properties":{"hiking":"yes","information":"guidepost","mtb":"yes","name":"Maison des Fromages","tourism":"information"}},
{"type":"Feature","geometry":{"type":"Point","coordinates":[5.8861304,46.3106351]},"properties":{"fixme":"position approximative","hiking":"yes","information":"guidepost","name":"Le Crêté","tourism":"information"}},
{"type":"Feature","geometry":{"type":"Point","coordinates":[5.8771757,46.3114635]},"properties":{"ele":"1210","fixme":"position approximative","hiking":"yes","information":"guidepost","mtb":"yes","name":"La Grande Molune","tourism":"information"}},
{"type":"Feature","geometry":{"type":"Point","coordinates":[5.8727463,46.3155592]},"properties":{"fixme":"position à vérifier","hiking":"yes","information":"guidepost","name":"Pré Gauthier","tourism":"information"}},
{"type":"Feature","geometry":{"type":"Point","coordinates":[5.8784077,46.3267916]},"properties":{"fixme":"position approximative","hiking":"yes","information":"guidepost","name":"Pré Grandvaux","tourism":"information"}},
{"type":"Feature","geometry":{"type":"Point","coordinates":[5.8908977,46.3251117]},"properties":{"ele":"1145","hiking":"yes","horse":"yes","information":"guidepost","mtb":"yes","name":"Les Moussières","running":"yes","survey:date":"2022-01-16","tourism":"information"}},
{"type":"Feature","geometry":{"type":"Point","coordinates":[5.8891542,46.3055319]},"properties":{"ele":"1195","hiking":"yes","information":"guidepost","mtb":"yes","name":"Les Mouilles","survey:date":"2022-01-16","tourism":"information"}},
{"type":"Feature","geometry":{"type":"Point","coordinates":[5.8936343,46.2940553]},"properties":{"ele":"1273","fixme":"position approximative","hiking":"yes","information":"guidepost","name":"La Morseline","tourism":"information"}},
{"type":"Feature","geometry":{"type":"Point","coordinates":[5.8725861,46.3015053]},"properties":{"ele":"1140","fixme":"position approximative","hiking":"yes","information":"guidepost","mtb":"yes","name":"Sous l'Anquerne","tourism":"information"}},
{"type":"Feature","geometry":{"type":"Point","coordinates":[5.8759814,46.2986526]},"properties":{"ele":"1181","hiking":"yes","information":"guidepost","mtb":"yes","name":"L'Anquerne","running":"yes","survey:date":"2022-01-16","tourism":"information"}},
{"type":"Feature","geometry":{"type":"Point","coordinates":[5.8632795,46.3042953]},"properties":{"hiking":"yes","information":"guidepost","name":"L'Embouteilleux","tourism":"information"}},
{"type":"Feature","geometry":{"type":"Point","coordinates":[5.8556777,46.2965299]},"properties":{"ele":"1166","hiking":"yes","information":"guidepost","mtb":"yes","name":"L'Embossieux","running":"yes","survey:date":"2022-01-16","tourism":"information"}},
{"type":"Feature","geometry":{"type":"Point","coordinates":[5.8562079,46.2976771]},"properties":{"denomination":"catholic","historic":"wayside_cross","religion":"christian"}},
{"type":"Feature","geometry":{"type":"Point","coordinates":[5.850211,46.2879349]},"properties":{"email":"la-fruitiere@wanadoo.fr","fax":"+33 3 84 42 73 40","fee":"yes","name":"Musée Métiers d'Autrefois du Haut Jura","operator":"La fruitière Haut-Jura","phone":"+33 3 84 42 70 47","tourism":"museum","website":"https://www.fruitiere-lapesse.com/page/le-musee"}},
{"type":"Feature","geometry":{"type":"Point","coordinates":[5.8479015,46.2857981]},"properties":{"denomination":"catholic","historic":"wayside_cross","religion":"christian"}},
{"type":"Feature","geometry":{"type":"Point","coordinates":[5.8690211,46.2653101]},"properties":{"covered":"yes","leisure":"picnic_table","material":"wood","shelter":"yes"}},
{"type":"Feature","geometry":{"type":"Point","coordinates":[5.8689718,46.2652925]},"properties":{"covered":"yes","leisure":"picnic_table","material":"wood","shelter":"yes"}},
{"type":"Feature","geometry":{"type":"Point","coordinates":[5.869101,46.26531]},"properties":{"historic":"memorial","inscription":"Maquis de l'Ain-Haut Jura","memorial":"stone","subject:wikidata":"Q3287291","wikimedia_commons":"File:Monument Maquis Ain Haut Jura Chalet Romans Petit Pesse 3.jpg"}},
{"type":"Feature","geometry":{"type":"Point","coordinates":[5.9410983,46.326336]},"properties":{"fixme":"position approximative","hiking":"yes","information":"guidepost","name":"La Pralouse","tourism":"information"}},
{"type":"Feature","geometry":{"type":"Point","coordinates":[5.9375869,46.3277702]},"properties":{"fixme":"position approximative","hiking":"yes","information":"guidepost","tourism":"information"}},
{"type":"Feature","geometry":{"type":"Point","coordinates":[5.9415147,46.2653504]},"properties":{"ele":"1580","hiking":"yes","information":"guidepost","name":"Curson","tourism":"information"}},
{"type":"Feature","geometry":{"type":"Point","coordinates":[5.9421685,46.3119156]},"properties":{"fixme":"position approximative","hiking":"yes","information":"guidepost","name":"Le Moulin Pierre Louis","tourism":"information"}},
{"type":"Feature","geometry":{"type":"Point","coordinates":[5.9507135,46.2814692]},"properties":{"fixme":"position approximative","hiking":"yes","information":"guidepost","tourism":"information"}},
{"type":"Feature","geometry":{"type":"Point","coordinates":[5.933887,46.2949014]},"properties":{"ele":"891","hiking":"yes","information":"guidepost","name":"Les Gindres","tourism":"information"}},
{"type":"Feature","geometry":{"type":"Point","coordinates":[5.947339,46.2966714]},"properties":{"ele":"1205","fixme":"position approximative","hiking":"yes","information":"guidepost","name":"Chalet du Ratou","tourism":"information"}},
{"type":"Feature","geometry":{"type":"Point","coordinates":[5.9408525,46.3024453]},"properties":{"ele":"895","hiking":"yes","information":"guidepost","name":"La Vieille Chapelle","tourism":"information"}},
{"type":"Feature","geometry":{"type":"Point","coordinates":[5.9464712,46.3099736]},"properties":{"ele":"900","hiking":"yes","information":"guidepost","name":"Les Mars","tourism":"information"}},
{"type":"Feature","geometry":{"type":"Point","coordinates":[5.9434923,46.3046065]},"properties":{"hiking":"yes","information":"route_marker","name":"Lélex","tourism":"information"}},
{"type":"Feature","geometry":{"type":"Point","coordinates":[5.9435058,46.3045925]},"properties":{"information":"map","map_size":"region","map_type":"topo","name":"Le Pays de Gex","tourism":"information"}},
{"type":"Feature","geometry":{"type":"Point","coordinates":[5.9434763,46.3046001]},"properties":{"information":"map","map_size":"city","map_type":"street","name":"Bienvenu à Lélex","tourism":"information"}},
{"type":"Feature","geometry":{"type":"Point","coordinates":[5.9455405,46.3077973]},"properties":{"fixme":"position approximative","hiking":"yes","information":"guidepost","tourism":"information"}},
{"type":"Feature","geometry":{"type":"Point","coordinates":[5.9228605,46.2819023]},"properties":{"hiking":"yes","information":"guidepost","tourism":"information"}},
{"type":"Feature","geometry":{"type":"Point","coordinates":[5.8401189,46.262222]},"properties":{"historic":"boundary_stone","name":"Borne frontière de 1613 (de la Sémine)"}},
{"type":"Feature","geometry":{"type":"Point","coordinates":[5.949668,46.300525]},"properties":{"fixme":"position approximative","hiking":"yes","information":"guidepost","tourism":"information"}},
{"type":"Feature","geometry":{"type":"Point","coordinates":[5.8687893,46.2650619]},"properties":{"historic":"memorial","inscription":"En souvenir de Parker -Parcifal- chirurgien anglais du maquis","memorial":"plaque","subject:wikidata":"Q3101097"}},
{"type":"Feature","geometry":{"type":"Point","coordinates":[5.8695838,46.2649214]},"properties":{"historic":"memorial","inscription":"1944 Maquis de l'Ain et du Haut-Jura","memorial":"stele","start_date":"1978-07-09","subject:wikidata":"Q3287291"}},
{"type":"Feature","geometry":{"type":"Point","coordinates":[5.8692559,46.2650473]},"properties":{"ele":"1289","hiking":"yes","horse":"yes","information":"guidepost","mtb":"yes","name":"La Borne au Lion","survey:date":"2022-01-16","tourism":"information"}},
{"type":"Feature","geometry":{"type":"Point","coordinates":[5.8692629,46.264805]},"properties":{"board_type":"history","information":"board","name":"La Borne au Lion de 1613","tourism":"information"}},
{"type":"Feature","geometry":{"type":"Point","coordinates":[5.8472087,46.2846625]},"properties":{"information":"map","map_size":"city","map_type":"street","name":"La Pesse","tourism":"information"}},
{"type":"Feature","geometry":{"type":"Point","coordinates":[5.8488744,46.2840642]},"properties":{"information":"map","map_size":"site","map_type":"topo","name":"Porte d'entrée de La Pesse","ski":"yes","snowshoe":"yes","tourism":"information"}},
{"type":"Feature","geometry":{"type":"Point","coordinates":[5.8465838,46.2843343]},"properties":{"leisure":"picnic_table","seasonal":"winter"}},
{"type":"Feature","geometry":{"type":"Point","coordinates":[5.8629234,46.297269]},"properties":{"hiking":"yes","information":"guidepost","name":"Pré Gaillard","tourism":"information"}},
{"type":"Feature","geometry":{"type":"Point","coordinates":[5.8655008,46.2725169]},"properties":{"ele":"1285","hiking":"yes","information":"guidepost","mtb":"yes","name":"Le Creusayet","running":"yes","survey:date":"2022-01-16","tourism":"information"}},
{"type":"Feature","geometry":{"type":"Point","coordinates":[5.8564898,46.2975643]},"properties":{"ele":"1164","information":"guidepost","name":"L'Embossieux","ski":"yes","snowshoe":"yes","survey:date":"2022-01-16","tourism":"information"}},
{"type":"Feature","geometry":{"type":"Point","coordinates":[5.860702,46.2748852]},"properties":{"hiking":"yes","information":"route_marker","running":"yes","tourism":"information"}},
{"type":"Feature","geometry":{"type":"Point","coordinates":[5.9177019,46.2771506]},"properties":{"fixme":"position approximative","hiking":"yes","information":"guidepost","tourism":"information"}},
{"type":"Feature","geometry":{"type":"Point","coordinates":[5.8429109,46.2809051]},"properties":{"board_type":"information","information":"board","name":"Je partage la piste","tourism":"information"}},
{"type":"Feature","geometry":{"type":"Point","coordinates":[5.8418839,46.2787691]},"properties":{"information":"guidepost","name":"Circuits Chiens de Traineaux","snowshoe":"yes","survey:date":"2022-01-22","tourism":"information"}},
{"type":"Feature","geometry":{"type":"Point","coordinates":[5.8373291,46.2747407]},"properties":{"information":"guidepost","name":"Circuits Chiens de Traineaux","snowshoe":"yes","survey:date":"2022-01-22","tourism":"information"}},
{"type":"Feature","geometry":{"type":"Point","coordinates":[5.8477848,46.2857027]},"properties":{"board_type":"history","information":"board","tourism":"information"}},
{"type":"Feature","geometry":{"type":"Point","coordinates":[5.8465411,46.2733372]},"properties":{"contact:facebook":"HotesAuCoeurDesEtoiles","email":"vinciane.genoud@gmail.com","mobile":"+33 6 78 37 71 22","name":"Au cœur des Étoiles","phone":"+33 3 84 41 14 23","tourism":"chalet","website":"https://hotes-aucoeurdesetoiles.com"}},
{"type":"Feature","geometry":{"type":"Point","coordinates":[5.842796,46.2653882]},"properties":{"alt_name":"Domaine de la Combe","name":"La Source","phone":"+33 6 83 28 69 47","ref:FR:SIRET":"89232183700015","tourism":"chalet","website":"https://www.domainedelacombejura.com"}},
{"type":"Feature","geometry":{"type":"Point","coordinates":[5.8415951,46.2816074]},"properties":{"access":"yes","caravan_site":"motorhome_stopover","caravan_site:type":"mountains","fee":"no","name":"Site de Terre-Blanche","power_supply":"yes","sanitary_dump_station":"yes","tourism":"caravan_site"}},
{"type":"Feature","geometry":{"type":"Point","coordinates":[5.8410202,46.2817475]},"properties":{"leisure":"picnic_table"}},
{"type":"Feature","geometry":{"type":"Point","coordinates":[5.8411456,46.2817181]},"properties":{"description":"Réglement d'utilisation des pistes destinées à la pratique du traineau à chiens et de l'aire d'accueil Lieu-dit Terre Blanche, La Pesse","information":"map","map_size":"site","map_type":"scheme","tourism":"information"}},
{"type":"Feature","geometry":{"type":"Point","coordinates":[5.8411701,46.2816633]},"properties":{"name":"Chalet d'accueil du site de Terre-Blanche","tourism":"alpine_hut"}},
{"type":"Feature","geometry":{"type":"Point","coordinates":[5.8409826,46.2824118]},"properties":{"information":"guidepost","name":"Circuits Chiens de traineaux","snowshoe":"yes","survey:date":"2022-01-22","tourism":"information"}},
{"type":"Feature","geometry":{"type":"Point","coordinates":[5.8409147,46.2817991]},"properties":{"ele":"1161","information":"guidepost","name":"Terre-Blanche","snowshoe":"yes","survey:date":"2022-01-22","tourism":"information"}},
{"type":"Feature","geometry":{"type":"Point","coordinates":[5.8591979,46.2880153]},"properties":{"ele":"1217","information":"guidepost","name":"Route du Talonnard","snowshoe":"yes","tourism":"information"}},
{"type":"Feature","geometry":{"type":"Point","coordinates":[5.8600637,46.2873734]},"properties":{"information":"guidepost","name":"Le Talonnard","ski":"yes","snowshoe":"yes","survey:date":"2022-01-27","tourism":"information"}},
{"type":"Feature","geometry":{"type":"Point","coordinates":[5.8608845,46.2930554]},"properties":{"information":"route_marker","mtb":"yes","tourism":"information"}},
{"type":"Feature","geometry":{"type":"Point","coordinates":[5.8575803,46.2945664]},"properties":{"information":"route_marker","name":"La Combe aux Bisons","tourism":"information"}},
{"type":"Feature","geometry":{"type":"Point","coordinates":[5.8576627,46.2944811]},"properties":{"ele":"1201","information":"guidepost","name":"Pré Reverchon","snowshoe":"yes","survey:date":"2022-01-27","tourism":"information"}},
{"type":"Feature","geometry":{"type":"Point","coordinates":[5.8584042,46.2883874]},"properties":{"information":"guidepost","snowshoe":"yes","survey:date":"2022-01-27","tourism":"information"}},
{"type":"Feature","geometry":{"type":"Point","coordinates":[5.8538151,46.2872544]},"properties":{"information":"guidepost","snowshoe":"yes","tourism":"information"}},
{"type":"Feature","geometry":{"type":"Point","coordinates":[5.8560637,46.2854743]},"properties":{"information":"guidepost","snowshoe":"yes","survey:date":"2022-01-27","tourism":"information"}},
{"type":"Feature","geometry":{"type":"Point","coordinates":[5.8567243,46.283615]},"properties":{"leisure":"picnic_table","seasonal":"winter"}},
{"type":"Feature","geometry":{"type":"Point","coordinates":[5.8567141,46.2836368]},"properties":{"leisure":"picnic_table","seasonal":"winter"}},
{"type":"Feature","geometry":{"type":"Point","coordinates":[5.8567128,46.2835156]},"properties":{"information":"guidepost","snowshoe":"yes","tourism":"information"}},
{"type":"Feature","geometry":{"type":"Point","coordinates":[5.8497505,46.2838452]},"properties":{"ele":"1167","information":"guidepost","name":"Fil neige La Pesse","snowshoe":"yes","survey:date":"2022-01-27","tourism":"information"}},
{"type":"Feature","geometry":{"type":"Point","coordinates":[5.8555223,46.2843939]},"properties":{"ele":"1211","information":"guidepost","name":"Sous le Bourbouiller","snowshoe":"yes","survey:date":"2022-01-27","tourism":"information"}},
{"type":"Feature","geometry":{"type":"Point","coordinates":[5.8539463,46.3153543]},"properties":{"ele":"1102","hiking":"yes","horse":"yes","information":"guidepost","mtb":"yes","name":"La Petite Coinche","running":"yes","tourism":"information"}},
{"type":"Feature","geometry":{"type":"Point","coordinates":[5.9370485,46.3046423]},"properties":{"fixme":"position approximative","hiking":"yes","information":"guidepost","name":"Moulin Neuf","tourism":"information"}},
{"type":"Feature","geometry":{"type":"Point","coordinates":[5.944506,46.3061896]},"properties":{"natural":"tree"}},
{"type":"Feature","geometry":{"type":"Point","coordinates":[5.9446715,46.3064143]},"properties":{"natural":"tree"}},
{"type":"Feature","geometry":{"type":"Point","coordinates":[5.944768,46.3065725]},"properties":{"natural":"tree"}},
{"type":"Feature","geometry":{"type":"Point","coordinates":[5.9449004,46.3067334]},"properties":{"natural":"tree"}},
{"type":"Feature","geometry":{"type":"Point","coordinates":[5.9450369,46.3069373]},"properties":{"natural":"tree"}},
{"type":"Feature","geometry":{"type":"Point","coordinates":[5.9452217,46.3071935]},"properties":{"natural":"tree"}},
{"type":"Feature","geometry":{"type":"Point","coordinates":[5.945587,46.3071639]},"properties":{"natural":"tree"}},
{"type":"Feature","geometry":{"type":"Point","coordinates":[5.8672028,46.3103524]},"properties":{"ele":"1179","fixme":"position approximative","hiking":"no","information":"guidepost","name":"Les Planes","tourism":"information"}},
{"type":"Feature","geometry":{"type":"Point","coordinates":[5.8691324,46.2665064]},"properties":{"ele":"1290","hiking":"yes","information":"guidepost","mtb":"yes","name":"La Borne au Lion","seasonal":"winter","ski":"yes","survey:date":"2022-01-16","tourism":"information"}},
{"type":"Feature","geometry":{"type":"Point","coordinates":[5.9298304,46.2569839]},"properties":{"ele":"1717","name":"Le Reculet","natural":"peak","source":"https://serval.unil.ch/resource/serval:BIB_74DF5BB40E91.P001/REF","summit:cross":"yes","wikidata":"Q1456446","wikimedia_commons":"Category:Le Reculet","wikipedia":"fr:Le Reculet"}},
{"type":"Feature","geometry":{"type":"Point","coordinates":[5.9273364,46.245081]},"properties":{"drinking_water":"no","natural":"spring"}},
{"type":"Feature","geometry":{"type":"Point","coordinates":[5.929089,46.2481238]},"properties":{"name":"Source de Nardéran","natural":"spring"}},
{"type":"Feature","geometry":{"type":"Point","coordinates":[5.9494046,46.2855101]},"properties":{"historic":"ruins"}},
{"type":"Feature","geometry":{"type":"Point","coordinates":[5.8988964,46.2167143]},"properties":{"ele":"1445","information":"guidepost","tourism":"information"}},
{"type":"Feature","geometry":{"type":"Point","coordinates":[5.8956617,46.2127732]},"properties":{"information":"map","tourism":"information"}},
{"type":"Feature","geometry":{"type":"Point","coordinates":[5.9506085,46.2800541]},"properties":{"information":"guidepost","tourism":"information"}},
{"type":"Feature","geometry":{"type":"Point","coordinates":[5.9358545,46.2675752]},"properties":{"ele":"1680","information":"guidepost","name":"Sur les Brulats","tourism":"information"}},
{"type":"Feature","geometry":{"type":"Point","coordinates":[5.9523119,46.2895528]},"properties":{"information":"map","tourism":"information"}},
{"type":"Feature","geometry":{"type":"Point","coordinates":[5.8982369,46.2145365]},"properties":{"leisure":"picnic_table"}},
{"type":"Feature","geometry":{"type":"Point","coordinates":[5.8984423,46.2146261]},"properties":{"leisure":"firepit"}},
{"type":"Feature","geometry":{"type":"Point","coordinates":[5.9456381,46.3075359]},"properties":{"addr:city":"Lélex","addr:housenumber":"67","addr:postcode":"01410","addr:street":"Rue des Monts Jura","bbq":"yes","dishwasher":"yes","freezer":"yes","fridge":"yes","guest_house":"guest_house","internet_access":"yes","internet_access:fee":"customers","name":"Gite l'Étable","phone":"+33 675691655","rooms":"3","smoking":"no","toaster":"yes","tourism":"guest_house","washing_machine":"yes","website":"https://www.gites-de-france-ain.com/location-vacances-Lelex-Gite-L-etable-01G210030.html"}},
{"type":"Feature","geometry":{"type":"Point","coordinates":[5.9069247,46.2933241]},"properties":{"leaf_cycle":"evergreen","leaf_type":"needleleaved","natural":"tree"}},
{"type":"Feature","geometry":{"type":"Point","coordinates":[5.9072744,46.2934554]},"properties":{"leaf_cycle":"evergreen","leaf_type":"needleleaved","natural":"tree"}},
{"type":"Feature","geometry":{"type":"Point","coordinates":[5.908035,46.2933368]},"properties":{"leaf_cycle":"evergreen","leaf_type":"needleleaved","natural":"tree"}},
{"type":"Feature","geometry":{"type":"Point","coordinates":[5.9085258,46.2935996]},"properties":{"leaf_cycle":"evergreen","leaf_type":"needleleaved","natural":"tree"}},
{"type":"Feature","geometry":{"type":"Point","coordinates":[5.9090594,46.2934088]},"properties":{"leaf_cycle":"evergreen","leaf_type":"needleleaved","natural":"tree"}},
{"type":"Feature","geometry":{"type":"Point","coordinates":[5.9087282,46.2930231]},"properties":{"leaf_cycle":"evergreen","leaf_type":"needleleaved","natural":"tree"}},
{"type":"Feature","geometry":{"type":"Point","coordinates":[5.9083724,46.293981]},"properties":{"leaf_cycle":"evergreen","leaf_type":"needleleaved","natural":"tree"}},
{"type":"Feature","geometry":{"type":"Point","coordinates":[5.9085135,46.2942565]},"properties":{"leaf_cycle":"evergreen","leaf_type":"needleleaved","natural":"tree"}},
{"type":"Feature","geometry":{"type":"Point","coordinates":[5.9087159,46.2944727]},"properties":{"leaf_cycle":"evergreen","leaf_type":"needleleaved","natural":"tree"}},
{"type":"Feature","geometry":{"type":"Point","coordinates":[5.9091146,46.2949686]},"properties":{"leaf_cycle":"evergreen","leaf_type":"needleleaved","natural":"tree"}},
{"type":"Feature","geometry":{"type":"Point","coordinates":[5.9082313,46.2946888]},"properties":{"leaf_cycle":"evergreen","leaf_type":"needleleaved","natural":"tree"}},
{"type":"Feature","geometry":{"type":"Point","coordinates":[5.9077467,46.2946973]},"properties":{"leaf_cycle":"evergreen","leaf_type":"needleleaved","natural":"tree"}},
{"type":"Feature","geometry":{"type":"Point","coordinates":[5.9061768,46.2925175]},"properties":{"leaf_cycle":"evergreen","leaf_type":"needleleaved","natural":"tree"}},
{"type":"Feature","geometry":{"type":"Point","coordinates":[5.9060546,46.2927549]},"properties":{"leaf_cycle":"evergreen","leaf_type":"needleleaved","natural":"tree"}},
{"type":"Feature","geometry":{"type":"Point","coordinates":[5.9062493,46.2927074]},"properties":{"leaf_cycle":"evergreen","leaf_type":"needleleaved","natural":"tree"}},
{"type":"Feature","geometry":{"type":"Point","coordinates":[5.9064479,46.2925993]},"properties":{"leaf_cycle":"evergreen","leaf_type":"needleleaved","natural":"tree"}},
{"type":"Feature","geometry":{"type":"Point","coordinates":[5.9063906,46.2927945]},"properties":{"leaf_cycle":"evergreen","leaf_type":"needleleaved","natural":"tree"}},
{"type":"Feature","geometry":{"type":"Point","coordinates":[5.9066846,46.2919687]},"properties":{"leaf_cycle":"evergreen","leaf_type":"needleleaved","natural":"tree"}},
{"type":"Feature","geometry":{"type":"Point","coordinates":[5.8937243,46.2801911]},"properties":{"natural":"tree"}},
{"type":"Feature","geometry":{"type":"Point","coordinates":[5.89384,46.2804437]},"properties":{"natural":"tree"}},
{"type":"Feature","geometry":{"type":"Point","coordinates":[5.8948025,46.2811213]},"properties":{"natural":"tree"}},
{"type":"Feature","geometry":{"type":"Point","coordinates":[5.8953415,46.282134]},"properties":{"natural":"tree"}},
{"type":"Feature","geometry":{"type":"Point","coordinates":[5.8907419,46.2750125]},"properties":{"natural":"tree"}},
{"type":"Feature","geometry":{"type":"Point","coordinates":[5.8900376,46.2748972]},"properties":{"natural":"tree"}},
{"type":"Feature","geometry":{"type":"Point","coordinates":[5.8900685,46.2747627]},"properties":{"natural":"tree"}},
{"type":"Feature","geometry":{"type":"Point","coordinates":[5.8883914,46.2716757]},"properties":{"natural":"tree"}},
{"type":"Feature","geometry":{"type":"Point","coordinates":[5.8882982,46.2715849]},"properties":{"natural":"tree"}},
{"type":"Feature","geometry":{"type":"Point","coordinates":[5.88826,46.2713623]},"properties":{"natural":"tree"}},
{"type":"Feature","geometry":{"type":"Point","coordinates":[5.887832,46.2711191]},"properties":{"natural":"tree"}},
{"type":"Feature","geometry":{"type":"Point","coordinates":[5.8878659,46.2709873]},"properties":{"natural":"tree"}},
{"type":"Feature","geometry":{"type":"Point","coordinates":[5.8879846,46.2712012]},"properties":{"natural":"tree"}},
{"type":"Feature","geometry":{"type":"Point","coordinates":[5.8867698,46.2698862]},"properties":{"natural":"tree"}},
{"type":"Feature","geometry":{"type":"Point","coordinates":[5.8868035,46.2697941]},"properties":{"natural":"tree"}},
{"type":"Feature","geometry":{"type":"Point","coordinates":[5.8867138,46.2697108]},"properties":{"natural":"tree"}},
{"type":"Feature","geometry":{"type":"Point","coordinates":[5.8763599,46.2644244]},"properties":{"direction":"90","tourism":"viewpoint"}},
{"type":"Feature","geometry":{"type":"Point","coordinates":[5.8694565,46.2647156]},"properties":{"natural":"tree"}},
{"type":"Feature","geometry":{"type":"Point","coordinates":[5.8699255,46.2647875]},"properties":{"natural":"tree"}},
{"type":"Feature","geometry":{"type":"Point","coordinates":[5.8690475,46.2654222]},"properties":{"bench":"yes","colour":"yellow","covered":"no","leisure":"picnic_table","lit":"no","material":"wood","shelter":"yes"}},
{"type":"Feature","geometry":{"type":"Point","coordinates":[5.8614821,46.2505407]},"properties":{"direction":"0","tourism":"viewpoint"}},
{"type":"Feature","geometry":{"type":"Point","coordinates":[5.8614092,46.2503965]},"properties":{"direction":"180","tourism":"viewpoint"}},
{"type":"Feature","geometry":{"type":"Point","coordinates":[5.9336437,46.2365715]},"properties":{"information":"guidepost","name":"Sentier des Gardes","tourism":"information"}},
{"type":"Feature","geometry":{"type":"Point","coordinates":[5.9069708,46.2672571]},"properties":{"historic":"monument","name":"Pont du Rouffy"}},
{"type":"Feature","geometry":{"type":"Point","coordinates":[5.8393895,46.2759155]},"properties":{"addr:housenumber":"5","addr:street":"Route du Chapuzieux","email":"info@nature-divine.fr","internet_access":"yes","internet_access:fee":"no","mobile":"06 77 76 61 63","name":"Gîte le Cernetrou","operator":"Centre de ressourcement Nature Divine","phone":"+333 84 42 72 60","tourism":"chalet","website":"https://www.nature-divine.fr"}},
{"type":"Feature","geometry":{"type":"Point","coordinates":[5.8422023,46.2826257]},"properties":{"natural":"spring","seasonal":"yes"}},
{"type":"Feature","geometry":{"type":"Point","coordinates":[5.8402721,46.2858514]},"properties":{"amenity":"watering_place","natural":"spring","pumping_station":"yes","seasonal":"no"}},
{"type":"Feature","geometry":{"type":"Point","coordinates":[5.8475563,46.2845242]},"properties":{"name":"Les jonquilles","network":"Gîtes de France","tourism":"chalet","website":"https://www.gites-de-france.com/fr/bourgogne-franche-comte/jura/les-jonquilles-39g2248"}},
{"type":"Feature","geometry":{"type":"Point","coordinates":[5.8422241,46.278399]},"properties":{"amenity":"watering_place","natural":"spring","seasonal":"yes"}},
{"type":"Feature","geometry":{"type":"Point","coordinates":[5.8418502,46.2771243]},"properties":{"amenity":"watering_place","natural":"spring","seasonal":"yes"}},
{"type":"Feature","geometry":{"type":"Point","coordinates":[5.8690342,46.2656]},"properties":{"board_type":"notice","information":"board","tourism":"information"}},
{"type":"Feature","geometry":{"type":"Point","coordinates":[5.8633117,46.2714996]},"properties":{"amenity":"watering_place","drinking_water":"no","natural":"spring"}},
{"type":"Feature","geometry":{"type":"Point","coordinates":[5.8651562,46.2723568]},"properties":{"amenity":"watering_place","drinking_water":"no","natural":"spring"}},
{"type":"Feature","geometry":{"type":"Point","coordinates":[5.8370962,46.2805796]},"properties":{"amenity":"watering_place","drinking_water":"no","natural":"spring"}},
{"type":"Feature","geometry":{"type":"Point","coordinates":[5.8374843,46.2804629]},"properties":{"amenity":"watering_place","drinking_water":"no","natural":"spring"}},
{"type":"Feature","geometry":{"type":"Point","coordinates":[5.9396557,46.2709449]},"properties":{"ele":"1720","information":"guidepost","name":"Crêt de la Neige","tourism":"information"}},
{"type":"Feature","geometry":{"type":"Point","coordinates":[5.9195203,46.2834663]},"properties":{"ele":"855","information":"guidepost","name":"Le Niaizet","tourism":"information"}},
{"type":"Feature","geometry":{"type":"Point","coordinates":[5.8908959,46.3250872]},"properties":{"ele":"1145","information":"guidepost","name":"Les Moussières","tourism":"information"}},
{"type":"Feature","geometry":{"type":"Point","coordinates":[5.8692476,46.2651101]},"properties":{"ele":"1289","information":"guidepost","name":"La Borne au Lion","tourism":"information"}},
{"type":"Feature","geometry":{"type":"Point","coordinates":[5.940794,46.3025164]},"properties":{"ele":"895","information":"guidepost","name":"Lélex Vieille Chapelle","tourism":"information"}},
{"type":"Feature","geometry":{"type":"Point","coordinates":[5.9463385,46.2968372]},"properties":{"ele":"1210","information":"guidepost","name":"Chalet du Ratou","tourism":"information"}},
{"type":"Feature","geometry":{"type":"Point","coordinates":[5.9269836,46.2945476]},"properties":{"information":"guidepost","tourism":"information"}},
{"type":"Feature","geometry":{"type":"Point","coordinates":[5.8634721,46.3042037]},"properties":{"ele":"1127","information":"guidepost","name":"L'Embouteilleux","tourism":"information"}},
{"type":"Feature","geometry":{"type":"Point","coordinates":[5.8727571,46.3155579]},"properties":{"ele":"1205","information":"guidepost","name":"Pré Gauthier","tourism":"information"}},
{"type":"Feature","geometry":{"type":"Point","coordinates":[5.8696303,46.269801]},"properties":{"ele":"1280","information":"guidepost","name":"Le Berbois","tourism":"information"}},
{"type":"Feature","geometry":{"type":"Point","coordinates":[5.8557042,46.2964577]},"properties":{"ele":"1166","information":"guidepost","name":"L'Embossieux","tourism":"information"}},
{"type":"Feature","geometry":{"type":"Point","coordinates":[5.8672604,46.3103511]},"properties":{"ele":"1180","information":"guidepost","name":"Les Planes","tourism":"information"}},
{"type":"Feature","geometry":{"type":"Point","coordinates":[5.9434582,46.3045981]},"properties":{"ele":"900","information":"guidepost","name":"Lélex Centre","tourism":"information"}},
{"type":"Feature","geometry":{"type":"Point","coordinates":[5.9513935,46.2869605]},"properties":{"ele":"1475","information":"guidepost","name":"Combe des Voyettes","tourism":"information"}},
{"type":"Feature","geometry":{"type":"Point","coordinates":[5.8697483,46.2686576]},"properties":{"ele":"1273","information":"guidepost","name":"Combe du Berbois","tourism":"information"}},
{"type":"Feature","geometry":{"type":"Point","coordinates":[5.9298332,46.2569665]},"properties":{"ele":"1719","information":"guidepost","name":"Le Reculet","tourism":"information"}},
{"type":"Feature","geometry":{"type":"Point","coordinates":[5.8990076,46.2167281]},"properties":{"ele":"1445","information":"guidepost","name":"Passage des Chezerands","tourism":"information"}},
{"type":"Feature","geometry":{"type":"Point","coordinates":[5.8786075,46.3267915]},"properties":{"ele":"1200","information":"guidepost","name":"Pré Grandvaux","tourism":"information"}},
{"type":"Feature","geometry":{"type":"Point","coordinates":[5.9088897,46.2798804]},"properties":{"ele":"1125","information":"guidepost","name":"La Haute Cernaz","tourism":"information"}},
{"type":"Feature","geometry":{"type":"Point","coordinates":[5.9318559,46.2996803]},"properties":{"ele":"855","information":"guidepost","name":"La Fruitière","tourism":"information"}},
{"type":"Feature","geometry":{"type":"Point","coordinates":[5.8980949,46.2145844]},"properties":{"ele":"1460","information":"guidepost","name":"Le Gralet","tourism":"information"}},
{"type":"Feature","geometry":{"type":"Point","coordinates":[5.9353246,46.2671599]},"properties":{"ele":"1680","information":"guidepost","name":"Sur les Brulats","tourism":"information"}},
{"type":"Feature","geometry":{"type":"Point","coordinates":[5.8628264,46.297238]},"properties":{"ele":"1190","information":"guidepost","name":"Pré Gaillard","tourism":"information"}},
{"type":"Feature","geometry":{"type":"Point","coordinates":[5.8655751,46.2724351]},"properties":{"ele":"1285","information":"guidepost","name":"Le Creusayet","tourism":"information"}},
{"type":"Feature","geometry":{"type":"Point","coordinates":[5.8558737,46.2958222]},"properties":{"addr:city":"39370","addr:housenumber":"7","addr:street":"Route de la Pesse","email":"Ddruesne@gmail.com","name":"Chalet le Petit Bois Rond","operator":"D. et E. Druesne","phone":"+33 6 27 03 68 78","rooms":"2","tourism":"apartment","website":"https://www.jura-tourism.com/gite-chambre-d-hote/chalet-le-petit-bois-rond"}},
{"type":"Feature","geometry":{"type":"Point","coordinates":[5.8968403,46.2180057]},"properties":{"historic":"memorial","inscription":"ICI EST TOMBÉ\nFACE À L'ENNEMI\nPIERRE JOLY\n11 AOUT 1944","material":"stone","memorial":"plaque","name":"Tombe Pierre Joly"}},
{"type":"Feature","geometry":{"type":"Point","coordinates":[5.8427061,46.2136298]},"properties":{"name":"Crêtet","natural":"peak","source":"IGN - 2022-06"}},
{"type":"Feature","geometry":{"type":"Point","coordinates":[5.8395599,46.2167621]},"properties":{"name":"Crêt du Genou","natural":"peak","source":"IGN - 2022-06"}},
{"type":"Feature","geometry":{"type":"Point","coordinates":[5.8548326,46.2159607]},"properties":{"natural":"cave_entrance","source":"IGN - 2022-06"}},
{"type":"Feature","geometry":{"type":"Point","coordinates":[5.8394976,46.2301381]},"properties":{"name":"Haute Crête","natural":"peak","source":"IGN - 2022-06"}},
{"type":"Feature","geometry":{"type":"Point","coordinates":[5.8595835,46.2286951]},"properties":{"name":"Montagne des Moines","natural":"peak","source":"IGN - 2022-06"}},
{"type":"Feature","geometry":{"type":"Point","coordinates":[5.8680653,46.2472356]},"properties":{"name":"le Raveyrot","natural":"peak","source":"IGN - 2022-06"}},
{"type":"Feature","geometry":{"type":"Point","coordinates":[5.847779,46.2520469]},"properties":{"natural":"sinkhole","sinkhole":"pit","source":"IGN - 2022-06"}},
{"type":"Feature","geometry":{"type":"Point","coordinates":[5.9030668,46.2221003]},"properties":{"name":"Pierre de la Lune","natural":"peak","source":"IGN - 2022-06"}},
{"type":"Feature","geometry":{"type":"Point","coordinates":[5.8630312,46.2722761]},"properties":{"natural":"saddle","source":"IGN - 2022-06"}},
{"type":"Feature","geometry":{"type":"Point","coordinates":[5.8964122,46.2898721]},"properties":{"name":"Col des Salettes","natural":"saddle","source":"IGN - 2022-06"}},
{"type":"Feature","geometry":{"type":"Point","coordinates":[5.8679538,46.2230709]},"properties":{"leisure":"playground"}},
{"type":"Feature","geometry":{"type":"Point","coordinates":[5.9525025,46.2775619]},"properties":{"tourism":"viewpoint"}},
{"type":"Feature","geometry":{"type":"Point","coordinates":[5.9402556,46.2709299]},"properties":{"tourism":"viewpoint"}},
{"type":"Feature","geometry":{"type":"Point","coordinates":[5.9476664,46.2264973]},"properties":{"alt":"699","archaeological_site":"petroglyph","denotation":"natural_monument","description":"ref.: Les pierres à sculptures préhistoriques du Jura français (département de l'Ain); M. B. Reber; Bulletins et Mémoires de la Société d'Anthropologie de Paris;  Year 1903; pp. 20-55","ele":"699","geological":"glacial_erratic","height":"2.5","historic":"archaeological_site","inscription":"Cupule stone , Pierre à cupules, Schalenstein","length":"5.5","name":"Pierre du Paray","name:fr":"Pierre du Paray","tourism":"attraction","url":"https://www.persee.fr/doc/bmsap_0037-8984_1903_num_4_1_6482","width":"5.5"}},
{"type":"Feature","geometry":{"type":"Point","coordinates":[5.9433298,46.2216024]},"properties":{"archaeological_site":"petroglyph","denotation":"natural_monument","description":"ref.: Les pierres à sculptures préhistoriques du Jura français (département de l'Ain); M. B. Reber; Bulletins et Mémoires de la Société d'Anthropologie de Paris;  Year 1903; pp. 20-55","geological":"glacial_erratic","historic":"archaeological_site","inscription":"Cupule stone , Pierre à cupules, Schalenstein","name":"Pierre du Neyret","name:fr":"Pierre du Neyret","tourism":"attraction","url":"https://www.persee.fr/doc/bmsap_0037-8984_1903_num_4_1_6482"}},
{"type":"Feature","geometry":{"type":"Point","coordinates":[5.9495434,46.2244909]},"properties":{"description":"C'est une voiture abandonné au CERN fin 60 début 70 récupéré par Paul Richard qui la tiré avec sont tracteur dans cette pépinière de sapins qui ne dépassaient pas un mètre de haut à l'époque .","historic":"car","information":"Austin Cambridge A 40/A50","inscription":"GB","name":"Old GB Car Wreck","source":"https://www.facebook.com/photo/?fbid=10158041212977883&set=g.1596046257292744"}},
{"type":"Feature","geometry":{"type":"Point","coordinates":[5.9389031,46.2238479]},"properties":{"natural":"spring"}},
{"type":"Feature","geometry":{"type":"Point","coordinates":[5.9499217,46.2317785]},"properties":{"geological":"glacial_erratic","name":"Small erratic boulder of the Rhone glacier","natural":"stone"}},
{"type":"Feature","geometry":{"type":"Point","coordinates":[5.9491805,46.2308402]},"properties":{"geological":"glacial_erratic","name":"Two Small erratic boulder of the Rhone glacier","natural":"stone"}},
{"type":"Feature","geometry":{"type":"Point","coordinates":[5.9354404,46.2185671]},"properties":{"geological":"glacial_erratic","name":"Small erratic boulder of the Rhone glacier","natural":"stone"}},
{"type":"Feature","geometry":{"type":"Point","coordinates":[5.9480729,46.2311421]},"properties":{"alt":"723","denotation":"natural_monument","description":"Beautiful pair of erratic boulder from the Rhône glacier, glacial erratic , bloc erratique , pierre erratique , Findling","geological":"glacial_erratic","height":"3.5","length":"7","name":"Pair of big Erratic boulder of the Rhone glacier","natural":"stone","tourism":"attraction","width":"6"}},
{"type":"Feature","geometry":{"type":"Point","coordinates":[5.9485153,46.2309031]},"properties":{"alt":"721","denotation":"natural_monument","description":"Erratic boulder from the Rhône glacier, glacial erratic , bloc erratique , pierre erratique , Findling","geological":"glacial_erratic","height":"5","length":"6","name":"Big erratic boulder of the Rhone glacier","natural":"stone","tourism":"attraction","width":"5"}},
{"type":"Feature","geometry":{"type":"Point","coordinates":[5.9473797,46.2298976]},"properties":{"altitude":"722m","description":"Erratic boulder from the Rhône glacier, glacial erratic , bloc erratique , pierre erratique , Findling","geological":"glacial_erratic","name":"A Groupe Of Midsized Erratic boulder of the Rhone glacier","natural":"stone"}},
{"type":"Feature","geometry":{"type":"Point","coordinates":[5.9478674,46.2300799]},"properties":{"altitude":"717m","description":"Erratic boulder from the Rhône glacier, glacial erratic , bloc erratique , pierre erratique , Findling","geological":"glacial_erratic","name":"A pair of Small To Midsize Erratic boulder of the Rhone glacier","natural":"stone"}},
{"type":"Feature","geometry":{"type":"Point","coordinates":[5.9487874,46.2315233]},"properties":{"description":"Erratic boulder from the Rhône glacier, glacial erratic , bloc erratique , pierre erratique , Findling","ele":"716","geological":"glacial_erratic","name":"Smaller Erratic boulder of the Rhone glacier with a tree on top","natural":"stone"}},
{"type":"Feature","geometry":{"type":"Point","coordinates":[5.9473404,46.230119]},"properties":{"description":"Erratic boulder from the Rhône glacier, glacial erratic , bloc erratique , pierre erratique , Findling","ele":"730","geological":"glacial_erratic","name":"A Groupe Of Erratic boulder of the Rhone glacier","natural":"stone"}},
{"type":"Feature","geometry":{"type":"Point","coordinates":[5.9503106,46.2296877]},"properties":{"geological":"glacial_erratic","height":"2","length":"5","name":"A Broken Erratic boulder of the Rhone glacier","natural":"stone","width":"4"}},
{"type":"Feature","geometry":{"type":"Point","coordinates":[5.9486081,46.2285444]},"properties":{"geological":"glacial_erratic","height":"1.5","length":"4","name":"Erratic boulder of the Rhone glacier","natural":"stone","width":"4"}},
{"type":"Feature","geometry":{"type":"Point","coordinates":[5.9522009,46.2315005]},"properties":{"geological":"glacial_erratic","height":"1","length":"1.5","name":"Erratic boulder of the Rhone glacier","natural":"stone","width":"1"}},
{"type":"Feature","geometry":{"type":"Point","coordinates":[5.9504441,46.2303624]},"properties":{"geological":"glacial_erratic","height":"2","length":"2","name":"Group Of Erratic boulder of the Rhone glacier","natural":"stone","wid":"2"}},
{"type":"Feature","geometry":{"type":"Point","coordinates":[5.9497533,46.2293165]},"properties":{"geological":"glacial_erratic","height":"1","length":"2","name":"Erratic boulder of the Rhone glacier","natural":"stone","width":"1"}},
{"type":"Feature","geometry":{"type":"Point","coordinates":[5.9497064,46.2292328]},"properties":{"geological":"glacial_erratic","height":"1","length":"1.5","name":"Erratic boulder of the Rhone glacier","natural":"stone","width":"2.5"}},
{"type":"Feature","geometry":{"type":"Point","coordinates":[5.9497129,46.2291834]},"properties":{"archaeological_site":"petroglyph","height":"3","historic":"archaeological_site","length":"4","name":"Pierre A Cupules","name:en":"Cupule Stone","width":"5"}},
{"type":"Feature","geometry":{"type":"Point","coordinates":[5.9497639,46.2295632]},"properties":{"geological":"glacial_erratic","height":"1.5","length":"2","name":"Erratic boulder of the Rhone glacier","natural":"stone","width":"2"}},
{"type":"Feature","geometry":{"type":"Point","coordinates":[5.9497236,46.2294973]},"properties":{"geological":"glacial_erratic","height":"2","length":"4","name":"Erratic boulder of the Rhone glacier","natural":"stone","width":"2"}},
{"type":"Feature","geometry":{"type":"Point","coordinates":[5.9495265,46.2288297]},"properties":{"geological":"glacial_erratic","height":"1","length":"4","name":"Erratic boulder of the Rhone glacier","natural":"stone","width":"4"}},
{"type":"Feature","geometry":{"type":"Point","coordinates":[5.9499453,46.2293633]},"properties":{"geological":"glacial_erratic","height":"1","length":"2","name":"Erratic boulder of the Rhone glacier","natural":"stone","width":"1"}},
{"type":"Feature","geometry":{"type":"Point","coordinates":[5.9491938,46.2283878]},"properties":{"geological":"glacial_erratic","height":"1.5","length":"5","name":"Erratic boulder of the Rhone glacier","natural":"stone","width":"3"}},
{"type":"Feature","geometry":{"type":"Point","coordinates":[5.9510643,46.2298064]},"properties":{"ele":"699","height":"1","length":"1.5","name":"Erratic boulder of the Rhone glacier","natural":"stone","width":"1"}},
{"type":"Feature","geometry":{"type":"Point","coordinates":[5.9507139,46.2279685]},"properties":{"ele":"685","height":"1","length":"1","name":"Small erratic boulder of the Rhone glacier","natural":"stone","width":"1"}},
{"type":"Feature","geometry":{"type":"Point","coordinates":[5.9476385,46.2270279]},"properties":{"ele":"705","height":"1","length":"2","name":"Erratic boulder of the Rhone glacier","natural":"stone","width":"1"}},
{"type":"Feature","geometry":{"type":"Point","coordinates":[5.9479896,46.2270721]},"properties":{"ele":"702","height":"1","length":"3","name":"Erratic boulder of the Rhone glacier","natural":"stone","width":"1"}},
{"type":"Feature","geometry":{"type":"Point","coordinates":[5.9472726,46.2266093]},"properties":{"ele":"702","height":"1","length":"3","name":"Erratic boulder of the Rhone glacier","natural":"stone","width":"2"}},
{"type":"Feature","geometry":{"type":"Point","coordinates":[5.9477771,46.2265651]},"properties":{"alt":"697","archaeological_site":"petroglyph","denotation":"natural_monument","description":"ref.: Les pierres à sculptures préhistoriques du Jura français (département de l'Ain); M. B. Reber; Bulletins et Mémoires de la Société d'Anthropologie de Paris;  Year 1903; pp. 20-55","ele":"697","geological":"glacial_erratic","height":"2","historic":"archaeological_site","inscription":"Cupule stone , Pierre à cupules, Schalenstein","length":"6","name":"Pierre du Paray 2","tourism":"attraction","url":"https://www.persee.fr/doc/bmsap_0037-8984_1903_num_4_1_6482","width":"5"}},
{"type":"Feature","geometry":{"type":"Point","coordinates":[5.9470554,46.2263546]},"properties":{"alt":"699","height":"1","length":"1","name":"Smaller Erratic boulder of the Rhone glacier with a tree on top","natural":"stone","width":"1.5"}},
{"type":"Feature","geometry":{"type":"Point","coordinates":[5.9467037,46.2261091]},"properties":{"alt":"698","height":"1","length":"1","name":"Pair of smaller Erratic boulder of the Rhone glacier","natural":"stone","width":"1.5"}},
{"type":"Feature","geometry":{"type":"Point","coordinates":[5.946347,46.225757]},"properties":{"alt":"693","height":"1","length":"2","name":"Smaller Erratic boulder of the Rhone glacier with a tree on top","natural":"stone","width":"1"}},
{"type":"Feature","geometry":{"type":"Point","coordinates":[5.9462669,46.2255189]},"properties":{"alt":"691","height":"1","length":"2","name":"Erratic boulder of the Rhone glacier","natural":"stone","width":"2"}},
{"type":"Feature","geometry":{"type":"Point","coordinates":[5.9459138,46.2257189]},"properties":{"alt":"696","height":"2","length":"3","name":"Erratic boulder of the Rhone glacier","natural":"stone","width":"2"}},
{"type":"Feature","geometry":{"type":"Point","coordinates":[5.9458574,46.2256741]},"properties":{"alt":"697","height":"1","length":"4","name":"Erratic boulder of the Rhone glacier","natural":"stone","width":"1"}},
{"type":"Feature","geometry":{"type":"Point","coordinates":[5.9458516,46.2253783]},"properties":{"height":"1","length":"2","name":"Small erratic boulder of the Rhone glacier","natural":"stone","width":"1"}},
{"type":"Feature","geometry":{"type":"Point","coordinates":[5.9452487,46.2249256]},"properties":{"alt":"701","height":"2","length":"4","name":"Group Of Erratic boulder of the Rhone glacier","natural":"stone","width":"2"}},
{"type":"Feature","geometry":{"type":"Point","coordinates":[5.9455085,46.2247997]},"properties":{"alt":"695","geological":"glacial_erratic","height":"1","length":"2","name":"Small erratic boulder of the Rhone glacier","natural":"stone","width":"1.5"}},
{"type":"Feature","geometry":{"type":"Point","coordinates":[5.9452077,46.224726]},"properties":{"alt":"699","height":"1","length":"1","name":"Group Of Erratic boulder of the Rhone glacier","natural":"stone","width":"1"}},
{"type":"Feature","geometry":{"type":"Point","coordinates":[5.9458341,46.2251926]},"properties":{"alt":"693","height":"1","length":"2","name":"Erratic boulder of the Rhone glacier","natural":"stone","width":"2"}},
{"type":"Feature","geometry":{"type":"Point","coordinates":[5.9450657,46.2246339]},"properties":{"alt":"700","height":"1","length":"5","name":"Erratic boulder of the Rhone glacier","natural":"stone","width":"2.5"}},
{"type":"Feature","geometry":{"type":"Point","coordinates":[5.9434941,46.2241444]},"properties":{"alt":"709","height":"1","length":"4","name":"Erratic boulder of the Rhone glacier","natural":"stone","width":"4"}},
{"type":"Feature","geometry":{"type":"Point","coordinates":[5.9381117,46.2195568]},"properties":{"alt":"700","height":"1","length":"1","name":"Small erratic boulder of the Rhone glacier","natural":"stone","width":"1"}},
{"type":"Feature","geometry":{"type":"Point","coordinates":[5.9370199,46.2192382]},"properties":{"alt":"691","height":"1","length":"4","natural":"stone","width":"2"}},
{"type":"Feature","geometry":{"type":"Point","coordinates":[5.9510444,46.2388548]},"properties":{"drinking_water":"no","natural":"spring"}},
{"type":"Feature","geometry":{"type":"Point","coordinates":[5.9288943,46.2388066]},"properties":{"depth":"5","length":"4","natural":"cave_entrance","width":"2"}},
{"type":"Feature","geometry":{"type":"Point","coordinates":[5.9247515,46.2777692]},"properties":{"covered":"no","leisure":"picnic_table"}},
{"type":"Feature","geometry":{"type":"Point","coordinates":[5.9245586,46.2775613]},"properties":{"covered":"no","leisure":"picnic_table"}},
{"type":"Feature","geometry":{"type":"Point","coordinates":[5.9345541,46.2158168]},"properties":{"natural":"tree"}},
{"type":"Feature","geometry":{"type":"Point","coordinates":[5.9347258,46.2158168]},"properties":{"natural":"tree"}},
{"type":"Feature","geometry":{"type":"Point","coordinates":[5.9335533,46.3004843]},"properties":{"caravan_site":"motorhome_stopover","caravan_site:type":"countryside;fishing","fee":"no","name":"Aire Municipale Lélex","power_supply":"yes","power_supply:capacity":"7","power_supply:maxcurrent":"16","sanitary_dump_station":"yes","tents":"no","tourism":"caravan_site","website":"https://www.montagnes-du-jura.fr/sit/aire-de-services-municipale-pour-camping-cars"}},
{"type":"Feature","geometry":{"type":"Point","coordinates":[5.8485273,46.2837419]},"properties":{"capacity":"10","caravan_site":"motorhome_stopover","caravan_site:type":"village","fee":"no","name":"Aire de camping-car - La Pesse","sanitary_dump_station":"yes","sanitary_dump_station:fee":"yes","seasonal":"no","tourism":"caravan_site","website":"https://en.montagnes-du-jura.fr/sit/aire-daccueil-et-de-service-camping-car-la-pesse-2"}},
{"type":"Feature","geometry":{"type":"Point","coordinates":[5.9442658,46.2727941]},"properties":{"ele":"1720.83","natural":"peak","note":"Highest point of the Jura mountain range. Determined in 1828 by Charles-Marie Filhon (with an altitude that would be today 1720,81 m), it  appears on the Carte de l'Etat-Major as Crêt de la Neige 1723 m. It is also the point 1720 of the IGN map 1/25000."}},
{"type":"Feature","geometry":{"type":"Point","coordinates":[5.8474951,46.309255]},"properties":{"email":"martine.chazotte@wanadoo.fr","name":"Les Loges du Coinchet","phone":"+33 3 84 42 78 93","source":"cadastre-dgi-fr source : Direction Générale des Impôts - Cadastre. Mise à jour : 2012","tourism":"apartment","website":"https://leslogesducoinchet.fr"}},
{"type":"Feature","geometry":{"type":"Point","coordinates":[5.9420544,46.2360707]},"properties":{"ele":"932","geological":"glacial_erratic","height":"1","length":"1.5","name":"Erratic Boulder (1.5x1x1)","natural":"stone","width":"1"}},
{"type":"Feature","geometry":{"type":"Point","coordinates":[5.8471823,46.2845889]},"properties":{"addr:city":"La Pesse","addr:housenumber":"10","addr:postcode":"39370","addr:street":"Rue de l'Épicéa","information":"office","name":"Bureau d'information Touristique","tourism":"information"}},
{"type":"Feature","geometry":{"type":"LineString","coordinates":[[5.937089,46.2475354],[5.9371752,46.2474853],[5.9373514,46.2476302],[5.9372652,46.2476803],[5.937089,46.2475354]]},"properties":{"building":"yes","ele":"1338","name":"Chalet du Nardérans","ref:refuges.info":"1102","tourism":"wilderness_hut"}},
{"type":"Feature","geometry":{"type":"LineString","coordinates":[[5.9274872,46.2442183],[5.9275718,46.2441964],[5.9276246,46.2442942],[5.92754,46.244316],[5.9274872,46.2442183]]},"properties":{"building":"yes","ele":"1490","name":"La Chaz","ref:refuges.info":"2819","tourism":"wilderness_hut"}},
{"type":"Feature","geometry":{"type":"LineString","coordinates":[[5.9516933,46.2134359],[5.9517109,46.2134339],[5.9517267,46.2134239],[5.9517343,46.2134257],[5.9517457,46.2134248],[5.951752,46.21342],[5.9517543999999999,46.213413],[5.9517516,46.213408],[5.9517489,46.2134044],[5.9517543999999999,46.2133996],[5.9517536,46.2133939],[5.9517489,46.2133858],[5.951741,46.213384],[5.9517302,46.2133824],[5.9517241,46.2133846],[5.9517159,46.2133908],[5.9517084,46.2133951],[5.9517024,46.2133981],[5.9516913,46.213399],[5.9516804,46.2134023],[5.9516726,46.2134079],[5.95167,46.2134135],[5.9516705,46.2134206],[5.9516726,46.2134274],[5.9516816,46.2134322],[5.9516933,46.2134359]]},"properties":{"natural":"water","source":"cadastre-dgi-fr source : Direction Générale des Impôts - Cadastre. Mise à jour : 2009"}},
{"type":"Feature","geometry":{"type":"LineString","coordinates":[[5.9455677,46.2310342],[5.9457823,46.231052],[5.9459454,46.2311945],[5.9460312,46.2313548],[5.9451042,46.2319961],[5.9448982,46.2317942],[5.9447523,46.2316873],[5.9447094,46.2315448],[5.9445807,46.2313489],[5.9445206,46.2312361]]},"properties":{"source":"Bing"}},
{"type":"Feature","geometry":{"type":"LineString","coordinates":[[5.9436839,46.2644918],[5.9437128,46.264475],[5.9437145,46.2644446],[5.9436433,46.2643311],[5.9435892,46.264284],[5.9434623,46.2642677],[5.9434326,46.2642941],[5.9434491,46.264332],[5.9435321,46.264409],[5.9436839,46.2644918]]},"properties":{"natural":"water"}},
{"type":"Feature","geometry":{"type":"LineString","coordinates":[[5.9471869,46.2846817],[5.9450693,46.2851203],[5.9440994,46.2843541],[5.9429366,46.2823646],[5.9417503,46.2800202],[5.9393478,46.2774757],[5.9378923,46.2764705],[5.9365762,46.2770325],[5.9344861,46.2776393],[5.9335991,46.2781718],[5.9331582,46.2791675],[5.9349109,46.2823001],[5.9345906,46.2827606],[5.9327092,46.2829914],[5.9316126,46.2815312],[5.9306271,46.2807699],[5.9295254,46.281003],[5.927204,46.2814548],[5.9268807,46.2820685],[5.9258935,46.282538],[5.9261408,46.283429],[5.9267746,46.2842973],[5.9266293,46.2845213],[5.9268883,46.2849312],[5.927365,46.2848254],[5.9275753,46.2853737],[5.9279538,46.2865323],[5.9289955,46.2868849],[5.9290264,46.2872589],[5.9294672,46.2879076],[5.9287429,46.2885005],[5.9285527,46.288207],[5.9284209,46.2882071],[5.9274686,46.2872781],[5.9267987,46.2872687],[5.9269519,46.2875107],[5.9265031,46.2876941],[5.9263893,46.2881985],[5.9259038,46.2884192],[5.9256609,46.2880759],[5.9249797,46.288087],[5.9243456,46.2878155],[5.9246847,46.2871589],[5.9240232,46.2869567],[5.9238854,46.2870954],[5.9232126,46.2874907],[5.9218848,46.2881075],[5.9219885,46.2883146],[5.9210699,46.2885793],[5.9217065,46.2895898],[5.9226956,46.2892504],[5.9230251,46.2897543],[5.9244462,46.2904556],[5.9252156,46.2906087],[5.9255155,46.2900918],[5.9260837,46.2896519],[5.926087,46.2889475],[5.9263797,46.2884194],[5.9265098,46.2888854],[5.9273237,46.2890653],[5.9282076,46.2890046],[5.9290878,46.2888261],[5.9296931,46.2884449],[5.9301706,46.2886862],[5.9306922,46.2885785],[5.9303878,46.2889734],[5.9307437,46.2895433],[5.9304695,46.2898295],[5.9308074,46.2902791],[5.9304728,46.2905739],[5.9304859,46.290594],[5.9305186,46.2906439],[5.9313434,46.2919042],[5.9326274,46.2921464],[5.9332053,46.2931254],[5.9322429,46.2930263],[5.9325068,46.29346],[5.9334089,46.293681],[5.9346711,46.2945341],[5.9345071,46.2946379],[5.93475,46.2948423],[5.9340704,46.2952213],[5.9344424,46.2955454],[5.9348456,46.2956957],[5.9347845,46.295396],[5.9352302,46.2949799],[5.9359318,46.2953762],[5.9356154,46.2956502],[5.9366937,46.2961192],[5.9363643,46.2964013],[5.9373213,46.2974137],[5.9368979,46.2978997],[5.937921,46.2984439],[5.9391491,46.2995727],[5.9412952,46.3000222],[5.9422516,46.3006468],[5.9433103,46.3010546],[5.9434901,46.3013499],[5.943728,46.3018429],[5.9449037,46.3021432],[5.9454414,46.3020586],[5.9457599,46.3018638],[5.9466415,46.3013921],[5.9476823,46.3012644],[5.9486261,46.3010452],[5.94908,46.3006998],[5.9489288,46.299939],[5.9484047,46.29872],[5.9473994,46.2978734],[5.946957,46.297417],[5.9470327,46.2967459],[5.9474847,46.2969252],[5.9496367,46.2979148],[5.9496753,46.2984967],[5.9502977,46.2994811],[5.9507,46.2993016],[5.9518353,46.2983332],[5.9519414,46.2980597],[5.952547,46.2975624],[5.9529648,46.2968387],[5.9530159,46.2961387],[5.9529918,46.2958298],[5.9528263,46.295558],[5.9533677,46.2951772],[5.9537816,46.2952607],[5.9542216,46.2955137],[5.9535199,46.2963669],[5.9531006,46.2972963],[5.9531675,46.2975865],[5.953553,46.2972089],[5.9550729,46.2959941],[5.9552624,46.2959002],[5.9563962,46.2950714],[5.956606,46.2948731]]},"properties":{"source":"Union européenne - SOeS, CORINE Land Cover, 2006."}},
{"type":"Feature","geometry":{"type":"LineString","coordinates":[[5.9456797,46.2525438],[5.9455315,46.2525811],[5.9453293,46.2525298],[5.9451878,46.2524087],[5.945053,46.2522968],[5.9448575,46.2521989],[5.9445205,46.2522455],[5.944004,46.2526511],[5.9439373,46.2528159],[5.9438229,46.2530663],[5.9434322,46.2533365],[5.9432225,46.2536792],[5.9429759,46.2539514],[5.9429222,46.2542222],[5.9429705,46.2544188],[5.9431153,46.2546784],[5.9430402,46.2547786],[5.9430778,46.25499],[5.9428471,46.2552682],[5.9427774,46.255539],[5.9430295,46.2557504],[5.9433943,46.2557949],[5.943566,46.2559136],[5.9435338,46.256036],[5.9435123,46.2561695],[5.9439361,46.2564366],[5.94414,46.2564922],[5.9443438,46.2564217],[5.9451002,46.2564885],[5.9452933,46.2566183],[5.9452611,46.2568446],[5.9449017,46.2569299],[5.9445208,46.25703],[5.944435,46.2571673],[5.9445852,46.2572971],[5.9449714,46.2573527],[5.9454051,46.2574488],[5.9456339,46.2575345],[5.9460723,46.2577059],[5.946334,46.2578312],[5.9464252,46.2580537],[5.9465218,46.2582985],[5.9462535,46.2583356],[5.946055,46.2584617],[5.9459317,46.2586583],[5.9457171,46.2588289],[5.9453523,46.2587992],[5.945127,46.2588808],[5.9449661,46.2591776],[5.9447086,46.2593482],[5.9440756,46.2593259],[5.9437859,46.259452],[5.9439254,46.2596449],[5.9443974,46.2594965],[5.9446227,46.2596152],[5.9445262,46.2598897],[5.9441399,46.2601345],[5.9437108,46.2602161],[5.9431529,46.2600825],[5.9428632,46.2597339],[5.9423804,46.2594669],[5.9418225,46.2594223],[5.941211,46.2594298],[5.9412217,46.2596746],[5.9407496,46.2600084],[5.9406209,46.2602086],[5.9407067,46.2604386],[5.9409749,46.2606463],[5.9414792,46.2607575],[5.9418976,46.2605276],[5.9423268,46.2603051],[5.9426486,46.2602828],[5.9427988,46.2604015],[5.9427452,46.2606982],[5.9424555,46.261032],[5.9426165,46.2613139],[5.9428739,46.2614548],[5.9428954,46.261707],[5.943228,46.2618702],[5.9436035,46.2618479],[5.9438395,46.2619814],[5.9436893,46.2623523],[5.9438395,46.2625674],[5.9441936,46.2625674],[5.9445691,46.2623004],[5.9446871,46.2620482],[5.9443545,46.2617812],[5.9444296,46.2615512],[5.9447193,46.2613361],[5.9443653,46.2611581],[5.944376,46.261032],[5.944612,46.2608095],[5.9448373,46.2608985],[5.9450412,46.2611804],[5.9454918,46.2613361],[5.9458887,46.2612619],[5.9460926,46.2614548],[5.9459317,46.2618257],[5.9460604,46.2620408],[5.9454811,46.2622114],[5.9452236,46.2624636],[5.945524,46.2630866],[5.9457815,46.2631089],[5.9459209,46.2629606],[5.9456849,46.2624562],[5.9459102,46.262293],[5.9464466,46.2620779],[5.9466827,46.2622188],[5.9462964,46.2625229],[5.9462643,46.2627529],[5.9466076,46.2629086],[5.9467792,46.2632276],[5.9464145,46.2634872],[5.9463823,46.2637468],[5.9464788,46.2640361],[5.9467685,46.2641696],[5.9470045,46.2641547],[5.947305,46.2639693],[5.9476697,46.2639471],[5.9479594,46.2640954],[5.9479809,46.2643476],[5.947777,46.2647704],[5.9474337,46.2649855],[5.9468329,46.2649855],[5.9466612,46.2648371],[5.946629,46.2645478],[5.946157,46.2642734],[5.9458458,46.264355],[5.945878,46.2647259],[5.9466183,46.2653266],[5.947262,46.2654527],[5.9477341,46.2651264],[5.9480452,46.2650893],[5.9483027,46.265208],[5.9489787,46.2651115],[5.9493005,46.2648594],[5.9492254,46.2646072],[5.9490752,46.2644292],[5.9493327,46.2640286],[5.9498155,46.26391],[5.9504378000000008,46.2639322],[5.9503519,46.2642512],[5.9498262,46.2645775],[5.9498048,46.2648668],[5.9504485,46.2649261],[5.9506738,46.2652228],[5.9502232,46.2654305],[5.9501696,46.2656382],[5.9505236,46.2657717],[5.9513068,46.2658681],[5.951854,46.2657346],[5.9524977,46.2657568],[5.9530878,46.2655047],[5.9535384,46.2654453],[5.9538925,46.2654824],[5.9541821,46.2652747],[5.9542036,46.2649855],[5.9539246,46.2648074],[5.9539354,46.2645478],[5.9536993,46.2642734],[5.9533667,46.2641251],[5.9530663,46.2643031],[5.9534418,46.2645627],[5.9533131,46.2647036],[5.9529912,46.2646962],[5.9526157,46.2645998],[5.9525943,46.264355],[5.9528196,46.2640286],[5.9527552,46.2636726],[5.952605,46.2632869],[5.9526801,46.2631163],[5.9524012,46.2629754],[5.9517574,46.2631757],[5.9512317,46.2631831],[5.9510279,46.2630496],[5.9509742,46.26279],[5.9511137,46.2624413],[5.9514141,46.2622188],[5.9519076,46.2621966],[5.9523368,46.2623301],[5.9527981,46.2626416],[5.9532702,46.2629235],[5.9536886,46.263057],[5.95415,46.2629012],[5.9545684,46.2628345],[5.9551048,46.2628419],[5.955416,46.262968],[5.9553194,46.263146],[5.9549224,46.2634353],[5.9543109,46.2636726]]},"properties":{"source":"BDOrtho IGN"}},
{"type":"Feature","geometry":{"type":"LineString","coordinates":[[5.9302392,46.2634261],[5.9293771,46.2627529],[5.9296346,46.2624488],[5.9293234,46.2622411],[5.9285402,46.2626342],[5.9283042,46.2630347],[5.9280467,46.262827],[5.9277999,46.2628938],[5.9280453,46.2631158],[5.9277034,46.2635094],[5.927137,46.2634629],[5.9270502,46.2637036],[5.9268558,46.2636504],[5.9269631,46.2632647],[5.9272206,46.2633388],[5.9270704,46.2630421],[5.9267163,46.262879],[5.9267914,46.2626935],[5.9271562,46.2625748],[5.9270704,46.2623449],[5.9267163,46.2622559],[5.9264696,46.2616699],[5.9262335,46.2617367],[5.9262442,46.2620334],[5.9260511,46.2620705],[5.9256874,46.2614793],[5.9252894,46.2610543],[5.9255355,46.2607411],[5.9248302,46.2602077],[5.9238068,46.2601639],[5.9238351,46.2598482],[5.9234905,46.2596105],[5.9232221,46.2596253],[5.9229029,46.2594231],[5.9214106,46.2588659],[5.9197855,46.2588512],[5.9191111,46.2585459],[5.9187044,46.2577041],[5.9184327,46.2572816],[5.9180044,46.2569958],[5.9176424,46.2568156],[5.9174469,46.2568606],[5.9171863,46.2566654],[5.9168967,46.2565553],[5.916542,46.2564401],[5.9162741,46.2562549],[5.9161401,46.2560872],[5.9160279,46.2560497],[5.915865,46.2560997],[5.9158216,46.2562249],[5.9158976,46.2564602],[5.9159121,46.2566779],[5.9158542,46.2568706],[5.9157926,46.2569107],[5.9155972,46.2568982],[5.9154524,46.2568381],[5.915351,46.2567105],[5.9153474,46.2565503],[5.9152677,46.2564076],[5.9150469,46.2562524],[5.9148261,46.2561223],[5.9146922,46.2560697],[5.9145438,46.2560372],[5.9144931,46.2560497],[5.9145691,46.2561773],[5.9146089,46.2562599],[5.9145365,46.2563626],[5.9144822,46.256345],[5.9144062,46.2562875],[5.9143664,46.2562249],[5.9143483,46.2561673],[5.9142614,46.2560847],[5.914084,46.2560121],[5.913903,46.2559746],[5.9135845,46.2559045],[5.9133926,46.2557969],[5.9133818,46.2556342],[5.9132261,46.2554865],[5.9129799,46.2553163],[5.912846,46.2551887],[5.9126722,46.255081],[5.9124587,46.255041],[5.9121872,46.2551011],[5.9121148,46.2552237],[5.9120026,46.2553113],[5.9118252,46.2553714],[5.911684,46.2553714],[5.9116116,46.2553288],[5.9115066,46.2552237],[5.9115609,46.2551086],[5.9117419,46.2549984],[5.9118614,46.2548908],[5.9119446,46.2547156],[5.9120062,46.2545354],[5.9120677,46.2544578],[5.9120641,46.2543802],[5.9119953,46.2543577],[5.9118469,46.2543251],[5.911789,46.2542025],[5.9116985,46.2541124],[5.9114921,46.2540873],[5.9112279,46.2541699],[5.9110759,46.2542475],[5.9109564,46.2542751],[5.9106994,46.2543076],[5.9104786,46.2543401],[5.9102252,46.2544302],[5.9101673,46.2544978],[5.9102288,46.2546105],[5.910341,46.2547206],[5.910551,46.2547056],[5.9106161,46.2546355],[5.9106016,46.2545604],[5.9105618,46.2544878],[5.9107247,46.2544327],[5.9109093,46.2543902],[5.9110288,46.2544127],[5.9110505,46.2544778],[5.9109636,46.2545779],[5.9109274,46.2547056],[5.9110216,46.2548057],[5.9111519,46.2549684],[5.9112207,46.2551611],[5.9112822,46.2553363],[5.9112641,46.2555115],[5.9111627,46.2556567],[5.9110903,46.2557443],[5.9110614,46.2558144],[5.9110867,46.255907],[5.9109636,46.2559521],[5.910884,46.255912],[5.9108007,46.2558995],[5.910732,46.2559796],[5.9106332,46.2561173],[5.9105087,46.2563225],[5.9102732,46.2563933],[5.9100063,46.2563013],[5.9095146,46.2564701],[5.9092079,46.2564212],[5.9066329,46.2557616],[5.903336,46.2545866],[5.9031105,46.2545127],[5.9028996,46.2546634],[5.9019366,46.2554233],[5.90029,46.2550608],[5.9000662,46.255212],[5.8995378,46.2556699],[5.8983345,46.256131],[5.8974653,46.2561404],[5.8960186,46.2542675],[5.8958013,46.2541212],[5.8951242,46.2532959],[5.8944503,46.251723],[5.893811,46.2505555],[5.892474,46.2502063],[5.8914748,46.2504408],[5.891619,46.2526656],[5.8919404,46.2530289],[5.892023,46.2531976],[5.8921421,46.2533563],[5.8923564,46.2536566],[5.8921266,46.2538475],[5.8940092,46.2561161],[5.8951825,46.2566737],[5.8969425,46.257877],[5.897837,46.2588486],[5.898394,46.2598217],[5.8986241,46.2599679],[5.898507,46.2601604],[5.8990677,46.2603949],[5.8998287,46.260317],[5.8999424,46.2604665],[5.9002769,46.2606181],[5.9013688,46.2612322],[5.9018105,46.2622269],[5.9022421,46.263069],[5.9026868,46.2639105],[5.9044385,46.2656746],[5.9057626,46.2670559],[5.906972,46.267279],[5.9079628,46.2681303],[5.9092735,46.269503],[5.910268,46.2698139],[5.9109272,46.2699642],[5.9111563,46.2698939],[5.9129142,46.2699645],[5.9141284,46.2706557],[5.9150064,46.2719609],[5.9164351,46.2729514],[5.9162096,46.2738682],[5.9168708,46.2746399],[5.9179637,46.2748665],[5.9182035,46.2750436],[5.9171804,46.2763863],[5.9166792,46.2774311],[5.9178992,46.2777866],[5.9182722,46.2782499],[5.917752,46.2790184],[5.9179722,46.2797612],[5.918572,46.2809977],[5.9194626,46.2810549],[5.9201526,46.2810927],[5.9209931,46.2806136],[5.9217021,46.2809874],[5.9227046,46.281076],[5.9226687,46.2814176],[5.9222975,46.2816507],[5.922782,46.282029],[5.9221639,46.282087],[5.9220844,46.2823827],[5.923669,46.2824514],[5.9252183,46.2826622],[5.9258935,46.282538],[5.9268807,46.2820685],[5.927204,46.2814548],[5.9295254,46.281003],[5.9306271,46.2807699],[5.9316126,46.2815312],[5.9327092,46.2829914],[5.9345906,46.2827606],[5.9349109,46.2823001],[5.9331582,46.2791675],[5.9335991,46.2781718],[5.9344861,46.2776393],[5.9365762,46.2770325],[5.9378923,46.2764705],[5.9393478,46.2774757],[5.9417503,46.2800202],[5.9429366,46.2823646],[5.9440994,46.2843541],[5.9450693,46.2851203],[5.9471869,46.2846817]]},"properties":{"source":"Union européenne - SOeS, CORINE Land Cover, 2006."}},
{"type":"Feature","geometry":{"type":"LineString","coordinates":[[5.9357304,46.25],[5.9357928,46.2500412],[5.9359497,46.2498608],[5.9361477,46.2497581],[5.9363236,46.2496402],[5.936648,46.249598400000007],[5.9368679,46.2496212],[5.9368294,46.2497353],[5.9368129,46.2498075],[5.9366645,46.2498113],[5.936516,46.2497201],[5.9363291,46.2497847],[5.9362246,46.2500014],[5.9361265,46.2501577],[5.9363387,46.2501763],[5.9366825,46.2501111],[5.9368779,46.2500132],[5.9370464,46.249941],[5.9372587,46.2499317],[5.9373834,46.2499853],[5.9374744,46.2500994],[5.9377642,46.2499736],[5.9378113,46.2499177],[5.9379428,46.2498221],[5.9381786,46.2497383],[5.9383202,46.2496241],[5.9387414,46.2494167],[5.9388526,46.2494004],[5.939102,46.2493794],[5.9391795,46.2493188],[5.9392401,46.2491627],[5.9392772,46.2489599],[5.9394389,46.2487269],[5.9395434,46.2484659],[5.9397725,46.2482119],[5.9399141,46.248177],[5.9400455,46.248184]]},"properties":{"source":"Union européenne - SOeS, CORINE Land Cover, 2006."}},