{"type":"FeatureCollection","features":[
{"type":"Feature","geometry":{"type":"Point","coordinates":[-1.0061019,42.9885511]},"properties":{"description":"Borne en ciment gravée IGN et 1948, recouverte d'un socle et d'un pilier cylindrique en béton - Support en mauvais état, point exploitable en 2004","ele":"2017","man_made":"survey_point","name":"Orhi","name:es":"Monte Ori","name:eu":"Orhi mendia","name:fr":"Pic d'Orhy","natural":"peak","note":"Ne pas déplacer ce point, cf. - Do not move this node, see - http://wiki.openstreetmap.org/wiki/WikiProject_France/Repères_Géodésiques#Permanence_des_repères","note:2":"Keep the bilingual name (es+fr) on this boundary node","prominence":"601","ref":"6431601 - 1","source":"©IGN 2010 dans le cadre de la cartographie réglementaire","url":"http://geodesie.ign.fr/fiches/index.php?module=e&action=fichepdf&source=carte&sit_no=6431601","wikidata":"Q2030404"}},
{"type":"Feature","geometry":{"type":"Point","coordinates":[-0.5647596,42.7982828]},"properties":{"historic":"boundary_stone","name":"Borne 292","note":"Reconocimientos de mugas Ansó – Francia 2015"}},
{"type":"Feature","geometry":{"type":"Point","coordinates":[-0.5691963,42.8069578]},"properties":{"fixme":"resurvey","historic":"boundary_stone","name":"Mojón 288","source":"Reconocimioentos de mugas Ansó – Francia 2015"}},
{"type":"Feature","geometry":{"type":"Point","coordinates":[-0.5767355,42.8082533]},"properties":{"fixme":"resurvey","historic":"boundary_stone","name":"Mojón 286","source":"Reconocimioentos de mugas Ansó – Francia 2015"}},
{"type":"Feature","geometry":{"type":"Point","coordinates":[-0.662695,42.8708165]},"properties":{"description":"Cairn-frontière : Axe - Point vu en place en 1954","ele":"2104.7","man_made":"survey_point","note":"Ne pas déplacer ce point, cf. - Do not move this node, see - http://wiki.openstreetmap.org/wiki/WikiProject_France/Repères_Géodésiques#Permanence_des_rep.C3.A8res","ref":"64336B - 1","source":"IGN dans le cadre de la cartographie réglementaire 2010","url":"http://geodesie.ign.fr/fiches/index.php?module=e&action=fichepdf&source=carte&sit_no=64336B"}},
{"type":"Feature","geometry":{"type":"Point","coordinates":[-0.6660044,42.8743393]},"properties":{"historic":"boundary_stone","name":"Borne 276"}},
{"type":"Feature","geometry":{"type":"Point","coordinates":[-0.6786976,42.8845451]},"properties":{"description":"Cairn-frontière : Axe - Point vu en place en 1954","ele":"2168.3","man_made":"survey_point","note":"Ne pas déplacer ce point, cf. - Do not move this node, see - http://wiki.openstreetmap.org/wiki/WikiProject_France/Repères_Géodésiques#Permanence_des_rep.C3.A8res","ref":"64336A - 1","source":"IGN dans le cadre de la cartographie réglementaire 2010","url":"http://geodesie.ign.fr/fiches/index.php?module=e&action=fichepdf&source=carte&sit_no=64336A"}},
{"type":"Feature","geometry":{"type":"Point","coordinates":[-1.247621,43.0426151]},"properties":{"historic":"boundary_stone","name":"Mugarrien 205. zenbakia","name:fr":"Borne frontière","ref":"205","source":"survey"}},
{"type":"Feature","geometry":{"type":"Point","coordinates":[-0.925066,43.0054974]},"properties":{"source":"cadastre-dgi-fr source : Direction Générale des Impôts - Cadastre. Mise à jour : 2009","tourism":"viewpoint"}},
{"type":"Feature","geometry":{"type":"Point","coordinates":[-0.9234287,43.0043949]},"properties":{"source":"cadastre-dgi-fr source : Direction Générale des Impôts - Cadastre. Mise à jour : 2009"}},
{"type":"Feature","geometry":{"type":"Point","coordinates":[-0.9228049,43.0048336]},"properties":{"source":"cadastre-dgi-fr source : Direction Générale des Impôts - Cadastre. Mise à jour : 2009"}},
{"type":"Feature","geometry":{"type":"Point","coordinates":[-1.0493854,43.0109694]},"properties":{"ele":"1526","mountain_pass":"yes","name":"Leherra Murkhuillako lépoua","name:eu":"Leherra Mürkhüilla lephoa","name:fr":"Col Leherra Murkhuillako","natural":"saddle"}},
{"type":"Feature","geometry":{"type":"Point","coordinates":[-0.897454,42.956334]},"properties":{"mountain_pass":"yes","name":"Col du Port de Belhay","natural":"saddle"}},
{"type":"Feature","geometry":{"type":"Point","coordinates":[-0.8864958,42.9530712]},"properties":{"name":"Portillo de Binbaletea/Ginbaletako lepoa","name:es":"Portillo de Binbaletea","natural":"saddle"}},
{"type":"Feature","geometry":{"type":"Point","coordinates":[-1.0573683,43.0424316]},"properties":{"source":"cadastre-dgi-fr source : Direction Générale des Impôts - Cadastre ; mise à jour : 2009"}},
{"type":"Feature","geometry":{"type":"Point","coordinates":[-1.0582994,43.0415036]},"properties":{"source":"cadastre-dgi-fr source : Direction Générale des Impôts - Cadastre ; mise à jour : 2009"}},
{"type":"Feature","geometry":{"type":"Point","coordinates":[-1.0576052,43.0414453]},"properties":{"source":"cadastre-dgi-fr source : Direction Générale des Impôts - Cadastre ; mise à jour : 2009"}},
{"type":"Feature","geometry":{"type":"Point","coordinates":[-1.0576554,43.0404663]},"properties":{"source":"cadastre-dgi-fr source : Direction Générale des Impôts - Cadastre ; mise à jour : 2009"}},
{"type":"Feature","geometry":{"type":"Point","coordinates":[-1.0577895,43.0403355]},"properties":{"source":"cadastre-dgi-fr source : Direction Générale des Impôts - Cadastre ; mise à jour : 2009"}},
{"type":"Feature","geometry":{"type":"Point","coordinates":[-1.0582599,43.0405601]},"properties":{"source":"cadastre-dgi-fr source : Direction Générale des Impôts - Cadastre ; mise à jour : 2009"}},
{"type":"Feature","geometry":{"type":"Point","coordinates":[-1.0583989,43.0407897]},"properties":{"source":"cadastre-dgi-fr source : Direction Générale des Impôts - Cadastre ; mise à jour : 2009"}},
{"type":"Feature","geometry":{"type":"Point","coordinates":[-1.058422,43.0409593]},"properties":{"source":"cadastre-dgi-fr source : Direction Générale des Impôts - Cadastre ; mise à jour : 2009"}},
{"type":"Feature","geometry":{"type":"Point","coordinates":[-1.0259951,43.0436493]},"properties":{"ele":"1248","mountain_pass":"yes","name":"Iratzabaleta","natural":"saddle","wikidata":"Q2981994","wikipedia":"fr:Col d'Iratzabaleta"}},
{"type":"Feature","geometry":{"type":"Point","coordinates":[-1.0747258,43.0367977]},"properties":{"addr:postcode":"64220","amenity":"restaurant","cuisine":"regional;french","email":"contact@chaletpedro.com","name":"Chalet Pédro","phone":"+33 5 59 28 55 98","source":"cadastre-dgi-fr source : Direction Générale des Impôts - Cadastre;mise à jour : 2009","tourism":"chalet","website":"https://www.chaletpedro.com/"}},
{"type":"Feature","geometry":{"type":"Point","coordinates":[-0.9705099,42.9618759]},"properties":{"historic":"boundary_stone","name":"Mugarrien 240. zenbakia"}},
{"type":"Feature","geometry":{"type":"Point","coordinates":[-0.9930947,42.9740204]},"properties":{"description":"Borne frontière N. 237bis : Repère hémisphérique 1994 en laiton de 18 mm de diamètre - Point vu en place en 2004","ele":"1577.47","historic":"boundary_stone","inscription":"Borne frontière #237bis","man_made":"survey_point","name":"Mugarrien 237, 2. zenbakia","note":"Ne pas déplacer ce point, cf. - Do not move this node, see - http://wiki.openstreetmap.org/wiki/WikiProject_France/Repères_Géodésiques#Permanence_des_rep.C3.A8res","ref":"64316A - A","source":"IGN dans le cadre de la cartographie réglementaire 2010","url":"http://geodesie.ign.fr/fiches/index.php?module=e&action=fichepdf&source=carte&sit_no=64316A"}},
{"type":"Feature","geometry":{"type":"Point","coordinates":[-0.9941131,42.9744046]},"properties":{"description":"Borne frontière N. 237 : Repère hémisphérique 1994 en laiton de 18 mm de diamètre - Point vu en place en 2004","ele":"1586.64","historic":"boundary_stone","man_made":"survey_point","name":"Mugarrien 237. zenbakia","name:fr":"Borne frontière #237","note":"Ne pas déplacer ce point, cf. - Do not move this node, see - http://wiki.openstreetmap.org/wiki/WikiProject_France/Repères_Géodésiques#Permanence_des_rep.C3.A8res","ref":"64316A - B","source":"IGN dans le cadre de la cartographie réglementaire 2010","url":"http://geodesie.ign.fr/fiches/index.php?module=e&action=fichepdf&source=carte&sit_no=64316A"}},
{"type":"Feature","geometry":{"type":"Point","coordinates":[-0.9826205,42.9992278]},"properties":{"description":"Calvaire : Croix : centre - Point vu en place en 2004","ele":"1365.4","historic":"wayside_cross","man_made":"survey_point","name":"Croix d'Erroymendi","note":"Ne pas déplacer ce point, cf. - Do not move this node, see - http://wiki.openstreetmap.org/wiki/WikiProject_France/Repères_Géodésiques#Permanence_des_rep.C3.A8res","ref":"64316C - 1","source":"©IGN 2010 dans le cadre de la cartographie réglementaire","url":"http://geodesie.ign.fr/fiches/index.php?module=e&action=fichepdf&source=carte&sit_no=64316C"}},
{"type":"Feature","geometry":{"type":"Point","coordinates":[-0.5677919,42.7931285]},"properties":{"description":"Borne-frontière - Point vu en place en 1954","ele":"1639.4","historic":"boundary_stone","man_made":"survey_point","name":"Borne 293","note":"Ne pas déplacer ce point, cf. - Do not move this node, see - http://wiki.openstreetmap.org/wiki/WikiProject_France/Repères_Géodésiques#Permanence_des_rep.C3.A8res","ref":"64542B - 1","source":"IGN dans le cadre de la cartographie réglementaire 2010","url":"http://geodesie.ign.fr/fiches/index.php?module=e&action=fichepdf&source=carte&sit_no=64542B"}},
{"type":"Feature","geometry":{"type":"Point","coordinates":[-0.960515,42.9986599]},"properties":{"alt_name":"Errayzé Gagna","ele":"1451","name":"Erraitze Gaina","natural":"peak"}},
{"type":"Feature","geometry":{"type":"Point","coordinates":[-0.9057634,42.9638937]},"properties":{"alt_name":"Chardekagagna","ele":"1893","name":"Sardekagaina","name:eu":"Xardekagaiña","name:fr":"Pic Chardéca","natural":"peak"}},
{"type":"Feature","geometry":{"type":"Point","coordinates":[-0.926197,43.0046397]},"properties":{"alt_name":"Holtzarteko arroilak","name":"Gorges de Holtzarté","name:eu":"Holtzarteko zintzurrak","place":"locality","tourism":"attraction","wikidata":"Q3110976","wikipedia":"fr:Gorges d'Holtzarte","wikipedia:eu":"eu:Holtzarteko arroilak"}},
{"type":"Feature","geometry":{"type":"Point","coordinates":[-1.022927,43.0352685]},"properties":{"ele":"1284","mountain_pass":"yes","name":"Col d'Orgambidesca","natural":"saddle"}},
{"type":"Feature","geometry":{"type":"Point","coordinates":[-1.034709,43.0366351]},"properties":{"ele":"1319","mountain_pass":"yes","name":"Col Heguichouria","name:eu":"Hegi Xuri Lepoa","name:fr":"Col Heguichouria","natural":"saddle"}},
{"type":"Feature","geometry":{"type":"Point","coordinates":[-1.0265229,43.0388843]},"properties":{"archaeological_site":"megalith","historic":"archaeological_site","megalith_type":"dolmen","name":"Bagargi"}},
{"type":"Feature","geometry":{"type":"Point","coordinates":[-1.0416076,43.0279835]},"properties":{"archaeological_site":"megalith","historic":"archaeological_site","megalith_type":"stone_circle","name":"Ilharreko Ordokia"}},
{"type":"Feature","geometry":{"type":"Point","coordinates":[-1.0493238,43.0203852]},"properties":{"ele":"1547","mountain_pass":"yes","name":"Sensibile","name:eu":"Sentsibileko lepoa","natural":"saddle"}},
{"type":"Feature","geometry":{"type":"Point","coordinates":[-1.0290842,43.0094126]},"properties":{"archaeological_site":"megalith","historic":"archaeological_site","historic:civilization":"iron-age","megalith_type":"stone_circle","name":"Cromlech Millagate"}},
{"type":"Feature","geometry":{"type":"Point","coordinates":[-1.0759506,43.036618]},"properties":{"archaeological_site":"megalith","historic":"archaeological_site","megalith_type":"dolmen","name":"Petilarre","source":"cadastre-dgi-fr source : Direction Générale des Impôts - Cadastre ; mise à jour : 2009"}},
{"type":"Feature","geometry":{"type":"Point","coordinates":[-1.0355754,43.0285201]},"properties":{"ele":"1383","mountain_pass":"yes","name":"Col Mehatze","natural":"saddle"}},
{"type":"Feature","geometry":{"type":"Point","coordinates":[-1.0293129,43.0099883]},"properties":{"alt_name":"Millagate","ele":"1444","mountain_pass":"yes","name":"Millagate","name:eu":"Millagateko hegia","natural":"saddle"}},
{"type":"Feature","geometry":{"type":"Point","coordinates":[-0.9745023,42.9631123]},"properties":{"alt_name":"Betzula Gaina","ele":"1590","name":"Betzulagaña","name:es":"Betzula","name:eu":"Betzüla","name:fr":"Betzulagagna","natural":"peak"}},
{"type":"Feature","geometry":{"type":"Point","coordinates":[-0.9704446,42.9619342]},"properties":{"mountain_pass":"yes","name":"Bildotxarreko lepoa","name:es":"Collado de Bildotxarre","name:eu":"Bildotxarreko Lephua","name:fr":"Col de Bildotxarre","natural":"saddle"}},
{"type":"Feature","geometry":{"type":"Point","coordinates":[-0.9761095,42.9658289]},"properties":{"alt_name":"Betzülako Lephua","ele":"1540","mountain_pass":"yes","name":"Betzulako Meheka","name:es":"Portillo de Betzula","name:eu":"Betzüla meheka","name:fr":"Port de Betzula","natural":"saddle"}},
{"type":"Feature","geometry":{"type":"Point","coordinates":[-0.9563468,42.9593362]},"properties":{"ele":"1732","name":"Gaztarrigaña / Mulidoiako Gaña","natural":"peak"}},
{"type":"Feature","geometry":{"type":"Point","coordinates":[-0.9528499,42.9674464]},"properties":{"name":"Antxulogia","natural":"cave_entrance"}},
{"type":"Feature","geometry":{"type":"Point","coordinates":[-0.9593829,42.9696664]},"properties":{"name":"Atxur Harpea","natural":"cave_entrance"}},
{"type":"Feature","geometry":{"type":"Point","coordinates":[-0.9200956,42.9581443]},"properties":{"ele":"1923","name":"Otsogorrigaina","natural":"peak","wikidata":"Q12265379"}},
{"type":"Feature","geometry":{"type":"Point","coordinates":[-0.9161468,42.9615857]},"properties":{"alt_name":"Üthürrurdinetako Portillua, Üthürrurdinetako Lephua","ele":"1661.02","mountain_pass":"yes","name":"Üthürurdineta portilloa","name:es":"Collado de Uturrurdineta / Portillo de la Pista","name:eu":"Uturrurdinetako lepoa","name:fr":"Uthurourdinétako Portilloua","natural":"saddle"}},
{"type":"Feature","geometry":{"type":"Point","coordinates":[-0.8972543,42.9588581]},"properties":{"alt_name":"Belhaïn","ele":"1771","name":"Belhaï","name:eu":"Belai","natural":"peak"}},
{"type":"Feature","geometry":{"type":"Point","coordinates":[-0.8755374,42.9550495]},"properties":{"alt_name":"Bimbalet","ele":"1758","name":"Binbaleta","natural":"peak","wikidata":"Q12255254"}},
{"type":"Feature","geometry":{"type":"Point","coordinates":[-0.8739064,42.9689369]},"properties":{"ele":"1511","name":"Ezkantola","natural":"peak"}},
{"type":"Feature","geometry":{"type":"Point","coordinates":[-0.8920917,43.0067892]},"properties":{"ele":"1307","name":"Negümendi","natural":"peak"}},
{"type":"Feature","geometry":{"type":"Point","coordinates":[-0.888497,43.0041436]},"properties":{"name":"Orkhatzolatze","natural":"spring"}},
{"type":"Feature","geometry":{"type":"Point","coordinates":[-0.8947908,43.0122982]},"properties":{"ele":"1240","name":"Zegnhaguia","natural":"peak"}},
{"type":"Feature","geometry":{"type":"Point","coordinates":[-0.8912655,43.01585]},"properties":{"name":"Agurritze","natural":"spring"}},
{"type":"Feature","geometry":{"type":"Point","coordinates":[-0.8802394,42.9824236]},"properties":{"ele":"1464","name":"Izeito","natural":"peak"}},
{"type":"Feature","geometry":{"type":"Point","coordinates":[-0.8805364,42.9784468]},"properties":{"mountain_pass":"yes","name":"Anhauko Kürütxe","natural":"saddle"}},
{"type":"Feature","geometry":{"type":"Point","coordinates":[-0.8767268,43.0081049]},"properties":{"ele":"922","name":"Gahardoï","natural":"peak"}},
{"type":"Feature","geometry":{"type":"Point","coordinates":[-0.8452523,43.0006486]},"properties":{"alt_name":"Laminako Ziloa","name":"Laminako ziloa","natural":"cave_entrance"}},
{"type":"Feature","geometry":{"type":"Point","coordinates":[-0.8451945,42.9519462]},"properties":{"ele":"1777","name":"Kortaplana","natural":"peak"}},
{"type":"Feature","geometry":{"type":"Point","coordinates":[-0.8905991,42.9514599]},"properties":{"alt_name":"Kartxela","ele":"1982","name":"Lakartxela","natural":"peak","wikidata":"Q8538704"}},
{"type":"Feature","geometry":{"type":"Point","coordinates":[-1.0213393,42.9796698]},"properties":{"alt_name":"Mendi Txipia","ele":"1628","name":"Muxumurru","natural":"peak"}},
{"type":"Feature","geometry":{"type":"Point","coordinates":[-0.9226802,43.0048165]},"properties":{"source":"cadastre-dgi-fr source : Direction Générale des Impôts - Cadastre. Mise à jour : 2009","tourism":"viewpoint"}},
{"type":"Feature","geometry":{"type":"Point","coordinates":[-0.9200594,42.978258]},"properties":{"mountain_pass":"yes","natural":"saddle","source":"survey"}},
{"type":"Feature","geometry":{"type":"Point","coordinates":[-0.9303434,42.9732487]},"properties":{"archaeological_site":"megalith","historic":"archaeological_site","megalith_type":"stone_circle"}},
{"type":"Feature","geometry":{"type":"Point","coordinates":[-0.9297414,42.9746375]},"properties":{"name":"Cascade de Pista / Pixtako ur-jauzia","name:eu":"Pixtako ur-jauzia","name:fr":"Cascade de Pista","source":"bing","tourism":"cascade","waterway":"waterfall"}},
{"type":"Feature","geometry":{"type":"Point","coordinates":[-0.9330682,42.9857998]},"properties":{"hiking":"yes","information":"guidepost","tourism":"information"}},
{"type":"Feature","geometry":{"type":"Point","coordinates":[-0.9210931,42.9817199]},"properties":{"natural":"peak","source":"bing"}},
{"type":"Feature","geometry":{"type":"Point","coordinates":[-0.9231168,43.0046128]},"properties":{"tourism":"viewpoint"}},
{"type":"Feature","geometry":{"type":"Point","coordinates":[-0.9235431,43.001226]},"properties":{"ele":"750","hiking":"yes","information":"guidepost","name":"Plachot","tourism":"information"}},
{"type":"Feature","geometry":{"type":"Point","coordinates":[-0.9215924,42.9838373]},"properties":{"natural":"peak","source":"survey"}},
{"type":"Feature","geometry":{"type":"Point","coordinates":[-0.9284939,43.016953]},"properties":{"description":"Départ randonnée \"Olhadübi\". Randonnée pédestre Difficile 14.89 km - dénivelé 690 - Plan Local de Randonnée - Communauté d'Agglomération Pays Basque","hiking":"yes","information":"guidepost","name":"Olhadübi","operator":"Communauté d'Agglomération Pays Basque","tourism":"information"}},
{"type":"Feature","geometry":{"type":"Point","coordinates":[-0.9163963,42.9810649]},"properties":{"natural":"tree"}},
{"type":"Feature","geometry":{"type":"Point","coordinates":[-0.9104398,42.9809559]},"properties":{"natural":"tree","source":"bing"}},
{"type":"Feature","geometry":{"type":"Point","coordinates":[-0.9158429,42.9805369]},"properties":{"natural":"tree","source":"bing"}},
{"type":"Feature","geometry":{"type":"Point","coordinates":[-1.0486661,42.9922521]},"properties":{"alt_name":"Malgorratxikina","ele":"1345","name":"Malgorra Txikia","natural":"peak","source":"Instituto Geográfico Nacional","source:date":"201011"}},
{"type":"Feature","geometry":{"type":"Point","coordinates":[-0.9546638,43.0189117]},"properties":{"amenity":"restaurant","cuisine":"regional","diet:vegetarian":"no","indoor_seating":"yes","internet_access":"wlan","name":"Etchémaïte","name:eu":"Etchémaïte jatetxea","opening_hours":"PH,We-Su 12:00-14:00,19:30-21:00","outdoor_seating":"no","stars":"2","tourism":"hotel","website":"https://www.hotel-etchemaite.fr/","wheelchair":"yes"}},
{"type":"Feature","geometry":{"type":"Point","coordinates":[-0.9545139,43.0175138]},"properties":{"name":"Chez Despouey","tourism":"hostel"}},
{"type":"Feature","geometry":{"type":"Point","coordinates":[-0.9559063,43.0176583]},"properties":{"leisure":"pitch","name":"Betzula","sport":"pelota"}},
{"type":"Feature","geometry":{"type":"Point","coordinates":[-0.9562117,43.0190572]},"properties":{"historic":"memorial","name":"cross"}},
{"type":"Feature","geometry":{"type":"Point","coordinates":[-0.9559153,43.0189062]},"properties":{"name":"Charmance","tourism":"guest_house"}},
{"type":"Feature","geometry":{"type":"Point","coordinates":[-0.9520224,42.9745824]},"properties":{"ele":"1486","name":"Khürütxe Gaïna","natural":"peak"}},
{"type":"Feature","geometry":{"type":"Point","coordinates":[-0.9519514,43.017234]},"properties":{"email":"lysianefilhol@sfr.fr","internet_access":"wlan","internet_access:fee":"no","name":"Ixtila","phone":"+33 5 59 28 63 09","stars":"2","tourism":"camp_site","website":"https://www.camping-ixtila.fr/"}},
{"type":"Feature","geometry":{"type":"Point","coordinates":[-0.9861781,42.9975635]},"properties":{"name":"Erroimendy 1350m","tourism":"viewpoint"}},
{"type":"Feature","geometry":{"type":"Point","coordinates":[-1.0493759,43.0368449]},"properties":{"backcountry":"yes","bar":"no","caravans":"yes","internet_access":"no","name":"Camping d'Iraty","swimming_pool":"no","tents":"yes","tourism":"camp_site","website":"http://www.chalets-iraty.com/bungalow-meleze-1-2-3-et-4/"}},
{"type":"Feature","geometry":{"type":"Point","coordinates":[-0.8585176,43.015674]},"properties":{"addr:city":"Sainte-Engrace","email":"errecarret.maryse@wanadoo.fr","name":"Camping Ibarra","phone":"+33 5 59 28 73 59","postal_code":"64560","tourism":"camp_site","website":"https://www.ibarra-chantina.com/"}},
{"type":"Feature","geometry":{"type":"Point","coordinates":[-0.9285229,43.018562]},"properties":{"information":"map","tourism":"information"}},
{"type":"Feature","geometry":{"type":"Point","coordinates":[-0.8520681,42.9875512]},"properties":{"fee":"no","name":"Grotte aux Lacs","name:eu":"Aintziratako leizea","natural":"cave_entrance"}},
{"type":"Feature","geometry":{"type":"Point","coordinates":[-0.8500311,42.9880783]},"properties":{"name":"Grotte de la Cascade","name:eu":"Ur-jauziaren leizea","natural":"cave_entrance","waterway":"waterfall"}},
{"type":"Feature","geometry":{"type":"Point","coordinates":[-1.0159878,43.0364208]},"properties":{"ele":"1264","name":"Otsogorrigagna","natural":"peak"}},
{"type":"Feature","geometry":{"type":"Point","coordinates":[-0.9996111,43.0288922]},"properties":{"mountain_pass":"yes","name":"Khürütxetako Lephua","natural":"saddle"}},
{"type":"Feature","geometry":{"type":"Point","coordinates":[-0.9841333,43.0148286]},"properties":{"name":"Ordaïxa Gaïna","natural":"spring"}},
{"type":"Feature","geometry":{"type":"Point","coordinates":[-1.0065109,43.0154942]},"properties":{"ele":"1136","name":"Ezpeleko Botxea","natural":"peak"}},
{"type":"Feature","geometry":{"type":"Point","coordinates":[-1.0050292,43.0056568]},"properties":{"alt_name":"Ühüntzügürri","ele":"1218","name":"Ünkhügnerri","natural":"peak"}},
{"type":"Feature","geometry":{"type":"Point","coordinates":[-1.038309,43.0249409]},"properties":{"ele":"1453","name":"Laphatignegagne","natural":"peak"}},
{"type":"Feature","geometry":{"type":"Point","coordinates":[-1.0378891,43.0260387]},"properties":{"mountain_pass":"yes","name":"Aïtxegarateko Lephua","natural":"saddle"}},
{"type":"Feature","geometry":{"type":"Point","coordinates":[-1.0348816,43.0317794]},"properties":{"ele":"1382","mountain_pass":"yes","name":"Zarzagoïti","natural":"saddle"}},
{"type":"Feature","geometry":{"type":"Point","coordinates":[-0.9379364,43.0026925]},"properties":{"alt_name":"Gouffre de Coyltat","name":"Khoïltate","natural":"cave_entrance"}},
{"type":"Feature","geometry":{"type":"Point","coordinates":[-0.9505864,43.008965]},"properties":{"alt_name":"Hartzalbürüa","comment":"Harssalburia, 1540","ele":"1002","loc_name":"Haltzabürüa","name":"Hartzanbürüa","natural":"peak"}},
{"type":"Feature","geometry":{"type":"Point","coordinates":[-0.9581399,43.0117475]},"properties":{"natural":"spring"}},
{"type":"Feature","geometry":{"type":"Point","coordinates":[-0.9595228,43.0117707]},"properties":{"name":"Üthürhuna","natural":"spring"}},
{"type":"Feature","geometry":{"type":"Point","coordinates":[-0.8822326,42.9672686]},"properties":{"ele":"1528","name":"Sakhiko Axurterri Gaïna","natural":"peak"}},
{"type":"Feature","geometry":{"type":"Point","coordinates":[-0.8994915,42.9616908]},"properties":{"alt_name":"Sotalepoa","ele":"1696","mountain_pass":"yes","name":"Sotako Lephua","name:eu":"Sotako lepoa","natural":"saddle"}},
{"type":"Feature","geometry":{"type":"Point","coordinates":[-0.9430793,43.0294383]},"properties":{"alt_name":"Hourdespary","ele":"1006","name":"Hurdesparri","natural":"peak"}},
{"type":"Feature","geometry":{"type":"Point","coordinates":[-0.9860712,42.9974327]},"properties":{"ele":"1350","mountain_pass":"yes","name":"Col d'Erroïmendi","name:eu":"Erroimendiko mendatea","natural":"saddle","source:ele":"survey","wikidata":"Q2981990","wikipedia":"fr:Col d'Erroymendi"}},
{"type":"Feature","geometry":{"type":"Point","coordinates":[-0.9799516,42.9965573]},"properties":{"mountain_pass":"yes","name":"Sakhiko Lephua","natural":"saddle"}},
{"type":"Feature","geometry":{"type":"Point","coordinates":[-1.0267192,43.0381289]},"properties":{"alt_name":"Bagargui","ele":"1327","mountain_pass":"yes","name":"Col Bagargiak","natural":"saddle","old_name":"Bagargiako Lephua","wikidata":"Q1107321","wikipedia":"fr:Col Bagargui"}},
{"type":"Feature","geometry":{"type":"Point","coordinates":[-0.949673,42.9559545]},"properties":{"mountain_pass":"yes","name":"Elhürreko Lephua","natural":"saddle"}},
{"type":"Feature","geometry":{"type":"Point","coordinates":[-0.8922453,42.9940641]},"properties":{"ele":"1359","mountain_pass":"yes","name":"Hernako Lephua","natural":"saddle"}},
{"type":"Feature","geometry":{"type":"Point","coordinates":[-0.9107961,43.0466322]},"properties":{"mountain_pass":"yes","name":"Col de Buscoy","natural":"saddle"}},
{"type":"Feature","geometry":{"type":"Point","coordinates":[-1.0057329,42.9772629]},"properties":{"information":"sign","name":"GR12","tourism":"information"}},
{"type":"Feature","geometry":{"type":"Point","coordinates":[-1.0835918,43.0114471]},"properties":{"historic":"boundary_stone","inscription":"Euskal Herriko probintzien arteko mugarria","name":"Euskal Herriko mugarria","name:eu":"Nafarroa Beherea, Nafarroa eta Zuberoa arteko Mugarria"}},
{"type":"Feature","geometry":{"type":"Point","coordinates":[-1.0004632,42.9845128]},"properties":{"name":"Grotte d'Orhy","name:eu":"Orhiko leizea","natural":"cave_entrance","source":"survey"}},
{"type":"Feature","geometry":{"type":"Point","coordinates":[-0.5661459,42.8037114]},"properties":{"fixme":"resurvey","historic":"boundary_stone","name":"Mojón 290","source":"Reconocimioentos de mugas Ansó – Francia 2015"}},
{"type":"Feature","geometry":{"type":"Point","coordinates":[-0.5787723,42.8066808]},"properties":{"fixme":"resurvey","historic":"boundary_stone","name":"Mojón 285","source":"Reconocimioentos de mugas Ansó – Francia 2015"}},
{"type":"Feature","geometry":{"type":"Point","coordinates":[-1.0390874,43.0144774]},"properties":{"natural":"spring"}},
{"type":"Feature","geometry":{"type":"Point","coordinates":[-0.604062,42.8260575]},"properties":{"ele":"2014","mountain_pass":"yes","name":"Col de la Contende ou de Couecq","name:es":"Collado de Acué","name:oc":"Còth dera Contenda o deth Coèc","natural":"saddle","source:name:oc":"Lo Congrès"}},
{"type":"Feature","geometry":{"type":"Point","coordinates":[-1.0273675,43.0383113]},"properties":{"addr:city":"Larrau","addr:postcode":"64560","addr:street":"Quartier d'Iraty","email":"info@chalets-iraty.com","name":"Les Chalets d'Iraty","phone":"+33 5 59 28 51 29","tourism":"chalet","website":"https://chalets-iraty.com/"}},
{"type":"Feature","geometry":{"type":"Point","coordinates":[-0.8500424,42.9883817]},"properties":{"tourism":"picnic_site"}},
{"type":"Feature","geometry":{"type":"Point","coordinates":[-0.8485545,42.9861248]},"properties":{"alt_name":"Odita lecia","fee":"no","name":"Odietako lezea","name:eu":"Odietako leizea","natural":"cave_entrance"}},
{"type":"Feature","geometry":{"type":"Point","coordinates":[-0.8446131,42.9832732]},"properties":{"alt_name":"Souffleur de Larrandabürü","fee":"no","name":"Arresteliako ziloa","name:eu":"Arresteliako ziloa","name:fr":"Arresteliako ziloa / Souffleur de Larrandaburu","natural":"cave_entrance","official_name":"Arresteliako ziloa"}},
{"type":"Feature","geometry":{"type":"Point","coordinates":[-0.9860875,42.9973551]},"properties":{"hiking":"yes","information":"guidepost","tourism":"information"}},
{"type":"Feature","geometry":{"type":"Point","coordinates":[-1.0110934,42.9979303]},"properties":{"ele":"1535","name":"Espatagaina","name:eu":"Espatagaina","name:fr":"Espatagagna","natural":"peak","source":"cadastre-dgi-fr source : Direction Générale des Finances Publiques - Cadastre. Mise à jour : 2014"}},
{"type":"Feature","geometry":{"type":"Point","coordinates":[-0.9360122,43.0057182]},"properties":{"name:eu":"Jaurregiberriko lepoa","natural":"saddle"}},
{"type":"Feature","geometry":{"type":"Point","coordinates":[-1.06738,43.0068297]},"properties":{"ele":"1427","name":"Patxula","natural":"peak"}},
{"type":"Feature","geometry":{"type":"Point","coordinates":[-0.9833067,42.971169]},"properties":{"ele":"1656","name":"Orbizkaiko-Gaña","natural":"peak"}},
{"type":"Feature","geometry":{"type":"Point","coordinates":[-0.9340547,42.952675]},"properties":{"ele":"1794","name":"Otsogorritxipia","name:es":"El Puerto","name:eu":"Otsogorritxipia","name:fr":"Otchogorritchipia","natural":"peak"}},
{"type":"Feature","geometry":{"type":"Point","coordinates":[-0.9600858,42.9560759]},"properties":{"archaeological_site":"hut_circle","historic":"archaeological_site","name":"Fondo cabaña Gaztarria 1","name:eu":"Gaztarria 1 etxola hondoa"}},
{"type":"Feature","geometry":{"type":"Point","coordinates":[-0.960473,42.955925]},"properties":{"archaeological_site":"hut_circle","historic":"archaeological_site","name":"Fondo cabaña Gaztarria 2","name:eu":"Gaztarria 2 etxola hondoa"}},
{"type":"Feature","geometry":{"type":"Point","coordinates":[-0.9704944,42.9619165]},"properties":{"archaeological_site":"tumulus","historic":"archaeological_site","name":"Bildoxarreko Lepoa tumulua","name:es":"Túmulo Bildoxarreko Lepoa","name:eu":"Bildoxarreko Lepoa tumulua","name:fr":"Tumulus Bildoxarreko Lepoa"}},
{"type":"Feature","geometry":{"type":"Point","coordinates":[-0.9340269,42.9526041]},"properties":{"archaeological_site":"tumulus","historic":"archaeological_site","name":"Tumulus Otxogorritxipia","name:es":"Túmulo Otxogorritxipia","name:eu":"Otxogorritxipia tumulua","name:fr":"Tumulus d'Otxogorritxipia"}},
{"type":"Feature","geometry":{"type":"Point","coordinates":[-0.5685644,42.8063506]},"properties":{"fixme":"resurvey","historic":"boundary_stone","name":"Mojón 289","source":"Reconocimioentos de mugas Ansó – Francia 2015"}},
{"type":"Feature","geometry":{"type":"Point","coordinates":[-1.0221477,42.9928598]},"properties":{"ford":"yes"}},
{"type":"Feature","geometry":{"type":"Point","coordinates":[-0.5699074,42.8068098]},"properties":{"fixme":"resurvey","historic":"boundary_stone","name":"Mojón 287","source":"Reconocimioentos de mugas Ansó – Francia 2015"}},
{"type":"Feature","geometry":{"type":"Point","coordinates":[-1.0182778,42.9958473]},"properties":{"alt_name":"Zazpigaïn","ele":"1768","name":"Zazpigain","name:eu":"Xaxpigaña","natural":"peak"}},
{"type":"Feature","geometry":{"type":"Point","coordinates":[-1.0203429,43.0094442]},"properties":{"ele":"1526","name":"Tharta Punta","name:eu":"Thartaphünta","natural":"peak"}},
{"type":"Feature","geometry":{"type":"Point","coordinates":[-1.03097,43.033598]},"properties":{"ele":"1445","name":"Organbidexka","natural":"peak"}},
{"type":"Feature","geometry":{"type":"Point","coordinates":[-0.8444385,43.0303683]},"properties":{"ele":"1337","name":"Hilagaphünta","natural":"peak"}},
{"type":"Feature","geometry":{"type":"Point","coordinates":[-0.8519325,43.0345714]},"properties":{"ele":"1108","name":"Losko","natural":"peak"}},
{"type":"Feature","geometry":{"type":"Point","coordinates":[-0.5996329,42.8090816]},"properties":{"ele":"1637","historic":"boundary_stone","name":"Borne 280","note":"Rocher gravé d'une croix et du numéro 280 en rive gauche du ravin de l'Escalé, repéré lors de la reconnaissance des bornes frontalières du 17/09/2016 en présence des municipalités de Borce et d'Ansó","source":"survey"}},
{"type":"Feature","geometry":{"type":"Point","coordinates":[-0.8482022,43.0145811]},"properties":{"name":"Accoce","place":"isolated_dwelling","tourism":"chalet"}},
{"type":"Feature","geometry":{"type":"Point","coordinates":[-0.9197969,42.9566643]},"properties":{"ele":"1916","name":"Otsogorri","natural":"peak"}},
{"type":"Feature","geometry":{"type":"Point","coordinates":[-0.9345229,42.9566092]},"properties":{"ele":"1753","name":"Alkatetxaia","natural":"peak"}},
{"type":"Feature","geometry":{"type":"Point","coordinates":[-0.8656744,42.9512862]},"properties":{"alt_name":"Urdaitzeko Lephua","ele":"1416","mountain_pass":"yes","name":"Collado de Arrakogoiti/Arrakogoitiko lepoa","name:es":"Collado de Arrakogoiti","name:fr":"Port d'Ourdayté","natural":"saddle"}},
{"type":"Feature","geometry":{"type":"Point","coordinates":[-0.9749461,43.0002944]},"properties":{"ele":"1454","name":"Casernagaina","natural":"peak"}},
{"type":"Feature","geometry":{"type":"Point","coordinates":[-0.9942097,42.9742129]},"properties":{"hiking":"yes","information":"map","map_size":"region","map_type":"topo","tourism":"information"}},
{"type":"Feature","geometry":{"type":"Point","coordinates":[-0.9172095,42.9698621]},"properties":{"ele":"1779","name":"Pic de Pista","name:eu":"Pista","natural":"peak"}},
{"type":"Feature","geometry":{"type":"Point","coordinates":[-1.0274591,43.0057201]},"properties":{"hiking":"yes","information":"guidepost","material":"wood","tourism":"information"}},
{"type":"Feature","geometry":{"type":"Point","coordinates":[-1.0283214,43.0065282]},"properties":{"hiking":"yes","information":"guidepost","material":"wood","tourism":"information"}},
{"type":"Feature","geometry":{"type":"Point","coordinates":[-1.0444082,43.0041027]},"properties":{"ele":"1656","name":"Pic de Bizkarzé","name:eu":"Bizkartze","name:fr":"Pic de Bizkarzé","natural":"peak","wikidata":"Q3382352","wikipedia":"eu:Bizkarze"}},
{"type":"Feature","geometry":{"type":"Point","coordinates":[-1.0492265,43.0108863]},"properties":{"hiking":"yes","information":"guidepost","material":"wood","tourism":"information"}},
{"type":"Feature","geometry":{"type":"Point","coordinates":[-1.0494424,43.0108844]},"properties":{"hiking":"yes","information":"guidepost","material":"wood","tourism":"information"}},
{"type":"Feature","geometry":{"type":"Point","coordinates":[-1.0616921,43.0092898]},"properties":{"hiking":"yes","information":"guidepost","material":"wood","tourism":"information"}},
{"type":"Feature","geometry":{"type":"Point","coordinates":[-1.0646278,43.0099586]},"properties":{"hiking":"yes","information":"guidepost","material":"wood","tourism":"information"}},
{"type":"Feature","geometry":{"type":"Point","coordinates":[-0.953528,43.0180304]},"properties":{"denomination":"catholic","historic":"wayside_cross","religion":"christian"}},
{"type":"Feature","geometry":{"type":"Point","coordinates":[-0.6041062,42.8263014]},"properties":{"ele":"2016","historic":"boundary_stone","name":"Borne 279","note":"Rocher gravé d'une croix et du numéro 279, repéré lors de la reconnaissance des bornes frontalières du 02/09/2017 en présence des municipalités de Borce et d'Ansó","source":"survey"}},
{"type":"Feature","geometry":{"type":"Point","coordinates":[-1.0036773,42.9718549]},"properties":{"ele":"1554","hiking":"yes","information":"guidepost","material":"wood","name":"La Trinchera","ref":"GR 12","tourism":"information"}},
{"type":"Feature","geometry":{"type":"Point","coordinates":[-0.9942808,42.9741751]},"properties":{"hiking":"yes","information":"map","map_size":"region","map_type":"topo","name":"GR 12 Senda Euskalherria","tourism":"information"}},
{"type":"Feature","geometry":{"type":"Point","coordinates":[-0.9619394,42.9575355]},"properties":{"hiking":"yes","information":"guidepost","material":"wood","ref":"GR 12","tourism":"information"}},
{"type":"Feature","geometry":{"type":"Point","coordinates":[-0.9636453,42.9601306]},"properties":{"hiking":"yes","information":"guidepost","material":"wood","ref":"GR 12","tourism":"information"}},
{"type":"Feature","geometry":{"type":"Point","coordinates":[-1.0270413,43.0380375]},"properties":{"description":"Départ rando n°88 : Pic des Escaliers\nPlan de randonnées CA Pays Basque","information":"guidepost","tourism":"information"}},
{"type":"Feature","geometry":{"type":"Point","coordinates":[-1.0267065,43.0382716]},"properties":{"information":"guidepost","tourism":"information"}},
{"type":"Feature","geometry":{"type":"Point","coordinates":[-1.0259663,43.0442052]},"properties":{"information":"guidepost","tourism":"information"}},
{"type":"Feature","geometry":{"type":"Point","coordinates":[-0.969673,43.044983]},"properties":{"information":"guidepost","tourism":"information"}},
{"type":"Feature","geometry":{"type":"Point","coordinates":[-0.8492655,42.9979847]},"properties":{"name":"Source","natural":"spring"}},
{"type":"Feature","geometry":{"type":"Point","coordinates":[-0.8716828,42.9758749]},"properties":{"name":"Source","natural":"spring"}},
{"type":"Feature","geometry":{"type":"Point","coordinates":[-1.0710765,43.0464324]},"properties":{"information":"board","name":"Orientazio mahaia","tourism":"information"}},
{"type":"Feature","geometry":{"type":"Point","coordinates":[-0.9535775,43.0320596]},"properties":{"ele":"1031","name":"Salteburua","natural":"peak"}},
{"type":"Feature","geometry":{"type":"Point","coordinates":[-1.0263332,43.03848]},"properties":{"tourism":"viewpoint"}},
{"type":"Feature","geometry":{"type":"Point","coordinates":[-1.0586814,42.995857]},"properties":{"historic":"boundary_stone","name":"Mugarrien 232. zenbakia"}},
{"type":"Feature","geometry":{"type":"Point","coordinates":[-1.045485,42.9958176]},"properties":{"historic":"boundary_stone","name":"Mugarrien 233. zenbakia"}},
{"type":"Feature","geometry":{"type":"Point","coordinates":[-1.0373158,42.9939791]},"properties":{"historic":"boundary_stone","name":"Mugarrien 234. zenbakia"}},
{"type":"Feature","geometry":{"type":"Point","coordinates":[-1.0180357,42.9957132]},"properties":{"historic":"boundary_stone","name":"Mugarrien 235. zenbakia"}},
{"type":"Feature","geometry":{"type":"Point","coordinates":[-1.0061068,42.9885569]},"properties":{"historic":"boundary_stone","name":"Mugarrien 236. zenbakia"}},
{"type":"Feature","geometry":{"type":"Point","coordinates":[-0.9833497,42.9712045]},"properties":{"historic":"boundary_stone","name":"Mugarrien 236. zenbakia"}},
{"type":"Feature","geometry":{"type":"Point","coordinates":[-0.9763237,42.966279]},"properties":{"historic":"boundary_stone","name":"Mugarrien 239. zenbakia"}},
{"type":"Feature","geometry":{"type":"Point","coordinates":[-0.9563126,42.9593406]},"properties":{"historic":"boundary_stone","name":"Mugarrien 241. zenbakia"}},
{"type":"Feature","geometry":{"type":"Point","coordinates":[-0.950075,42.956255]},"properties":{"historic":"boundary_stone","name":"Mugarrien 242. zenbakia"}},
{"type":"Feature","geometry":{"type":"Point","coordinates":[-0.9467186,42.9543812]},"properties":{"historic":"boundary_stone","name":"Mugarrien 243. zenbakia"}},
{"type":"Feature","geometry":{"type":"Point","coordinates":[-0.9450156,42.9534094]},"properties":{"historic":"boundary_stone","name":"Mugarrien 244. zenbakia"}},
{"type":"Feature","geometry":{"type":"Point","coordinates":[-0.9340449,42.9526653]},"properties":{"historic":"boundary_stone","name":"Mugarrien 245. zenbakia"}},
{"type":"Feature","geometry":{"type":"Point","coordinates":[-0.9200598,42.9581373]},"properties":{"historic":"boundary_stone","name":"Mugarrien 246. zenbakia"}},
{"type":"Feature","geometry":{"type":"Point","coordinates":[-0.9168738,42.9614097]},"properties":{"historic":"boundary_stone","name":"Mugarrien 247. zenbakia"}},
{"type":"Feature","geometry":{"type":"Point","coordinates":[-0.9082675,42.9644921]},"properties":{"historic":"boundary_stone","name":"Mugarrien 248. zenbakia"}},
{"type":"Feature","geometry":{"type":"Point","coordinates":[-0.8995724,42.9615418]},"properties":{"historic":"boundary_stone","name":"Mugarrien 249. zenbakia"}},
{"type":"Feature","geometry":{"type":"Point","coordinates":[-0.8973627,42.9562778]},"properties":{"historic":"boundary_stone","name":"Mugarrien 250. zenbakia"}},
{"type":"Feature","geometry":{"type":"Point","coordinates":[-0.8932608,42.9557441]},"properties":{"historic":"boundary_stone","name":"Mugarrien 251. zenbakia"}},
{"type":"Feature","geometry":{"type":"Point","coordinates":[-0.8904893,42.9557975]},"properties":{"historic":"boundary_stone","name":"Mugarrien 252. zenbakia"}},
{"type":"Feature","geometry":{"type":"Point","coordinates":[-0.8841403,42.9562532]},"properties":{"historic":"boundary_stone","name":"Mugarrien 253. zenbakia"}},
{"type":"Feature","geometry":{"type":"Point","coordinates":[-0.8782914,42.9543198]},"properties":{"historic":"boundary_stone","name":"Mugarrien 254. zenbakia"}},
{"type":"Feature","geometry":{"type":"Point","coordinates":[-0.8654556,42.9509914]},"properties":{"historic":"boundary_stone","name":"Mugarrien 255. zenbakia"}},
{"type":"Feature","geometry":{"type":"Point","coordinates":[-1.0482661,43.0235556]},"properties":{"ele":"1594","name":"Pelüsagaña","natural":"peak"}},
{"type":"Feature","geometry":{"type":"Point","coordinates":[-1.0497205,43.0175473]},"properties":{"ele":"1613","name":"Odeizügaña","natural":"peak"}},
{"type":"Feature","geometry":{"type":"Point","coordinates":[-1.0311831,43.0242985]},"properties":{"ele":"1434","name":"Aitxigarre","natural":"peak"}},
{"type":"Feature","geometry":{"type":"Point","coordinates":[-1.0342479,43.02979]},"properties":{"ele":"1442","name":"Mehatze","natural":"peak"}},
{"type":"Feature","geometry":{"type":"Point","coordinates":[-1.0431644,43.0392717]},"properties":{"ele":"1349","name":"Hegi xüria","natural":"peak"}},
{"type":"Feature","geometry":{"type":"Point","coordinates":[-1.0557307,43.0261425]},"properties":{"ele":"1555","name":"Txardeka","natural":"peak"}},
{"type":"Feature","geometry":{"type":"Point","coordinates":[-0.9350932,42.9720831]},"properties":{"name":"Baratzegaina","natural":"peak"}},
{"type":"Feature","geometry":{"type":"Point","coordinates":[-0.9576043,42.9673341]},"properties":{"name":"Axurterrigaina","natural":"peak"}},
{"type":"Feature","geometry":{"type":"Point","coordinates":[-1.0036278,42.9839882]},"properties":{"ele":"1925","name":"Orhitxipia","name:es":"Oritxipia","natural":"peak"}},
{"type":"Feature","geometry":{"type":"Point","coordinates":[-1.0738575,43.0430299]},"properties":{"information":"guidepost","tourism":"information"}},
{"type":"Feature","geometry":{"type":"Point","coordinates":[-0.9577391,43.0187844]},"properties":{"description":"Départ randonnée Jauregiberri\nRandonnée pédestre, difficile - 10 km - dénivelé 770 m\nPlan local de randonnée Communauté d'Agglomération Pays Basque","information":"guidepost","name":"Jauregiberri","operator":"Communauté d'Agglomération Pays Basque","tourism":"information"}},
{"type":"Feature","geometry":{"type":"Point","coordinates":[-1.0348812,43.037007]},"properties":{"description":"Départ randonnée, Pic des Escaliers\nRandonnée pédestre - Moyen\n8,52 km - dénivelé 505 m\nPlan local de randonnée Communauté d'Agglomération Pays Basque","information":"guidepost","name":"Pic des escaliers","operator":"Communauté d'Agglomération Pays Basque","tourism":"information"}},
{"type":"Feature","geometry":{"type":"Point","coordinates":[-0.9577096,43.0187805]},"properties":{"description":"Départ randonnée \"Erroïmendi\" Randonnée pédestre - trail - moyen - 9,04km - dénivelé 330m\nPlan local de randonnée Communauté d'Agglomération Pays Basque","information":"guidepost","name":"Erroïmendi","operator":"Communauté d'Agglomération Pays Basque","tourism":"information"}},
{"type":"Feature","geometry":{"type":"Point","coordinates":[-0.8593538,42.9728236]},"properties":{"tourism":"viewpoint"}},
{"type":"Feature","geometry":{"type":"Point","coordinates":[-0.8572034,42.9777883]},"properties":{"tourism":"viewpoint"}},
{"type":"Feature","geometry":{"type":"Point","coordinates":[-0.9719443,43.0029117]},"properties":{"name":"Fontaine de la Vierge","natural":"spring"}},
{"type":"Feature","geometry":{"type":"Point","coordinates":[-1.0375437,43.0260012]},"properties":{"name":"iraty-Pottok","tourism":"viewpoint"}},
{"type":"Feature","geometry":{"type":"Point","coordinates":[-0.9548738,43.0185455]},"properties":{"bench":"yes","leisure":"picnic_table","lit":"yes","material":"wood"}},
{"type":"Feature","geometry":{"type":"Point","coordinates":[-0.954566,43.0187688]},"properties":{"tourism":"viewpoint","wheelchair":"yes"}},
{"type":"Feature","geometry":{"type":"Point","coordinates":[-0.8704099,42.975585]},"properties":{"name":"Cabane Cayolar d’Anhaou","tourism":"wilderness_hut"}},
{"type":"Feature","geometry":{"type":"Point","coordinates":[-1.0728036,43.0429268]},"properties":{"name":"Aire de bivouac","tourism":"camp_site"}},
{"type":"Feature","geometry":{"type":"Point","coordinates":[-0.9572615,43.0189426]},"properties":{"leisure":"picnic_table"}},
{"type":"Feature","geometry":{"type":"Point","coordinates":[-0.9990537,42.9767973]},"properties":{"ele":"1708.1","natural":"peak"}},
{"type":"Feature","geometry":{"type":"Point","coordinates":[-1.0454175,42.9958409]},"properties":{"ele":"1255.93","name":"Jauregizarreko lepoa","natural":"saddle"}},
{"type":"Feature","geometry":{"type":"Point","coordinates":[-0.854142,43.0132927]},"properties":{"denotation":"street","leaf_cycle":"deciduous","leaf_type":"broadleaved","natural":"tree"}},
{"type":"Feature","geometry":{"type":"Point","coordinates":[-0.8541202,43.0131989]},"properties":{"denotation":"street","leaf_cycle":"deciduous","leaf_type":"broadleaved","natural":"tree"}},
{"type":"Feature","geometry":{"type":"Point","coordinates":[-0.8541568,43.0133667]},"properties":{"denotation":"street","leaf_cycle":"deciduous","leaf_type":"broadleaved","natural":"tree"}},
{"type":"Feature","geometry":{"type":"Point","coordinates":[-0.8541892,43.0134537]},"properties":{"denotation":"street","leaf_cycle":"deciduous","leaf_type":"broadleaved","natural":"tree"}},
{"type":"Feature","geometry":{"type":"Point","coordinates":[-0.8541769,43.0134379]},"properties":{"bench":"yes","leisure":"picnic_table","lit":"no","material":"wood"}},
{"type":"Feature","geometry":{"type":"Point","coordinates":[-0.9547991,43.0185731]},"properties":{"denotation":"urban","leaf_cycle":"deciduous","leaf_type":"broadleaved","natural":"tree"}},
{"type":"Feature","geometry":{"type":"Point","coordinates":[-0.9547634,43.0186042]},"properties":{"denotation":"urban","leaf_cycle":"deciduous","leaf_type":"broadleaved","natural":"tree"}},
{"type":"Feature","geometry":{"type":"Point","coordinates":[-0.9546838,43.018856]},"properties":{"denotation":"urban","leaf_cycle":"deciduous","leaf_type":"broadleaved","natural":"tree"}},
{"type":"Feature","geometry":{"type":"Point","coordinates":[-0.9546399,43.0188219]},"properties":{"denotation":"urban","leaf_cycle":"deciduous","leaf_type":"broadleaved","natural":"tree"}},
{"type":"Feature","geometry":{"type":"Point","coordinates":[-0.9575668,43.0187291]},"properties":{"information":"map","map_size":"village","map_type":"citymap","tourism":"information"}},
{"type":"Feature","geometry":{"type":"Point","coordinates":[-0.9577959,43.0187785]},"properties":{"historic":"memorial","memorial":"stele"}},
{"type":"Feature","geometry":{"type":"Point","coordinates":[-0.9349307,43.0008451]},"properties":{"denotation":"natural_monument","leaf_cycle":"deciduous","leaf_type":"broadleaved","name":"Koiltateko Pago","name:fr":"Hêtre de Coïltaté","natural":"tree","url":"http://lestetardsarboricoles.fr/wordpress/2013/11/15/de-vieux-hetres-a-larrau-pyrenees-atlantiques/"}},
{"type":"Feature","geometry":{"type":"Point","coordinates":[-0.9938707,42.9741282]},"properties":{"alt_name:es":"Portillo de Iturzaeta","alt_name:eu":"Iturzaetako lepoa","alt_name:fr":"Col d'Iturzaeta","ele":"1573","loc_name":"Üthürzehetako Lephua","mountain_pass":"yes","name":"Larraineko mendatea","name:es":"Puerto de Larrau","name:eu":"Larraineko mendatea","name:fr":"Port de Larrau","natural":"saddle","note":"Fermeture administrative du col Larrau jusqu'à nouvel avis des autorités françaises","wikidata":"Q1851165","wikipedia":"es:Puerto de Larrau"}},
{"type":"Feature","geometry":{"type":"Point","coordinates":[-1.0003974,42.9733456]},"properties":{"historic":"wayside_cross","inscription":"Cruz-monolito dedicado al Cabo D. Carlos Izquierdo Balsategui, y los Soldados D. Jesús Santamaría Barbero, D. Benicio Sanz Gómez y D. Manuel Pérez Pérez, componentes de la Compañía de Esquiadores Escaladores Paracaidistas de Izalzu, fallecidos en acto de"}},
{"type":"Feature","geometry":{"type":"Point","coordinates":[-0.9005802,42.9965419]},"properties":{"name":"Bois de Saratse","natural":"wood"}},
{"type":"Feature","geometry":{"type":"Point","coordinates":[-1.026327,43.0384395]},"properties":{"description":"table d'orientation","information":"map","map_type":"toposcope","tourism":"information"}},
{"type":"Feature","geometry":{"type":"Point","coordinates":[-1.0713457,43.04644]},"properties":{"description":"table d'orientation","information":"map","map_type":"toposcope","tourism":"information"}},
{"type":"Feature","geometry":{"type":"Point","coordinates":[-1.02111,43.035462]},"properties":{"leisure":"bird_hide","name":"Col d'organbidexka","opening_hours":"12/7 du 15/07 au 15/11"}},
{"type":"Feature","geometry":{"type":"Point","coordinates":[-0.9227429,43.0048864]},"properties":{"ele":"575","hiking":"yes","information":"guidepost","name":"Passerelle d'Holzarte","tourism":"information"}},
{"type":"Feature","geometry":{"type":"Point","coordinates":[-0.9281361,43.0170222]},"properties":{"ele":"380","hiking":"yes","information":"guidepost","name":"La Mouline Larrau","tourism":"information"}},
{"type":"Feature","geometry":{"type":"Point","coordinates":[-0.905266,42.9883409]},"properties":{"ele":"840","hiking":"yes","information":"guidepost","name":"Pont d'Olhadibi","tourism":"information"}},
{"type":"Feature","geometry":{"type":"Point","coordinates":[-1.0075034,43.0329909]},"properties":{"direction":"180","tourism":"viewpoint"}},
{"type":"Feature","geometry":{"type":"Point","coordinates":[-0.9383501,42.9660217]},"properties":{"natural":"spring"}},
{"type":"Feature","geometry":{"type":"Point","coordinates":[-0.6621843,42.8672661]},"properties":{"ele":"2112.5","name":"Punta O Risté","name:an":"Punta O Risté","name:es":"Orristé","name:oc":"Punta d'Orriste","natural":"peak","source:name:oc":"Lo Congrès","wikidata":"Q31635400"}},
{"type":"Feature","geometry":{"type":"Point","coordinates":[-0.8581502,42.9512908]},"properties":{"ele":"1503","name":"Port d'Ourdayté","natural":"saddle"}},
{"type":"Feature","geometry":{"type":"Point","coordinates":[-0.8785586,42.9542198]},"properties":{"ele":"1681","name":"Portillo de Bimbalet","natural":"saddle"}},
{"type":"Feature","geometry":{"type":"Point","coordinates":[-1.034786,43.036441]},"properties":{"information":"map","ski":"yes","tourism":"information"}},
{"type":"Feature","geometry":{"type":"Point","coordinates":[-1.0741016,43.0403917]},"properties":{"name":"Bivouac aménagé","tourism":"camp_site"}},
{"type":"Feature","geometry":{"type":"Point","coordinates":[-0.6218832,42.8398324]},"properties":{"boundary":"marker","material":"stone","name":"Borne 278","note":"Croix et numéro 278 gravés dans une dalle de roche rouge à l'écart du sentier"}},
{"type":"Feature","geometry":{"type":"Point","coordinates":[-0.9696657,43.0450222]},"properties":{"name":"eau potable,robinet sois l'abreuvoir","name:en":"water tap under the tank","natural":"spring"}},
{"type":"Feature","geometry":{"type":"Point","coordinates":[-0.8847769,43.0274339]},"properties":{"alt_name":"Jora","ele":"1069","name":"Jaura","natural":"peak","wikidata":"Q12260551"}},
{"type":"Feature","geometry":{"type":"Point","coordinates":[-0.89084,42.9873187]},"properties":{"ele":"1484","name":"Sarimendi","natural":"peak"}},
{"type":"Feature","geometry":{"type":"Point","coordinates":[-0.8631593,42.950113]},"properties":{"natural":"spring"}},
{"type":"Feature","geometry":{"type":"Point","coordinates":[-1.0674681,43.0363427]},"properties":{"name":"Grotte Harpia","natural":"cave_entrance"}},
{"type":"Feature","geometry":{"type":"Point","coordinates":[-0.939148,43.0084832]},"properties":{"historic":"wayside_cross"}},
{"type":"Feature","geometry":{"type":"Point","coordinates":[-0.9242761,42.9707039]},"properties":{"ele":"1708","name":"Üthürrihotxphünta","natural":"peak"}},
{"type":"Feature","geometry":{"type":"Point","coordinates":[-0.9513155,42.9662092]},"properties":{"ele":"1582","name":"Artikulugagna","natural":"peak"}},
{"type":"Feature","geometry":{"type":"Point","coordinates":[-0.9720274,42.9783014]},"properties":{"ele":"1419","name":"Phüntahandia","natural":"peak"}},
{"type":"Feature","geometry":{"type":"Point","coordinates":[-1.0000702,42.9901778]},"properties":{"ele":"1829","name":"Axurterria","natural":"peak"}},
{"type":"Feature","geometry":{"type":"Point","coordinates":[-0.9416969,42.9940455]},"properties":{"name":"Altharexuria","natural":"peak"}},
{"type":"Feature","geometry":{"type":"Point","coordinates":[-0.8538439,43.0133324]},"properties":{"natural":"tree"}},
{"type":"Feature","geometry":{"type":"Point","coordinates":[-0.853853,43.013245]},"properties":{"natural":"tree"}},
{"type":"Feature","geometry":{"type":"Point","coordinates":[-0.8538522,43.0131582]},"properties":{"natural":"tree"}},
{"type":"Feature","geometry":{"type":"LineString","coordinates":[[-1.0835918,43.0114471],[-1.0832326,43.0109762],[-1.0832226,43.01054],[-1.0840847,43.0097791],[-1.0841832,43.0095479],[-1.0845036,43.0089028],[-1.0845595,43.0086135],[-1.0846347,43.0082241],[-1.0851591,43.0072588],[-1.085819,43.006654],[-1.0852053,43.0065061],[-1.084718,43.0059716],[-1.084527,43.0049366],[-1.0846865,43.0040822],[-1.0856626,43.0034259],[-1.0863389,43.0027319],[-1.0859756,43.0023687],[-1.085148,43.0024491],[-1.0843193,43.0021336],[-1.0828365,43.0016663],[-1.0820663,43.0018138],[-1.0818091,43.0016725],[-1.0816329,43.0014527],[-1.0815028,43.0008548],[-1.0810714,43.0005183],[-1.0805776,43.0006226],[-1.0800175,43.0011436],[-1.0797895,43.0012741],[-1.0796155,43.0014989],[-1.0793631,43.0010988],[-1.0792035,43.0009596],[-1.078811,43.0003297],[-1.0783942,43.0000607],[-1.0774154,43.0001102],[-1.0763183,42.9996458],[-1.0756146,42.99951],[-1.0749578,42.9987834],[-1.0745707,42.9987231],[-1.073962,42.9988464],[-1.073553,42.9987148],[-1.0731683,42.9980649],[-1.0724683,42.9978373],[-1.0678959,42.9979304],[-1.0670995,42.9977319],[-1.0652537,42.9977552],[-1.0614146,42.9966076],[-1.0601851,42.9964811],[-1.044916,42.9956728],[-1.037268,42.9939405],[-1.0366962,42.9941489],[-1.0364487,42.9942717],[-1.0362098,42.9944563],[-1.0358479,42.9946193],[-1.0352007,42.9945691],[-1.0336536,42.9946158],[-1.0332537,42.9946621],[-1.0330817,42.994644],[-1.0328544,42.9945487],[-1.0319118,42.9940844],[-1.0315142,42.9937754],[-1.0310613,42.9932775],[-1.030577,42.9929953],[-1.0302827,42.9929101],[-1.0296398,42.9927826],[-1.0282466,42.9924836],[-1.0275783,42.9923916],[-1.0272914,42.9923567],[-1.0268678,42.9922337],[-1.0265504,42.9922096],[-1.0262544,42.9920913],[-1.0254194,42.9921293],[-1.0252272,42.9921996],[-1.025047,42.9922656],[-1.0248235,42.9922893],[-1.0244049,42.9923337],[-1.0230591,42.9927258],[-1.0221477,42.9928598],[-1.0219218,42.9931495],[-1.0215879,42.9933082],[-1.0209133,42.9933873],[-1.0206558,42.9934399],[-1.0206022,42.9935521],[-1.0196259,42.9936384],[-1.0189607,42.9938503],[-1.0176089,42.9944443],[-1.0170979,42.9947194],[-1.016704,42.9951161]]},"properties":{"admin_level":"2","border_type":"nation","boundary":"administrative","name":"France - España","name:an":"Francia - Espanya","name:ar":"إسبانيا - فرنسا","name:ca":"França - Espanya","name:de":"Frankreich - Spanien","name:en":"France - Spain","name:es":"Francia - España","name:eu":"Frantzia - Espainia","name:fa":"اسپانیا - فرانسه","name:fr":"France - Espagne","name:gl":"Francia - España","name:lt":"Prancūzija - Ispanija","name:oc":"França - Espanha","name:pt":"França - Espanha","name:ru":"Франция - Испания","name:ur":"ہسپانیہ - فرانس","source":"CIA World Databank II"}},
{"type":"Feature","geometry":{"type":"LineString","coordinates":[[-0.9228049,43.0048336],[-0.9231168,43.0046128],[-0.9234287,43.0043949]]},"properties":{"alt_name":"Holtzarteko zaldaina","bridge":"yes","ele":"580","highway":"path","layer":"1","name":"Passerelle d'Holzarté","name:es":"Pasarela de Holtzarte","name:eu":"Holtzarteko zubixka","note":"Bridge undergoes construction works. During this time there is no access allowed. GR10 has a deviation.","sac_scale":"mountain_hiking","source":"cadastre-dgi-fr source : Direction Générale des Impôts - Cadastre. Mise à jour : 2009","tourism":"attraction","wikipedia":"eu:Holtzarteko zubixka"}},
{"type":"Feature","geometry":{"type":"LineString","coordinates":[[-1.0582994,43.0415036],[-1.05776,43.0414661],[-1.0576052,43.0414453],[-1.05754,43.0413054],[-1.0576446,43.0409662],[-1.0576782,43.0407231],[-1.0576808,43.0406183],[-1.0576554,43.0404663],[-1.0576339,43.0404389],[-1.0576655,43.0404053],[-1.0576963,43.0403756],[-1.0577895,43.0403355],[-1.0578887,43.0402821],[-1.0580443,43.0403742],[-1.0582599,43.0405601],[-1.0583989,43.0407897],[-1.058422,43.0409593],[-1.0583957,43.041371],[-1.0582994,43.0415036]]},"properties":{"name":"Lac d'Iraty","natural":"water","source":"cadastre-dgi-fr source : Direction Générale des Impôts - Cadastre ; mise à jour : 2009"}},
{"type":"Feature","geometry":{"type":"LineString","coordinates":[[-0.90705,43.0133872],[-0.9079381,43.0147988],[-0.90953,43.0145044],[-0.9131185,43.0146294],[-0.915357,43.0146906],[-0.9186858,43.0154885],[-0.9172658,43.0174648],[-0.92145,43.0182187],[-0.9223587,43.0163028],[-0.9257886,43.0167199],[-0.9274517,43.0166987],[-0.9277244,43.016499],[-0.9274298,43.0162742],[-0.9263948,43.0153077],[-0.9259989,43.0148073],[-0.9256432,43.0150159],[-0.925345,43.0151599],[-0.9250978,43.0151225],[-0.9247232,43.014999],[-0.9237678,43.0143538],[-0.9224652,43.0140698],[-0.9199299,43.0136524],[-0.9181794,43.0132471],[-0.9172443,43.0129609],[-0.9164391,43.0128055],[-0.9154379,43.0124313],[-0.9151296,43.0123957],[-0.9147015,43.0124088],[-0.914095,43.0125171],[-0.913032,43.0121358],[-0.9126423,43.011743],[-0.911636,43.011279],[-0.9107343,43.0104972],[-0.9095416,43.0110728],[-0.9088082,43.0113199],[-0.9075947,43.0115275],[-0.9055179,43.0116354],[-0.9049003,43.0115462],[-0.9050707,43.0130515],[-0.90705,43.0133872]]},"properties":{"natural":"grassland"}},
{"type":"Feature","geometry":{"type":"LineString","coordinates":[[-0.9926112,42.9667457],[-0.992074,42.966496],[-0.991517,42.9667474],[-0.9906617,42.9666602],[-0.9901536,42.9666353],[-0.9901477,42.9662015],[-0.9920052,42.9649867],[-0.9922087,42.9643884],[-0.993074,42.9621847],[-0.9924932,42.9605383],[-0.9914336,42.9618199],[-0.9907618,42.9626101],[-0.9904985,42.9625402],[-0.9902457,42.9623668],[-0.9898339,42.9622605],[-0.9893066,42.9625675],[-0.9889716,42.9629069],[-0.9879878,42.9630714],[-0.9882003,42.9637893],[-0.9876838,42.9641967],[-0.986184,42.9648779],[-0.9826459,42.965304],[-0.9816008,42.9640282],[-0.980946,42.9625021],[-0.9816862,42.96129],[-0.981303,42.9601797],[-0.9816613,42.9594477],[-0.9826912,42.9590583],[-0.9830005,42.9580968],[-0.9827324,42.9568777],[-0.9817575,42.9568365],[-0.9815686,42.9571309],[-0.9807823,42.9571939],[-0.9804667,42.9578885],[-0.9793647,42.9579857],[-0.9795187,42.9582843],[-0.9792513,42.9584348],[-0.9789822,42.9585862],[-0.9783731,42.9585879],[-0.9779212,42.958794],[-0.9773491,42.9588981],[-0.9765757,42.9586013],[-0.9746554,42.9577773],[-0.9746003,42.9573382],[-0.9729689,42.9567175],[-0.970971,42.9566215],[-0.96967,42.9561502],[-0.9691718,42.9557353],[-0.9688118,42.9544166],[-0.9696231,42.952851],[-0.9703967,42.9520684],[-0.973502,42.9506871],[-0.9751332,42.9502504],[-0.9753178,42.9496891],[-0.9758057,42.9497161],[-0.9759716,42.9497252],[-0.9769991,42.949782],[-0.9784306,42.9506794],[-0.9780174,42.9520678],[-0.9764847,42.9528402],[-0.9745662,42.9537684],[-0.9759246,42.9551019],[-0.9778967,42.9551127],[-0.979833,42.9562114],[-0.9818138,42.956368],[-0.9829575,42.9556807],[-0.9833706,42.9555361],[-0.9848324,42.9550244],[-0.9849508,42.9547834],[-0.9848189,42.9545806],[-0.9849063,42.9544829],[-0.9851028,42.9545904],[-0.9852566,42.9544769],[-0.985456,42.9539367],[-0.9854546,42.9537643],[-0.9853631,42.9534122],[-0.9855218,42.9531304],[-0.9857269,42.9532029],[-0.9858132,42.9537237],[-0.9856643,42.9541073],[-0.985752,42.9543959],[-0.9855992,42.9546297],[-0.985434,42.9547711],[-0.9852594,42.9551497],[-0.9868979,42.9556302],[-0.9888954,42.956075],[-0.9902917,42.958059],[-0.9920964,42.9585828],[-0.9936462,42.9580996],[-0.9955077,42.9578966],[-0.9965193,42.9566344],[-0.9964483,42.955406],[-0.9985965,42.9550491],[-1.0005899,42.9554207],[-1.0020428,42.956679],[-1.004635,42.957178],[-1.0067544,42.9563149],[-1.0070034,42.9555103],[-1.0066538,42.9545805],[-1.0075141,42.9541187],[-1.0090887,42.9540694],[-1.0104261,42.9542096],[-1.010653,42.955332],[-1.0104299,42.9570642],[-1.0090233,42.9579399],[-1.0080602,42.9580891],[-1.0085434,42.9594418],[-1.0072315,42.9605539],[-1.0064893,42.9606045],[-1.0056181,42.9606639],[-1.004602,42.9612902],[-1.0037848,42.9625644],[-1.0035836,42.9632843],[-1.0024055,42.9639157],[-1.0009455,42.9652706],[-0.9966547,42.9642062],[-0.9965646,42.9644967],[-0.9962396,42.9649591],[-0.9958157,42.9653698],[-0.9952068,42.9662762],[-0.9926112,42.9667457]]},"properties":{"CLC:code":"311","CLC:id":"FR-240963","CLC:year":"2006","leaf_cycle":"deciduous","natural":"wood","source":"Union européenne - SOeS, CORINE Land Cover, 2006."}},
{"type":"Feature","geometry":{"type":"LineString","coordinates":[[-0.88586,43.0608355],[-0.8858368,43.0602495],[-0.8864657,43.0593876],[-0.8870802,43.0594141],[-0.8882205,43.0589752],[-0.8890593,43.0593309],[-0.8900071,43.0593339],[-0.8906786,43.0597879],[-0.8906282,43.0604211],[-0.8909073,43.0607914],[-0.8909788,43.0612951],[-0.8906681,43.0619046],[-0.8911572,43.0621742],[-0.8916967,43.0618107],[-0.8923527,43.0619808],[-0.8928074,43.0624088],[-0.8932537,43.0619211],[-0.8928886,43.0615533],[-0.8930236,43.0608861],[-0.893918,43.0607007],[-0.8941475,43.0601891],[-0.8934813,43.0598293],[-0.8930712,43.0594315],[-0.8921252,43.05946],[-0.8913456,43.0593891],[-0.8913999,43.0588187],[-0.8925066,43.0586572],[-0.8938913,43.0579861],[-0.8949894,43.0587622],[-0.8965869,43.0579497],[-0.8979523,43.0571532],[-0.8987987,43.056723],[-0.9004272,43.0582114],[-0.902031,43.0577313],[-0.9010647,43.0566815],[-0.9021545,43.0560012],[-0.9010188,43.0549925],[-0.9011464,43.0548628],[-0.9016284,43.0547133],[-0.9022988,43.0546976],[-0.9025221,43.0548055],[-0.9039995,43.0551182],[-0.904462,43.0546883],[-0.9045147,43.054181],[-0.9052011,43.0541298],[-0.9062989,43.0541865],[-0.9077195,43.0542031],[-0.9093469,43.0543021],[-0.9099791,43.0547292],[-0.9096095,43.0553642],[-0.910176,43.0560607],[-0.911559,43.0561379],[-0.9123554,43.0558766],[-0.9136154,43.0559271],[-0.9150574,43.0563296],[-0.9165164,43.0563145],[-0.9170227,43.0559428],[-0.9179368999999999,43.0556172],[-0.9186488,43.0552989],[-0.9184162,43.0547698],[-0.9179171,43.0545478],[-0.9175696,43.0541414],[-0.9166386,43.0541697],[-0.9157736,43.0539285],[-0.9149571,43.0538341],[-0.9140918,43.0543066],[-0.912997,43.0543106],[-0.912535,43.0540268],[-0.9119497,43.0537175],[-0.9104401,43.0535553],[-0.9092662,43.0535909],[-0.9083335,43.0535888],[-0.907362,43.0536182],[-0.9067412,43.0533999],[-0.9067989,43.0529811],[-0.9071628,43.0526532],[-0.9079433,43.0526475],[-0.9088787,43.0523225],[-0.9102644,43.0523681],[-0.9111244,43.0523937],[-0.9117473,43.0524457],[-0.9124751,43.0526675],[-0.9131227,43.0527355],[-0.9137751,43.0528911],[-0.914199,43.0527905],[-0.914319,43.0523845],[-0.9146235,43.0518684],[-0.9148096,43.0513558],[-0.9146152,43.0508717],[-0.9139707,43.0504361],[-0.9134245,43.0500514],[-0.9127292,43.0499848],[-0.912134,43.0500029],[-0.9114526,43.0497605],[-0.9112383,43.0501874],[-0.9111154,43.0505407],[-0.9111588,43.0508833],[-0.911714,43.0510126],[-0.9124014,43.0509389],[-0.912693,43.0510345],[-0.9125667,43.0513362],[-0.9123021,43.0517118],[-0.9115411,43.0517517],[-0.9107668,43.0515482],[-0.9095257,43.051533],[-0.9086014,43.0516307],[-0.9079637,43.0517376],[-0.9076302,43.0517477],[-0.9074312,43.0515964],[-0.9079856,43.0512829],[-0.9083696,43.0509037],[-0.9088181,43.0505616],[-0.9088361,43.0505479],[-0.9093798,43.0502089],[-0.9099005,43.0501403],[-0.9101912,43.0497988],[-0.9101188,43.0493638],[-0.9103602,43.0489901],[-0.9100172,43.0488251],[-0.9094991,43.0489465],[-0.9089794,43.0490319],[-0.9089094,43.0486317],[-0.9091893,43.0480983],[-0.9093996,43.0478537],[-0.9096041,43.0478336],[-0.9097459,43.0478196],[-0.9101008,43.047774],[-0.9106313,43.0478804],[-0.9114178,43.0478734],[-0.9118649,43.0477722],[-0.9123105,43.0476362],[-0.9128578,43.0476195],[-0.9131712,43.0476808],[-0.9132644,43.0480624],[-0.9136837,43.0483115],[-0.9141061,43.0486134],[-0.9142102,43.0487676],[-0.9143954,43.0492711],[-0.9146947,43.0497824],[-0.9154177,43.0503056],[-0.9162121,43.050858],[-0.9169478,43.0512201],[-0.9178682,43.051472],[-0.9185197,43.0511903],[-0.9190028,43.0508778],[-0.9199997,43.0507958],[-0.9211411,43.0511634],[-0.9223561,43.0515637],[-0.92343,43.052003],[-0.9241929,43.0519967],[-0.9243745,43.0514146],[-0.9243676,43.050873],[-0.9236554,43.0505092],[-0.9227094,43.0502233],[-0.9218147,43.0500055],[-0.9210483,43.0495219],[-0.9196083,43.0493555],[-0.9189707,43.0494626],[-0.9181802,43.0498193],[-0.9170086,43.0501865],[-0.9166854,43.0499524],[-0.9165148,43.0494675],[-0.9159951,43.049553],[-0.915431,43.0492734],[-0.9151883,43.0487739],[-0.9152897,43.0483516],[-0.915973,43.0483128],[-0.9165631,43.0482073],[-0.9161078,43.047749],[-0.9161112,43.0473814],[-0.9164255,43.0470392],[-0.9161241,43.0467685],[-0.9151761,43.0468681],[-0.9143925,43.0469267],[-0.9138601,43.0467855],[-0.9133494,43.0466088],[-0.9126936,43.0468209],[-0.9121749,43.0469232],[-0.9118962,43.0466349],[-0.911574,43.0464177],[-0.9111121,43.0462563],[-0.9107252,43.0465828],[-0.9103028,43.0467012],[-0.9096549,43.0466332],[-0.909243,43.0468694],[-0.9082193,43.046997],[-0.9076502,43.0479943],[-0.9061814,43.0493426],[-0.9048581,43.0502278],[-0.903461,43.0506747],[-0.9027447,43.0507234],[-0.9015558,43.0508043],[-0.8993046,43.0511061],[-0.8975765,43.0515539],[-0.8953013,43.0518653],[-0.8939969,43.0524352],[-0.8930243,43.0532378],[-0.8917181,43.0539965],[-0.8903591,43.054469],[-0.8889691,43.0548256],[-0.8871848,43.055149],[-0.8866746,43.0547957],[-0.8864416,43.0541374],[-0.888109,43.0539164],[-0.8892716,43.0534408],[-0.8906428,43.0529679],[-0.8898695,43.0518437],[-0.8907398,43.0517242],[-0.8910767,43.051233],[-0.890468,43.0507703],[-0.8896391,43.0502872],[-0.8891409,43.0498482],[-0.8893568,43.0491471],[-0.8903127,43.0493049],[-0.8909521,43.0496599],[-0.8917369,43.0500105],[-0.8926783,43.0499023],[-0.892715,43.0492594],[-0.8938393,43.0496257],[-0.8951239,43.0489215],[-0.8941219,43.0481066],[-0.893406,43.0473639],[-0.8946716,43.0467593],[-0.8964302,43.0477312],[-0.898233,43.0466518],[-0.8972993,43.0459606],[-0.8963112,43.046485],[-0.8949951,43.0457515],[-0.8938761,43.0452547],[-0.895191,43.0448734],[-0.8967829,43.044187],[-0.8986963,43.0437695],[-0.8987161,43.0439038],[-0.8989299,43.0444368],[-0.8992586,43.0448315],[-0.8999619,43.0453497],[-0.9002219,43.0456116],[-0.9005656,43.0462756],[-0.9010834,43.0467634],[-0.9012834,43.0474857],[-0.9034122,43.0469717],[-0.9031043,43.0458571],[-0.9020948,43.0446918],[-0.9006802,43.0439523],[-0.8999374,43.0429498],[-0.900625,43.0423906],[-0.9013429,43.0423689],[-0.9018081,43.0427606],[-0.9026194,43.0433868],[-0.9031979,43.0438166],[-0.9035595,43.0443339],[-0.9038752,43.0450156],[-0.9048574,43.044742],[-0.9052706,43.0442012],[-0.906089,43.043973],[-0.9065479,43.0442435],[-0.9068632,43.0449251],[-0.9076632,43.0453482],[-0.908136,43.0448866],[-0.9077101,43.0442083],[-0.9073458,43.0436506],[-0.9068714,43.0430963],[-0.9060205,43.0427556],[-0.9054329,43.0421631],[-0.9044716,43.041827],[-0.9031829,43.0415816],[-0.9026136,43.0413134],[-0.9024179,43.040791],[-0.9025406,43.0400152],[-0.9025572,43.0393235],[-0.9033598,43.0396386],[-0.9036752,43.0394155],[-0.9049765,43.0405675],[-0.905606,43.0408632],[-0.9062741,43.0412655],[-0.9061688,43.0414496],[-0.9061294,43.0417363],[-0.9069179,43.0419563],[-0.9074363,43.0423059],[-0.9078975,43.0426179],[-0.9085888,43.0430847],[-0.9090242,43.0439246],[-0.9097457,43.0449198],[-0.9101537,43.0452728],[-0.910555,43.0445289],[-0.9100783,43.0439342],[-0.9099261,43.043206],[-0.9106826,43.0428583],[-0.9115954,43.0433184],[-0.911632,43.043968],[-0.9126071,43.0445476],[-0.9134187,43.0441981],[-0.9130501,43.0435586],[-0.9125756,43.0430043],[-0.9121516,43.0423664],[-0.9111302,43.04195],[-0.9099983,43.0415371],[-0.9103628,43.0411191],[-0.9111969,43.0409657],[-0.9121247,43.0410342],[-0.9126218,43.041154],[-0.9132646,43.041683],[-0.9145233,43.0420494],[-0.9170702,43.0437343],[-0.9173352,43.044086],[-0.9185333,43.0446789],[-0.9187539,43.0453286],[-0.9208776,43.0458125],[-0.9225761,43.0461475],[-0.9235982,43.0449295],[-0.9222365,43.043829],[-0.9211237,43.0427929],[-0.9208067,43.0424685],[-0.92033,43.0419808],[-0.9192855,43.0408527],[-0.9192165,43.0398478],[-0.9192322,43.0383907],[-0.9184542,43.0376714],[-0.9173818,43.0370982],[-0.9190172,43.0358886],[-0.9179458,43.0351479],[-0.9155787,43.0336014],[-0.9146746,43.0340874],[-0.9132836,43.0333294],[-0.9149084,43.0319314],[-0.9138493,43.0314061],[-0.9136862,43.0311234],[-0.9136736,43.030899],[-0.9137883,43.0307606],[-0.9148925,43.030781],[-0.9156266,43.0307587],[-0.9159249,43.0306148],[-0.9165012,43.0299679],[-0.9166944,43.0299171],[-0.9176782,43.0299771],[-0.919019,43.0298464],[-0.9196231,43.0296931],[-0.9206276,43.0290332],[-0.9211655,43.0287921],[-0.9215371,43.0286459],[-0.9217482,43.0284776],[-0.9218227,43.0282775],[-0.9220572,43.0280906],[-0.9224702,43.0278083],[-0.9239981,43.0270874],[-0.9207713,43.0252885],[-0.9190303,43.0261416],[-0.9179825,43.0253823],[-0.9189483,43.0240402],[-0.9210195,43.0236085],[-0.9226068,43.0235063],[-0.9226701,43.0250598],[-0.9238138,43.0257803],[-0.9251126,43.0262083],[-0.925446,43.0260363],[-0.9259896,43.0250307],[-0.9270829,43.0250782],[-0.9290851,43.0253768],[-0.9313402,43.02538],[-0.9314122,43.0242718],[-0.9328324,43.0244577],[-0.9333115,43.0241273],[-0.9339599,43.0239692],[-0.9342286,43.0239037],[-0.9343555,43.0232176],[-0.9350475,43.0231234],[-0.9357077,43.0232361],[-0.9360197,43.0232893],[-0.9365459,43.0226146],[-0.9373081,43.0225912],[-0.9379116,43.0215253],[-0.9388744,43.0215206],[-0.9399969,43.0214132],[-0.9410438,43.0217228],[-0.941982,43.0215468],[-0.9427829,43.0214964],[-0.9440591,43.0218159],[-0.9447612,43.0218719],[-0.9459503,43.0218871],[-0.9466219,43.0220194],[-0.9480424,43.0224119],[-0.9488576,43.0226184],[-0.9495105,43.0230334],[-0.9504147,43.022955],[-0.9510326,43.0227562],[-0.951345,43.0227208],[-0.9521591,43.0229014],[-0.9529963,43.0228757],[-0.9537204,43.0226995],[-0.9544993,43.0222833],[-0.9549305,43.0223644],[-0.9563325,43.0230946],[-0.9574572,43.0239052],[-0.9587434,43.0243242],[-0.9594125,43.0250948],[-0.9596754,43.0260488],[-0.9593042,43.0268425],[-0.9585694,43.0277103],[-0.9571748,43.027969],[-0.9564319,43.0274074],[-0.9554569,43.027932],[-0.9565609,43.0288061],[-0.9595042,43.0286256],[-0.9602888,43.0275585],[-0.9613502,43.0266176],[-0.9628458,43.0266255],[-0.9642899,43.0257942],[-0.9649739,43.0264082],[-0.9659066,43.026158],[-0.9668846,43.0266965],[-0.9676514,43.0273045],[-0.9685395,43.0270242],[-0.9685703,43.0275605],[-0.9687402,43.027798],[-0.9689916,43.0281477],[-0.9676039,43.0287278],[-0.9674735,43.0287442],[-0.9665778,43.0288538],[-0.9665798,43.0296439],[-0.9665375,43.0305219],[-0.9632101,43.0306335],[-0.9609647,43.0310174],[-0.9591982,43.0311493],[-0.9584211,43.0313991],[-0.9566539,43.0317064],[-0.9551212,43.0320918],[-0.9534762,43.0325223],[-0.9520899,43.0324379],[-0.9503703,43.032575],[-0.9490842,43.0322346],[-0.9480091,43.0315494],[-0.9473731,43.0311024],[-0.9464854,43.0311248],[-0.9458121,43.0303865],[-0.9455608,43.0301959],[-0.9429409,43.029386],[-0.9408961,43.0289901],[-0.9389886,43.0288507],[-0.9373996,43.0284947],[-0.935969,43.0287912],[-0.935827,43.0295048],[-0.9354156,43.0304615],[-0.9334946,43.0322465],[-0.9323389,43.0326145],[-0.930811,43.0326881],[-0.9301753,43.0318533],[-0.9316043,43.0313332],[-0.9332719,43.0306978],[-0.9339708,43.0300561],[-0.933091,43.0288062],[-0.9314475,43.029216],[-0.9300187,43.0286572],[-0.9282675,43.029331],[-0.9260965,43.0284351],[-0.9243478,43.0295853],[-0.9246011,43.0297305],[-0.9255365,43.0300167],[-0.9259239,43.0303645],[-0.925962,43.0310377],[-0.9261633,43.0313463],[-0.9265308,43.0315598],[-0.9240897,43.0326053],[-0.9225509,43.0335692],[-0.920304,43.0361013],[-0.921506,43.036766],[-0.9226804,43.0358581],[-0.9240343,43.034657],[-0.9254069,43.0335722],[-0.9270216,43.0328666],[-0.9270562,43.0332612],[-0.927125,43.033394],[-0.9273799,43.033566],[-0.9276858,43.0335567],[-0.9279866,43.0334576],[-0.9283022,43.033403],[-0.928557,43.0335751],[-0.9286263,43.0339326],[-0.929129,43.0341511],[-0.9281949,43.034755],[-0.9265888,43.0356132],[-0.9254666,43.0363577],[-0.9251768,43.0373016],[-0.9237757,43.0374522],[-0.9223827,43.0379622],[-0.9226741,43.0389963],[-0.924423,43.0387093],[-0.9253106,43.0386373],[-0.9265583,43.0385363],[-0.926646,43.038137999999999],[-0.9269902,43.0377229],[-0.9276985,43.037027],[-0.9279255,43.0367054],[-0.9281422,43.0362042],[-0.9284889,43.035834],[-0.9292028,43.0354526],[-0.9298018,43.0352095],[-0.9299166,43.0350711],[-0.9301664,43.0351534],[-0.9307399,43.0355406],[-0.9309871,43.035578],[-0.931242,43.03575],[-0.931372,43.0358809],[-0.932461,43.0367108],[-0.9327873,43.0370605],[-0.9328153,43.0373384],[-0.9315167,43.0377827],[-0.9321192,43.0388972],[-0.9331583,43.0394949],[-0.9348241,43.0390394],[-0.9354186,43.0391471],[-0.9356149,43.0393659],[-0.9358188,43.0397193],[-0.9352962,43.0402298],[-0.9353242,43.0407235],[-0.9354568,43.0408993],[-0.9331582,43.0414371],[-0.9312772,43.041989],[-0.9292085,43.0426905],[-0.9276242,43.0435031],[-0.9263248,43.0443699],[-0.9251854,43.0456814],[-0.9260562,43.0460471],[-0.9260086,43.0465577],[-0.9258456,43.0469336],[-0.9256229,43.0470752],[-0.925826,43.0474074],[-0.9263989,43.0477619],[-0.9269895,43.0476091],[-0.9273612,43.0468537],[-0.9279418,43.0465325],[-0.927995,43.0459375],[-0.9286275,43.0451989],[-0.9290966,43.0448249],[-0.9297392,43.0442658],[-0.9299126,43.0440807],[-0.9304501,43.0436147],[-0.9311053,43.04328],[-0.9323163,43.0430183],[-0.9327956,43.0428238],[-0.9329144,43.0427573],[-0.9331801,43.0433336],[-0.9345185,43.0453158],[-0.9331473,43.0457803],[-0.9313585,43.0462305],[-0.9298333,43.0465738],[-0.9302274,43.0474699],[-0.9325588,43.047075],[-0.9346913,43.0466323],[-0.934753,43.0475026],[-0.9350355,43.0494541],[-0.9331816000000001,43.049583],[-0.9327911,43.0494088],[-0.9303343,43.0498822],[-0.9280486,43.050635],[-0.9281197,43.0507293],[-0.9278011,43.0507358],[-0.9276929,43.0518541],[-0.9286157,43.0519181],[-0.9288225,43.0523165],[-0.9292865,43.0523709],[-0.9303078,43.0525083],[-0.9299991,43.0527538],[-0.9297921,43.0531658],[-0.9301295,43.0534264],[-0.9311298,43.0540039],[-0.9305969,43.0543574],[-0.930478,43.0546993],[-0.9311987,43.0552179],[-0.9323795,43.0557225],[-0.9328392,43.054897],[-0.9340333,43.0548268],[-0.9335907,43.0543335],[-0.9333551,43.0534291],[-0.9334523,43.0531643],[-0.9340211,43.0531806],[-0.9349205,43.0519831],[-0.9356567,43.0517707],[-0.9358158,43.0513264],[-0.9364002,43.0510725],[-0.936954,43.0510893],[-0.937299,43.0514833],[-0.9371477,43.0520623],[-0.936333,43.0523243],[-0.9363063,43.0526624],[-0.9366035,43.0530253],[-0.9374504,43.0533377],[-0.9380773,43.053014],[-0.9386062,43.0525921],[-0.9395222,43.0524966],[-0.9405646,43.0530053],[-0.9406778,43.0525635],[-0.9403786,43.0521669],[-0.940649,43.0520575],[-0.941521,43.0519971],[-0.9418678,43.0516144],[-0.9411988,43.0511955],[-0.9407734,43.0510062],[-0.9394436,43.0511143],[-0.938671,43.0513065],[-0.9380444,43.0508188],[-0.938023,43.0504418],[-0.9387225,43.0502585],[-0.9384532,43.0483246],[-0.9396617,43.0478021],[-0.939861,43.0465641],[-0.9395646,43.0454493],[-0.9389736,43.0445412],[-0.9382255,43.043674],[-0.9379318,43.0423882],[-0.9400463,43.0422785],[-0.9416158,43.0431476],[-0.9423049,43.0444843],[-0.9423703,43.0460647],[-0.9422669,43.047048],[-0.9437651,43.0473078],[-0.9445944,43.0483075],[-0.9447495,43.0485219],[-0.9447919,43.0487544],[-0.9440944,43.0494512],[-0.9445868,43.0500105],[-0.9453609,43.0498519],[-0.9457461,43.0501436],[-0.9452173,43.0505655],[-0.9446464,43.0510562],[-0.9447326,43.0517628],[-0.9453308,43.0517444],[-0.9454611,43.0524171],[-0.9458656,43.0530464],[-0.9459939,43.0536647],[-0.9467651,43.0540113],[-0.9475946,43.0535382],[-0.9471978,43.0529719],[-0.9475445,43.0525892],[-0.9477112,43.0522795],[-0.9473642,43.0518518],[-0.9476746,43.0516389],[-0.9484985,43.0515462],[-0.948138,43.0508817],[-0.9472375,43.0504362],[-0.9467581,43.0501125],[-0.946668,43.0493387],[-0.9467543,43.049118],[-0.9486034,43.049812],[-0.9496043,43.049089],[-0.9486123,43.048463],[-0.948018,43.0475012],[-0.947415,43.0463867],[-0.9470354,43.0451036],[-0.947591,43.0443133],[-0.9490446,43.0433605],[-0.9507455,43.0428767],[-0.9510525,43.0431011],[-0.951129,43.0433685],[-0.9508615,43.0440511],[-0.9508188,43.0445919],[-0.9510229,43.0449453],[-0.9517241,43.0454183],[-0.9519262,43.0457358],[-0.9519467,43.0460948],[-0.9517861,43.0465044],[-0.951873,43.0469513],[-0.9521382,43.0473028],[-0.952967,43.0478618],[-0.9531022,43.0480824],[-0.9531458,43.0488454],[-0.9533396,43.0490193],[-0.9539184,43.0491768],[-0.9541515,43.0496833],[-0.9548893,43.0505058],[-0.9554614,43.0513784],[-0.95555,43.0520647],[-0.9557582,43.0528102],[-0.9563332,43.0531983],[-0.9566977,43.05393],[-0.9576446,43.0543741],[-0.9580704,43.0545633],[-0.9583998,43.0538777],[-0.9588803,43.0534234],[-0.9598465,43.0533937],[-0.9599552,43.0528834],[-0.9603443,43.052432],[-0.9600011,43.0520717],[-0.9588051,43.0521085],[-0.9577109,43.0523107],[-0.9571015,43.0521271],[-0.9567448,43.0515301],[-0.9564631,43.0511667],[-0.9563202,43.050826],[-0.9563016,43.0502253],[-0.9564528,43.0496463],[-0.9570795,43.0493224],[-0.9575412,43.0493431],[-0.9582692,43.0491847],[-0.9584276,43.0489719],[-0.9577426,43.0479758],[-0.9561698,43.0474846],[-0.9548295,43.0467705],[-0.9533476,43.0467981],[-0.953181,43.0455983],[-0.9523261,43.0445816],[-0.9521184,43.0437338],[-0.9523119,43.0430444],[-0.9546959,43.0437894],[-0.9553417,43.0428614],[-0.9530535,43.0420775],[-0.9539175,43.0413227],[-0.9528507,43.0406721],[-0.9531774,43.0403833],[-0.9538962,43.0400915],[-0.9549261,43.03988],[-0.9556082,43.0395893],[-0.9534161,43.0387665],[-0.9524784,43.0386604],[-0.9516458,43.038677],[-0.9505654,43.0384314],[-0.9505192,43.037192],[-0.9491374,43.0368208],[-0.9477778,43.0376988],[-0.946219,43.0368024],[-0.9473359,43.035968],[-0.9492211,43.0348491],[-0.9514125,43.0337298],[-0.9529931,43.0343646],[-0.9526146,43.0369658],[-0.954227,43.0379413],[-0.9558037,43.0387201],[-0.9571672,43.0391997],[-0.957411,43.0391742],[-0.9587724,43.0394021],[-0.9590881,43.0395632],[-0.961117,43.0388174],[-0.963297,43.0396403],[-0.9647162,43.0389492],[-0.9634062,43.0376948],[-0.9632057,43.0374042],[-0.9610122,43.0359163],[-0.9592457,43.0361056],[-0.9572928,43.0341066],[-0.9566942,43.0339272],[-0.9561869,43.0336281],[-0.9559905,43.0334093],[-0.9557865,43.0330559],[-0.9557037,43.0326808],[-0.9562018,43.0326026],[-0.9569869,43.0326144],[-0.958032,43.0326722],[-0.9596786,43.0325316],[-0.9615261,43.0324747],[-0.962378,43.0323675],[-0.9628674,43.0323524],[-0.9637696,43.0320549],[-0.9649293,43.0319742],[-0.9654748,43.0318674],[-0.9657929,43.0318576],[-0.9667234,43.0320537],[-0.9664079,43.0326501],[-0.96617,43.0330048],[-0.9656719,43.033336],[-0.964748,43.0337432],[-0.9642147,43.0342025],[-0.964659,43.0344417],[-0.9655058,43.0341942],[-0.9656208,43.0346964],[-0.96491,43.0350656],[-0.9640969,43.0351536],[-0.9629937,43.0354405],[-0.9633055,43.0356209],[-0.9638749,43.0357921],[-0.9649033,43.0356975],[-0.9654673,43.0357745],[-0.965876,43.0361418],[-0.9667102,43.0356732],[-0.9672837,43.0359084],[-0.9674461,43.0360349],[-0.966986,43.038224],[-0.9674361,43.0385978],[-0.9679642,43.0387625],[-0.9685853,43.0383319],[-0.9696922,43.038109],[-0.9704691,43.0373892],[-0.9705099,43.0365989],[-0.9708106,43.035831],[-0.9712042,43.0351872],[-0.9706253,43.0348578],[-0.9705909,43.0342586],[-0.9717402,43.0332756],[-0.9710775,43.0329803],[-0.9700117,43.0331706],[-0.9684746,43.0326493],[-0.9680159,43.0321577],[-0.9679442,43.0316552],[-0.9685007,43.0308479],[-0.9696285,43.0302444],[-0.9704478,43.0304498],[-0.9735205,43.0295692],[-0.9759526,43.0311432],[-0.9787893,43.0316051],[-0.9790943,43.0318968],[-0.9781686,43.0324373],[-0.9768089,43.0330908],[-0.9754901,43.033815],[-0.9740943,43.0346944],[-0.9752371,43.0351715],[-0.9763608,43.0344624],[-0.9773203,43.0338842],[-0.9782413,43.033487],[-0.9795589,43.0331675],[-0.9796768,43.0332987],[-0.9798301,43.0338335],[-0.9801541,43.0341382],[-0.9802308,43.0344055],[-0.9801503,43.0344979],[-0.9795582,43.034858],[-0.9794363,43.0355091],[-0.9778889,43.0354581],[-0.97731,43.0364741],[-0.9759897,43.0367488],[-0.974303,43.0366211],[-0.973833,43.0373999],[-0.9732336,43.0384885],[-0.9719447,43.0393106],[-0.9706945,43.0401674],[-0.9694748,43.0409154],[-0.9674287,43.0405537],[-0.9665275,43.0403949],[-0.9657681,43.0410478],[-0.9651092,43.0408883],[-0.9647522,43.0406475],[-0.962674,43.0407475],[-0.9615183,43.0400458],[-0.9603555,43.0405042],[-0.9607543,43.0408336],[-0.9610937,43.0414077],[-0.9615934,43.0415721],[-0.9624654,43.041815],[-0.9629122,43.0421249],[-0.9632259,43.0422501],[-0.9637205,43.0423248],[-0.9640928,43.0424032],[-0.9647915,43.0428313],[-0.9650697,43.0434072],[-0.9651031,43.0439906],[-0.964879,43.0443571],[-0.9648435,43.0448078],[-0.9649696,43.0450827],[-0.9651737,43.0454361],[-0.9652231,43.0462977],[-0.9662853,43.04622],[-0.9665653,43.044476],[-0.9672286,43.0434305],[-0.9660894,43.0432318],[-0.9661513,43.0426005],[-0.9674213,43.0425422],[-0.9682739,43.0424181],[-0.969485,43.0417334],[-0.9706284,43.0413653],[-0.9717207,43.0407472],[-0.9725851,43.0402169],[-0.9733822,43.0395808],[-0.9745561,43.039104],[-0.9757611,43.038743],[-0.9761934,43.0379473],[-0.9766622,43.0375732],[-0.9774498,43.0374139],[-0.9779289,43.0372193],[-0.9783365,43.036847],[-0.9790655,43.0367345],[-0.9796051,43.0363132],[-0.9800842,43.0361185],[-0.9801907,43.0360523],[-0.9812566,43.0358304],[-0.9822186,43.0357197],[-0.9828106,43.0364206],[-0.9832442,43.0373513],[-0.9833262,43.0379242],[-0.9833824,43.0386868],[-0.9818817,43.0390211],[-0.9804361,43.0394615],[-0.979817,43.0387163],[-0.978091,43.0391834],[-0.9779434,43.04024],[-0.9780974,43.0409995],[-0.9790532,43.0414195],[-0.9798966,43.040737],[-0.9808455,43.0401861],[-0.9823473,43.0398698],[-0.9826392,43.040679],[-0.9825583,43.0416167],[-0.9821635,43.042636],[-0.9809606,43.0426103],[-0.9790639,43.042669],[-0.9790426,43.0435779],[-0.9775338,43.0435616],[-0.9763892,43.0422033],[-0.9741079,43.0430382],[-0.9747062,43.0440627],[-0.9730654,43.0449497],[-0.971838,43.0440704],[-0.9716224,43.044158],[-0.970644,43.044413],[-0.9704656,43.0445085],[-0.9694371,43.0453854],[-0.970777,43.0467288],[-0.9680198,43.0476052],[-0.9674006,43.0479255],[-0.9664838,43.0483989],[-0.9663411,43.048691],[-0.9657453,43.0492039],[-0.9670267,43.0499557],[-0.9673941,43.0497285],[-0.9686014,43.048981],[-0.9688094,43.0489745],[-0.9700867,43.0488002],[-0.9702362,43.0488406],[-0.9729483,43.0490985],[-0.9733002,43.0483952],[-0.9770843,43.047469],[-0.9773284,43.0472366],[-0.9799567,43.0466787],[-0.9799982,43.0469741],[-0.9803166,43.0471936],[-0.9801213,43.0474289],[-0.9792203,43.0479289],[-0.9783132,43.0483245],[-0.9782688,43.0487979],[-0.9777366,43.0494967],[-0.9771302,43.0501448],[-0.976729,43.0506293],[-0.9771371,43.0515091],[-0.9776791,43.0522263],[-0.9779816,43.0521529],[-0.978173,43.0521065],[-0.9791697,43.0520228],[-0.9796515,43.0516932],[-0.9800468,43.0511043],[-0.9813352,43.0511161],[-0.9817327,43.0511279],[-0.9827347,43.0511578],[-0.983777,43.0511888],[-0.9842642,43.050641],[-0.9852249,43.0507706],[-0.9854153,43.0507963],[-0.9875549,43.0509963],[-0.9894465,43.0513939],[-0.9906554,43.051661],[-0.9906998,43.0506323],[-0.9920681,43.050057],[-0.9927757,43.0497304],[-0.9927859,43.0490063],[-0.9932664,43.0483439],[-0.9943139,43.0485024],[-0.9953335,43.0490799],[-0.9962989,43.0496208],[-0.9977707,43.0490411],[-0.9991971,43.0485786],[-1.0004658,43.0487661],[-1.0021977,43.04882],[-1.0040219,43.0489879],[-1.004983,43.0475912],[-1.0061551,43.0489843],[-1.0072495,43.0486175],[-1.0073664,43.0487307],[-1.0089918,43.0492734],[-1.0095607,43.0495703],[-1.0098568,43.0498129],[-1.0111291,43.0497641],[-1.0129305,43.0495369],[-1.0162054,43.0495603],[-1.0162356,43.0492357],[-1.0163251,43.049089],[-1.0161336,43.0485375],[-1.0145901,43.0485588],[-1.0137079,43.0470938],[-1.0126678,43.0460743],[-1.0110362,43.0454239],[-1.0086197,43.0445553],[-1.0090201,43.044273],[-1.010161,43.0436529],[-1.0111191,43.0432633],[-1.0114862,43.0432518],[-1.0119171,43.0432833],[-1.0122921,43.0434064],[-1.0129677,43.0434303],[-1.0138698,43.0431323],[-1.0139948,43.0431733],[-1.0144869,43.0432029],[-1.0155722,43.0437354],[-1.0154968,43.044547],[-1.0154911,43.045923],[-1.0152619,43.047252],[-1.0162527,43.0476346],[-1.0177714,43.0480276],[-1.0174571,43.0493683],[-1.0176584,43.0495369],[-1.0180975,43.049627],[-1.0185381,43.0496132],[-1.0190119,43.0493286],[-1.0193738,43.0492273],[-1.0199123,43.0492104],[-1.0215456,43.050517],[-1.0229468,43.0497357],[-1.024413,43.0494379],[-1.0249068,43.0505464],[-1.0253007,43.0509927],[-1.0256106,43.0512617],[-1.0266889,43.051039],[-1.0266109,43.0501243],[-1.0270563,43.0489323],[-1.0272457,43.0477664],[-1.0269534,43.0467505],[-1.0259936,43.0460613],[-1.0254114,43.0451174],[-1.0238228,43.0449964],[-1.0238863,43.0448236],[-1.024266,43.0443981],[-1.025112,43.0437691],[-1.0266749,43.0434502],[-1.0281104,43.0432613],[-1.0295806,43.0430352],[-1.0314737,43.0429127],[-1.031337,43.0435105],[-1.0311639,43.0436958],[-1.0311875,43.0440997],[-1.0317493,43.0455297],[-1.0318848,43.0457503],[-1.0319137,43.0462439],[-1.0318175,43.0466965],[-1.0316523,43.0470165],[-1.0310107,43.0475762],[-1.031085,43.0477986],[-1.0317284,43.0483179],[-1.0319304,43.0486263],[-1.0319113,43.0491394],[-1.0329257,43.0498505],[-1.0337907,43.050456],[-1.0347292,43.0499409],[-1.0342625,43.0492992],[-1.0343318,43.0483888],[-1.0341351,43.0475408],[-1.0339927,43.0465741],[-1.0350542,43.0464868],[-1.0359507,43.0465125],[-1.0361331,43.047325],[-1.0357339,43.0482548],[-1.0372518,43.0484228],[-1.0383535,43.0471382],[-1.0399062,43.0470622],[-1.0400653,43.046221],[-1.0412523,43.0461835],[-1.042428,43.0463712],[-1.0428036,43.0465033],[-1.043011,43.0466946],[-1.0409045,43.0484065],[-1.0417751,43.0490355],[-1.0410202,43.0497517],[-1.039884,43.0494357],[-1.0390129,43.0491057],[-1.0382508,43.0492489],[-1.0368956,43.0496479],[-1.0366557,43.0503996],[-1.0376197,43.0509346],[-1.038489,43.0512343],[-1.0383319,43.0520126],[-1.0370417,43.052142],[-1.036466,43.0526952],[-1.0359073,43.0535456],[-1.0351046,43.0536901],[-1.0342478,43.0535979],[-1.0335597,43.0536195],[-1.032695,43.054093],[-1.0334151,43.0545143],[-1.0313795,43.0547222],[-1.0303795,43.0543222],[-1.0300857,43.0539505],[-1.0267212,43.0543262],[-1.0247214,43.054119],[-1.023512,43.0574106],[-1.0221479,43.0594371],[-1.0219262,43.0600843],[-1.0213002,43.060423],[-1.0209652,43.0611948],[-1.0211368,43.0613832],[-1.0228532,43.0613743],[-1.0240781,43.0615607],[-1.0254498,43.0619493],[-1.0267844,43.0621232],[-1.0285429,43.061996],[-1.0288167,43.0622752],[-1.0297668,43.0627938],[-1.0298471,43.0629082],[-1.0283912,43.0631788],[-1.0279687,43.064343],[-1.0266019,43.0644579],[-1.0253634,43.064539],[-1.0253335,43.0648231],[-1.0247735,43.0646502],[-1.0238346,43.0652091],[-1.022619,43.0652079],[-1.0224214,43.0655153],[-1.0233009,43.0656855],[-1.0233198,43.0660086],[-1.0253607,43.0663043],[-1.0274998,43.0661832],[-1.0291712,43.0660317],[-1.0294482,43.0669942],[-1.0274867,43.0672177],[-1.0278037,43.0686555],[-1.0300547,43.0685578],[-1.0324138,43.0684206],[-1.0359721,43.0682367],[-1.0360971,43.0682778],[-1.0371911,43.0681084],[-1.0378137,43.0682687],[-1.038724,43.0681051],[-1.0392827,43.0682224],[-1.0397931,43.0683502],[-1.0405994,43.0685046],[-1.0407935,43.0686783],[-1.0409136,43.0698885],[-1.0410571,43.0702437],[-1.0418844,43.0707571],[-1.0419588,43.0709796],[-1.0417366,43.0713732],[-1.0388999,43.0715256],[-1.0391042,43.0733356],[-1.0411218,43.0738565],[-1.0426749,43.0741942],[-1.0415655,43.0751464],[-1.0413818,43.0751522],[-1.0396999,43.0749174],[-1.0382591,43.0746121],[-1.0367971,43.0741546],[-1.033515,43.0725674],[-1.0315834,43.0718368],[-1.0305129,43.0732463],[-1.0320003,43.0743505],[-1.0310016,43.0751013],[-1.0299012,43.0745334],[-1.0290223,43.0739765],[-1.0278729,43.0729875],[-1.0269214,43.0720282],[-1.0261167,43.0712712],[-1.0252493,43.0704891],[-1.0249327,43.0692671],[-1.0245181,43.0688559],[-1.0239485,43.0688918],[-1.0237181,43.0682613],[-1.0223831,43.0679768],[-1.021879,43.0682234],[-1.022223,43.0686509],[-1.0215639,43.0690603],[-1.0206468,43.068922],[-1.0181196,43.0697954],[-1.0148342,43.0685584],[-1.0154467,43.067703],[-1.017566,43.0682931],[-1.0181423,43.0674478],[-1.0160378,43.0669022],[-1.0175033,43.0661639],[-1.0183998,43.065974],[-1.0191955,43.0659491],[-1.0194935,43.0660117],[-1.0195876,43.0651005],[-1.0180969,43.0649853],[-1.0163922,43.0649848],[-1.0176363,43.0642355],[-1.0186416,43.0633117],[-1.0182089,43.0629427],[-1.0166868,43.0635243],[-1.0156856,43.0643844],[-1.0150643,43.0641686],[-1.0153607,43.0634517],[-1.0159376,43.0626521],[-1.0137985,43.062773],[-1.0116925,43.0632524],[-1.0103944,43.0637066],[-1.0087994,43.0636935],[-1.0072541,43.063481],[-1.0076945,43.0624062],[-1.0099675,43.0624791],[-1.0121367,43.061611],[-1.0124908,43.0613751],[-1.0129413,43.0606866],[-1.0137004,43.0600334],[-1.0142635,43.0600158],[-1.0146359,43.0600941],[-1.0154875,43.0599775],[-1.0156732,43.0600077],[-1.0156444,43.0590914],[-1.0144279,43.0590485],[-1.0129159,43.0591948],[-1.0118476,43.0598036],[-1.0111549,43.0605447],[-1.0105474,43.061274],[-1.0090602,43.0614284],[-1.0091177,43.0605184],[-1.0092049,43.0596974],[-1.0099685,43.0589092],[-1.0108377,43.0582526],[-1.0127098,43.0569172],[-1.0130775,43.0564921],[-1.0134316,43.0562562],[-1.0141608,43.0561435],[-1.0146522,43.0559483],[-1.0151418,43.055933],[-1.015647,43.0561869],[-1.016078,43.0562184],[-1.0165624,43.0561133],[-1.0175647,43.0558481],[-1.017628,43.05483],[-1.0188239,43.0536776],[-1.0191978,43.0537828],[-1.0196405,43.0538048],[-1.020669,43.0539884],[-1.0224488,43.0529705],[-1.0215114,43.0522445],[-1.0203189,43.0517694],[-1.0185864,43.0517068],[-1.017851,43.0527639],[-1.0171572,43.0536938],[-1.016385,43.0543294],[-1.0133606,43.0531382],[-1.0126617,43.0533489],[-1.012394,43.0533843],[-1.011892,43.0540294],[-1.0110439,43.0544156],[-1.0097291,43.0547894],[-1.0084075,43.0550465],[-1.0067226,43.055171],[-1.0057288,43.0566407],[-1.0036046,43.0561675],[-1.0036103,43.055421],[-1.0047741,43.0545574],[-1.0045968,43.0538256],[-1.0043908,43.053868],[-1.0035979,43.0539377],[-1.0015581,43.0540732],[-0.9998695,43.0541348],[-0.9982977,43.0540939],[-0.9971899,43.0540205],[-0.9963335,43.0549014],[-0.9968574,43.0554785],[-0.9973432,43.0562457],[-0.9974885,43.0566368],[-0.9976843,43.0570533],[-0.9953458,43.0579624],[-0.9965996,43.0601354],[-0.9940422,43.0610781],[-0.9947009,43.0622895],[-0.9959325,43.0640766],[-0.994444,43.0644196],[-0.9921783,43.0608663],[-0.989617,43.0572862],[-0.9890619,43.0576541],[-0.9884525,43.057718],[-0.9870566,43.0577523],[-0.9854179,43.0578301],[-0.984655,43.0573592],[-0.9829897,43.0565476],[-0.9812695,43.0560614],[-0.9792527,43.0557462],[-0.9776998,43.0558212],[-0.9759823,43.0562341],[-0.9747506,43.0569486],[-0.9748711,43.0580808],[-0.9730268,43.0584983],[-0.9715917,43.0591916],[-0.9695346,43.0593272],[-0.9676696,43.0593847],[-0.9660661,43.0588574],[-0.9648511,43.0582459],[-0.9630885,43.0583723],[-0.9612606,43.0590775],[-0.9601933,43.0593267],[-0.9600382,43.0600525],[-0.9612449,43.0605201],[-0.9612903,43.0613118],[-0.9593724,43.062164],[-0.9572005,43.0620145],[-0.9563987,43.0617507],[-0.9567091,43.0602991],[-0.9581691,43.0600379],[-0.9587209,43.059372],[-0.9583564999999999,43.057882],[-0.9566966,43.0573413],[-0.9532854,43.0566549],[-0.9521649,43.0587214],[-0.9510464,43.0588906],[-0.9499254,43.0587991],[-0.9490798,43.0592387],[-0.9485357,43.0595881],[-0.9480738,43.0583704],[-0.9480401,43.0577779],[-0.9481073,43.0574522],[-0.9440726,43.0583042],[-0.9434122,43.0585492],[-0.9423819,43.0587605],[-0.941543,43.0591009],[-0.9411911,43.0593815],[-0.9409539,43.0595236],[-0.9406459,43.0607918],[-0.9407419,43.061832],[-0.9410338,43.0618702],[-0.941093,43.0620482],[-0.9419147,43.062231],[-0.9430181,43.062376],[-0.9440591,43.0628499],[-0.9447034,43.0634843],[-0.94524,43.0636466],[-0.94636,43.063374],[-0.9467229,43.0640473],[-0.9458222,43.0646099],[-0.9455304,43.0651842],[-0.9456656,43.066131],[-0.9464603,43.0665528],[-0.9470693,43.0672782],[-0.946452,43.0678322],[-0.9456522,43.0680354],[-0.9444882,43.0675349],[-0.9439769,43.0671044],[-0.9435485,43.0667016],[-0.9437137,43.0660424],[-0.9431467,43.065346],[-0.9429895,43.0647259],[-0.9433186,43.064092],[-0.9428881,43.063659],[-0.941908,43.0635406],[-0.9408623,43.062977],[-0.9397064,43.0619119],[-0.9389963,43.061547],[-0.9385662,43.0618288],[-0.9388311,43.0622074],[-0.939123,43.0630605],[-0.9387331,43.0633399],[-0.9381614,43.0632686],[-0.9375621,43.063478],[-0.9374168,43.0633094],[-0.9353373,43.0640473],[-0.9332188,43.0649662],[-0.9320222,43.0641934],[-0.9328767,43.0632592],[-0.9316367,43.0625867],[-0.9299534,43.0633933],[-0.9289925,43.0624515],[-0.9290363,43.0624256],[-0.9305468,43.061532],[-0.932734,43.0609617],[-0.9322867,43.0597795],[-0.9292096,43.0600082],[-0.9287374,43.0590335],[-0.9301477,43.0583881],[-0.9293405,43.0566953],[-0.9267088,43.0572071],[-0.9268281,43.0573653],[-0.9270346,43.0577636],[-0.9270651,43.0583022],[-0.9268559,43.058938],[-0.9268176,43.0593438],[-0.9249376,43.0590594],[-0.9250583,43.0575091],[-0.9235935,43.0574099],[-0.922561,43.0584483],[-0.9225006,43.0587615],[-0.9221329,43.0588199],[-0.9214816,43.0587813],[-0.9208594,43.0585316],[-0.9205636,43.0582337],[-0.9213923,43.057297],[-0.922798,43.0567867],[-0.9245226,43.055844],[-0.9266396,43.0562021],[-0.9267569,43.0561087],[-0.9270505,43.055948],[-0.9272866,43.0560172],[-0.9278768,43.0557014],[-0.9286021,43.0556197],[-0.9288502,43.0549883],[-0.9284016,43.0549425],[-0.9279108,43.0548675],[-0.927894,43.0545713],[-0.9283967,43.054139],[-0.9283293,43.0536656],[-0.9279328,43.0531124],[-0.9270119,43.0533191],[-0.9269648,43.0539151],[-0.9261162,43.0539713],[-0.9253604,43.0542315],[-0.9247181,43.0545118],[-0.9236686,43.0546202],[-0.9225058,43.0546556],[-0.9217637,43.0545433],[-0.9212508,43.0541453],[-0.9211258,43.0541041],[-0.9207587,43.0541153],[-0.9205776,43.0541657],[-0.9204041,43.0543508],[-0.9202378,43.0544458],[-0.9195045,43.0571498],[-0.9188607,43.0576111],[-0.9190831,43.0583113],[-0.9195919,43.0583509],[-0.919601,43.0585114],[-0.91966,43.0588367],[-0.9194356,43.0591705],[-0.9194135,43.0594983],[-0.9185581,43.0601481],[-0.9175409,43.0600902],[-0.9172357,43.0597128],[-0.9172055,43.0591787],[-0.9169019,43.0588305],[-0.9160687,43.0591537],[-0.9153077,43.0593252],[-0.9135011,43.0589338],[-0.9124116,43.0590264],[-0.9113502,43.0596239],[-0.9108268,43.0604131],[-0.9099479,43.0606477],[-0.9090874,43.0612087],[-0.9088696,43.0616615],[-0.9088625,43.0622563],[-0.9078482,43.0629715],[-0.9072796,43.0629584],[-0.906897,43.0626429],[-0.9071065,43.062042],[-0.9076685,43.0612225],[-0.9082637,43.0606267],[-0.9078833,43.0599965],[-0.9073235,43.0594189],[-0.9061913,43.0601961],[-0.9047939,43.0604171],[-0.9029386,43.0610037],[-0.9035888,43.062099],[-0.902865,43.0629661],[-0.9017912,43.0639337],[-0.9005151,43.0630461],[-0.8987782,43.0639977],[-0.8989702,43.0652328],[-0.8977271,43.066682],[-0.8969873,43.0677024],[-0.8955119,43.0678548],[-0.8954721,43.0671457],[-0.8956382,43.0668259],[-0.8957505,43.0666427],[-0.8967102,43.0656067],[-0.8934857,43.0645261],[-0.8924726,43.0659233],[-0.8939141,43.0666981],[-0.8938963,43.0672813],[-0.8938623,43.0683991],[-0.8938758,43.0685223],[-0.8935197,43.0686308],[-0.8933527,43.0692675],[-0.8933818,43.069787],[-0.8938621,43.0702187],[-0.8941992,43.0708031],[-0.8941315,43.0713997],[-0.8935973,43.071825],[-0.8934157,43.0719226],[-0.8926988,43.0710507],[-0.8914243,43.0712869],[-0.8907096,43.0705711],[-0.8921973,43.069762],[-0.8914352,43.0684183],[-0.8918219,43.0670039],[-0.8900152,43.0662761],[-0.8897359,43.0665453],[-0.8891241,43.0667885],[-0.8891791,43.0660878],[-0.8894431,43.0654167],[-0.8894404,43.0645952],[-0.8896148,43.0638639],[-0.8895671,43.0630122],[-0.8894921,43.0624458],[-0.8897044,43.0616178],[-0.8892549,43.061284],[-0.8889932,43.061229],[-0.8881796,43.0613164],[-0.8875199,43.0617926],[-0.8868747,43.0612186],[-0.88586,43.0608355]]},"properties":{"CLC:code":"321","CLC:id":"FR-238762","CLC:year":"2006","natural":"grassland","source":"Union européenne - SOeS, CORINE Land Cover, 2006."}},