{"type":"FeatureCollection","features":[
{"type":"Feature","geometry":{"type":"Point","coordinates":[3.0952372,45.0338688]},"properties":{"information":"office","name":"Office de Tourisme","phone":"+33 4 71602250","tourism":"information","website":"http://www.saint-flour.com/"}},
{"type":"Feature","geometry":{"type":"Point","coordinates":[3.0948739,45.0330738]},"properties":{"name":"Musée de la Haute-Auvergne","phone":"+33 4 71 60 22 32","ref:FR:museofile":"M0113","source":"Ministère de la Culture - base Muséofile - 2019","tourism":"museum","website":"https://www.pays-saint-flour.fr/patrimoine-culturel/musee-de-la-haute-auvergne/","wikidata":"Q21541568"}},
{"type":"Feature","geometry":{"type":"Point","coordinates":[3.0700303,45.0381164]},"properties":{"tourism":"viewpoint"}},
{"type":"Feature","geometry":{"type":"Point","coordinates":[3.1304803,45.1006987]},"properties":{"ele":"1107","mountain_pass":"yes","name":"Col de la Fageole","natural":"saddle","wikidata":"Q2982172","wikipedia":"fr:Col de la Fageole"}},
{"type":"Feature","geometry":{"type":"Point","coordinates":[3.1305958,45.1007001]},"properties":{"ele":"1107","mountain_pass":"yes","name":"Col de la Fageole","natural":"saddle","wikidata":"Q2982172","wikipedia":"fr:Col de la Fageole"}},
{"type":"Feature","geometry":{"type":"Point","coordinates":[3.1162911,45.0770022]},"properties":{"board_type":"history","check_date":"2023-07-07","information":"board","name":"Chaudes Aigues","tourism":"information"}},
{"type":"Feature","geometry":{"type":"Point","coordinates":[3.1306765,45.1002776]},"properties":{"ele":"1120","information":"guidepost","name":"Col de la Fageole","tourism":"information"}},
{"type":"Feature","geometry":{"type":"Point","coordinates":[3.1300967,45.1015158]},"properties":{"ele":"1120","information":"guidepost","name":"Col de la Fageole","tourism":"information"}},
{"type":"Feature","geometry":{"type":"Point","coordinates":[3.1397978,45.1190053]},"properties":{"information":"board","name":"Radar","tourism":"information"}},
{"type":"Feature","geometry":{"type":"Point","coordinates":[3.1182374,45.0424048]},"properties":{"board_type":"board","check_date":"2023-07-07","description":"Distances","information":"board","name":"Mende 83, Millau 141, Rodez 156, Montpellier 256","tourism":"information"}},
{"type":"Feature","geometry":{"type":"Point","coordinates":[3.1317835,45.035417700000007]},"properties":{"ele":"800","information":"guidepost","name":"Aaltitude","tourism":"information"}},
{"type":"Feature","geometry":{"type":"Point","coordinates":[3.1284136,45.0361511]},"properties":{"ele":"800","information":"guidepost","name":"Aaltitude","tourism":"information"}},
{"type":"Feature","geometry":{"type":"Point","coordinates":[3.1195238,45.0406705]},"properties":{"ele":"850","information":"guidepost","name":"Aaltitude","tourism":"information"}},
{"type":"Feature","geometry":{"type":"Point","coordinates":[3.1187428,45.0884719]},"properties":{"ele":"1012","information":"guidepost","name":"Aire de Montchauvet","tourism":"information"}},
{"type":"Feature","geometry":{"type":"Point","coordinates":[3.1197172,45.0879899]},"properties":{"ele":"1012","information":"guidepost","name":"Aire de Montchauvet (fin)","tourism":"information"}},
{"type":"Feature","geometry":{"type":"Point","coordinates":[3.1399992,45.1351704]},"properties":{"ele":"958","information":"guidepost","name":"L'Arcueil","tourism":"information"}},
{"type":"Feature","geometry":{"type":"Point","coordinates":[3.1181194,45.0804579]},"properties":{"board_type":"board","check_date":"2023-07-07","information":"board","name":"Village étape","tourism":"information"}},
{"type":"Feature","geometry":{"type":"Point","coordinates":[3.1176007,45.0874932]},"properties":{"ele":"1000","information":"guidepost","name":"altitude","tourism":"information"}},
{"type":"Feature","geometry":{"type":"Point","coordinates":[3.1244,45.0931202]},"properties":{"ele":"1050","information":"guidepost","name":"altitude","tourism":"information"}},
{"type":"Feature","geometry":{"type":"Point","coordinates":[3.1302869,45.0991479]},"properties":{"ele":"1100","information":"guidepost","name":"altitude","tourism":"information"}},
{"type":"Feature","geometry":{"type":"Point","coordinates":[3.131912,45.1067434]},"properties":{"ele":"1100","information":"guidepost","name":"altitude","tourism":"information"}},
{"type":"Feature","geometry":{"type":"Point","coordinates":[3.1373118,45.1281351]},"properties":{"ele":"1000","information":"guidepost","name":"altitude","tourism":"information"}},
{"type":"Feature","geometry":{"type":"Point","coordinates":[3.1181482,45.0862316]},"properties":{"tourism":"viewpoint"}},
{"type":"Feature","geometry":{"type":"Point","coordinates":[3.0530377,45.0915785]},"properties":{"ele":"1081.4","name":"Puy de Barre","natural":"peak"}},
{"type":"Feature","geometry":{"type":"Point","coordinates":[3.0726304,45.0886103]},"properties":{"ele":"1053","name":"Puy de Pagros","natural":"peak"}},
{"type":"Feature","geometry":{"type":"Point","coordinates":[2.9866424,45.1065492]},"properties":{"archaeological_site":"megalith","heritage":"3","heritage:operator":"mhs","historic":"archaeological_site","megalith_type":"dolmen","mhs:inscription_date":"1986-02-11","name":"Dolmen de Touls","ref:mhs":"PA00093500","source":"data.gouv.fr:Ministère de la Culture - 08/2011","source:heritage":"Ministère de la Culture - 07/2018","wikidata":"Q22935354","wikipedia":"fr:Dolmen de Touls"}},
{"type":"Feature","geometry":{"type":"Point","coordinates":[3.0165874,45.0954335]},"properties":{"alt_name":"Dolmen du Bardon ou Pierre Chabrée","archaeological_site":"megalith","heritage":"3","heritage:operator":"mhs","historic":"archaeological_site","megalith_type":"dolmen","mhs:inscription_date":"1986-02-11","name":"Dolmen de Bardon","ref:mhs":"PA00093499","source":"data.gouv.fr:Ministère de la Culture - 08/2011","source:heritage":"Ministère de la Culture - 07/2018","wikidata":"Q22935347","wikipedia":"fr:Dolmen du Bardon"}},
{"type":"Feature","geometry":{"type":"Point","coordinates":[2.9849377,45.1435292]},"properties":{"ele":"1006","name":"Rocher de Laval","natural":"volcano","source":"cadastre-dgi-fr source : Direction Générale des Impôts - Cadastre. Mise à jour : 2013","volcano:status":"extinct","volcano:type":"Neck basaltique"}},
{"type":"Feature","geometry":{"type":"Point","coordinates":[3.0889071,45.0348913]},"properties":{"historic":"memorial","memorial":"bust","name":"Monument Georges Pompidou","wikidata":"Q86502258"}},
{"type":"Feature","geometry":{"type":"Point","coordinates":[3.0706403,45.0341712]},"properties":{"leisure":"sauna"}},
{"type":"Feature","geometry":{"type":"Point","coordinates":[3.0704626,45.034219]},"properties":{"leisure":"fitness_centre"}},
{"type":"Feature","geometry":{"type":"Point","coordinates":[3.070607,45.0344651]},"properties":{"entrance":"main"}},
{"type":"Feature","geometry":{"type":"Point","coordinates":[3.0018489,45.1409805]},"properties":{"heritage":"2","heritage:operator":"mhs","historic":"castle","mhs:inscription_date":"1980-12-15","name":"Château de Mardogne","ref:mhs":"PA00093521","ruins":"yes","source":"data.gouv.fr:Ministère de la Culture - 08/2011","source:heritage":"Ministère de la Culture - 07/2018","wikidata":"Q22935386"}},
{"type":"Feature","geometry":{"type":"Point","coordinates":[3.01533,44.9970738]},"properties":{"heritage":"3","heritage:operator":"mhs","historic":"castle","mhs:inscription_date":"2008-04-07","name":"Château des Ternes","ref:mhs":"PA15000041","source":"data.gouv.fr:Ministère de la Culture - 08/2011","source:heritage":"Ministère de la Culture - 07/2018","wikidata":"Q2971563","wikipedia":"fr:Château des Ternes (Les Ternes)"}},
{"type":"Feature","geometry":{"type":"Point","coordinates":[2.9655884,44.9847032]},"properties":{"archaeological_site":"megalith","heritage":"3","heritage:operator":"mhs","historic":"archaeological_site","megalith_type":"dolmen","mhs:inscription_date":"1986-02-11","name":"Dolmen d'Alleuzet","ref:mhs":"PA00093697","source":"data.gouv.fr:Ministère de la Culture - 08/2011","source:heritage":"Ministère de la Culture - 07/2018","wikidata":"Q22936557","wikipedia":"de:Dolmen d'Alleuzet"}},
{"type":"Feature","geometry":{"type":"Point","coordinates":[3.0099552,44.9869698]},"properties":{"archaeological_site":"megalith","heritage":"2","heritage:operator":"mhs","historic":"archaeological_site","megalith_type":"dolmen","mhs:inscription_date":"1911-04-04","name":"Grand dolmen de La Table au Loup ou Table de Maleu","ref:mhs":"PA00093691","source":"data.gouv.fr:Ministère de la Culture - 08/2011","source:heritage":"Ministère de la Culture - 07/2018","wikidata":"Q22936532","wikipedia":"de:Dolmen de la Table du Loup"}},
{"type":"Feature","geometry":{"type":"Point","coordinates":[3.0341573,44.973545]},"properties":{"archaeological_site":"megalith","heritage":"2","heritage:operator":"mhs","historic":"archaeological_site","megalith_type":"menhir","mhs:inscription_date":"1911-04-04","name":"Menhir christianisé de La Croix-Grosse","ref:mhs":"PA00093692","source":"data.gouv.fr:Ministère de la Culture - 08/2011","source:heritage":"Ministère de la Culture - 07/2018","wikidata":"Q22936535","wikipedia":"fr:Croix-Grosse"}},
{"type":"Feature","geometry":{"type":"Point","coordinates":[3.0215873,44.9729568]},"properties":{"archaeological_site":"megalith","heritage":"2","heritage:operator":"mhs","historic":"archaeological_site","megalith_type":"menhir","mhs:inscription_date":"1911-04-04","name":"Menhir de Bargueyrac ou de la Pierre Plantade","ref:mhs":"PA00093693","source":"data.gouv.fr:Ministère de la Culture - 08/2011","source:heritage":"Ministère de la Culture - 07/2018","wikidata":"Q22936541","wikipedia":"fr:Menhir de Bargueyrac"}},
{"type":"Feature","geometry":{"type":"Point","coordinates":[3.0497272,45.1239628]},"properties":{"access":"yes","archaeological_site":"megalith","heritage":"2","heritage:operator":"mhs","historic":"archaeological_site","historic:civilization":"neolithic","megalith_type":"menhir","mhs:inscription_date":"1911-04-04","name":"Menhir phallique dit Pierre Plantade","ref:mhs":"PA00093696","source":"data.gouv.fr:Ministère de la Culture - 08/2011","source:heritage":"Ministère de la Culture - 07/2018","wikidata":"Q22936553"}},
{"type":"Feature","geometry":{"type":"Point","coordinates":[3.0929235,45.0330661]},"properties":{"heritage":"3","heritage:operator":"mhs","historic":"yes","mhs:inscription_date":"1946-10-14","ref:mhs":"PA00093629","source":"data.gouv.fr:Ministère de la Culture - 08/2011","source:heritage":"Ministère de la Culture - 07/2018","wikidata":"Q22935975"}},
{"type":"Feature","geometry":{"type":"Point","coordinates":[3.092371,45.0328581]},"properties":{"amenity":"fountain","heritage":"3","heritage:operator":"mhs","historic":"yes","mhs:inscription_date":"1946-10-14","name":"Fontaine","ref:mhs":"PA00093613","source":"data.gouv.fr:Ministère de la Culture - 08/2011","source:heritage":"Ministère de la Culture - 07/2018","wikidata":"Q22935771"}},
{"type":"Feature","geometry":{"type":"Point","coordinates":[3.0933299,45.0340138]},"properties":{"heritage":"3","heritage:operator":"mhs","historic":"yes","mhs:inscription_date":"1946-10-14","name":"Ancien cloître","ref:mhs":"PA00093610","source":"data.gouv.fr:Ministère de la Culture - 08/2011","source:heritage":"Ministère de la Culture - 07/2018","wikidata":"Q22935732"}},
{"type":"Feature","geometry":{"type":"Point","coordinates":[3.0921006,45.0327613]},"properties":{"heritage":"3","heritage:operator":"mhs","historic":"city_gate","mhs:inscription_date":"1927-05-19","name":"Porte du Thuile","ref:mhs":"PA00093633","source":"data.gouv.fr:Ministère de la Culture - 08/2011","source:heritage":"Ministère de la Culture - 07/2018","wikidata":"Q22936020"}},
{"type":"Feature","geometry":{"type":"Point","coordinates":[2.9568699,44.9369938]},"properties":{"historic":"wayside_cross","name":"calvaire"}},
{"type":"Feature","geometry":{"type":"Point","coordinates":[2.9567055,44.9369661]},"properties":{"historic":"monument","name":"monument"}},
{"type":"Feature","geometry":{"type":"Point","coordinates":[3.0898153,44.9578233]},"properties":{"historic":"wayside_cross","source":"cadastre-dgi-fr source : Direction Générale des Impôts - Cadastre. Mise à jour : 2013"}},
{"type":"Feature","geometry":{"type":"Point","coordinates":[3.0896474,44.9579344]},"properties":{"historic":"wayside_cross","source":"cadastre-dgi-fr source : Direction Générale des Impôts - Cadastre. Mise à jour : 2013"}},
{"type":"Feature","geometry":{"type":"Point","coordinates":[3.0894234,44.9581939]},"properties":{"historic":"wayside_cross","source":"cadastre-dgi-fr source : Direction Générale des Impôts - Cadastre. Mise à jour : 2013"}},
{"type":"Feature","geometry":{"type":"Point","coordinates":[3.0892104,44.9584875]},"properties":{"historic":"wayside_cross","source":"cadastre-dgi-fr source : Direction Générale des Impôts - Cadastre. Mise à jour : 2013"}},
{"type":"Feature","geometry":{"type":"Point","coordinates":[3.0891365,44.9588488]},"properties":{"historic":"wayside_cross","source":"cadastre-dgi-fr source : Direction Générale des Impôts - Cadastre. Mise à jour : 2013"}},
{"type":"Feature","geometry":{"type":"Point","coordinates":[3.0890034,44.9591811]},"properties":{"historic":"wayside_cross","source":"cadastre-dgi-fr source : Direction Générale des Impôts - Cadastre. Mise à jour : 2013"}},
{"type":"Feature","geometry":{"type":"Point","coordinates":[3.0888848,44.9594321]},"properties":{"historic":"wayside_cross","source":"cadastre-dgi-fr source : Direction Générale des Impôts - Cadastre. Mise à jour : 2013"}},
{"type":"Feature","geometry":{"type":"Point","coordinates":[3.0887242,44.9595516]},"properties":{"historic":"wayside_cross","source":"cadastre-dgi-fr source : Direction Générale des Impôts - Cadastre. Mise à jour : 2013"}},
{"type":"Feature","geometry":{"type":"Point","coordinates":[3.08854,44.9597271]},"properties":{"historic":"wayside_cross","source":"cadastre-dgi-fr source : Direction Générale des Impôts - Cadastre. Mise à jour : 2013"}},
{"type":"Feature","geometry":{"type":"Point","coordinates":[3.0883268,44.9599086]},"properties":{"historic":"wayside_cross","source":"cadastre-dgi-fr source : Direction Générale des Impôts - Cadastre. Mise à jour : 2013"}},
{"type":"Feature","geometry":{"type":"Point","coordinates":[3.08805,44.9600971]},"properties":{"historic":"wayside_cross","source":"cadastre-dgi-fr source : Direction Générale des Impôts - Cadastre. Mise à jour : 2013"}},
{"type":"Feature","geometry":{"type":"Point","coordinates":[3.0877496,44.9602928]},"properties":{"historic":"wayside_cross","source":"cadastre-dgi-fr source : Direction Générale des Impôts - Cadastre. Mise à jour : 2013"}},
{"type":"Feature","geometry":{"type":"Point","coordinates":[3.0875577,44.9604505]},"properties":{"historic":"wayside_cross","source":"cadastre-dgi-fr source : Direction Générale des Impôts - Cadastre. Mise à jour : 2013"}},
{"type":"Feature","geometry":{"type":"Point","coordinates":[3.0874072,44.9606132]},"properties":{"historic":"wayside_cross","source":"cadastre-dgi-fr source : Direction Générale des Impôts - Cadastre. Mise à jour : 2013"}},
{"type":"Feature","geometry":{"type":"Point","coordinates":[3.0872511,44.9607642]},"properties":{"historic":"wayside_cross","source":"cadastre-dgi-fr source : Direction Générale des Impôts - Cadastre. Mise à jour : 2013"}},
{"type":"Feature","geometry":{"type":"Point","coordinates":[3.0870787,44.9608985]},"properties":{"historic":"wayside_cross","source":"cadastre-dgi-fr source : Direction Générale des Impôts - Cadastre. Mise à jour : 2013"}},
{"type":"Feature","geometry":{"type":"Point","coordinates":[3.0891359,45.0327206]},"properties":{"name":"Grand Hôtel de l'Europe","operator":"Logis de France","owner":"Christine Giral","ref:FR:SIRET":"38062554100012","rooms":"44","stars":"2","tourism":"hotel"}},
{"type":"Feature","geometry":{"type":"Point","coordinates":[2.9347482,45.1548044]},"properties":{"phone":"+33 4 71 20 03 52","tourism":"chalet"}},
{"type":"Feature","geometry":{"type":"Point","coordinates":[2.935389,45.1546875]},"properties":{"addr:housenumber":"11","addr:street":"Route de Rachaldrat","fee":"yes","name":"Location VTT Assistance Electrique","tourism":"attraction"}},
{"type":"Feature","geometry":{"type":"Point","coordinates":[2.9313848,45.1540321]},"properties":{"historic":"memorial","name":"Monument aux Morts","ref:FR:MemorialGenWeb":"19625"}},
{"type":"Feature","geometry":{"type":"Point","coordinates":[2.9311132,45.1553316]},"properties":{"addr:city":"Chalinargues","addr:housename":"le bourg","addr:postcode":"15170","name":"Auberge de la Pinatelle","operator":"Bruno et Laurent","phone":"+33 4 71 20 15 92","tourism":"hotel"}},
{"type":"Feature","geometry":{"type":"Point","coordinates":[2.9293018,45.1556014]},"properties":{"historic":"wayside_cross"}},
{"type":"Feature","geometry":{"type":"Point","coordinates":[3.0928887,45.0334796]},"properties":{"addr:housenumber":"10","source":"cadastre-dgi-fr source : Direction Générale des Impôts - Cadastre. Mise à jour : 2014"}},
{"type":"Feature","geometry":{"type":"Point","coordinates":[3.0916911,45.0325658]},"properties":{"addr:housenumber":"11","source":"cadastre-dgi-fr source : Direction Générale des Impôts - Cadastre. Mise à jour : 2014"}},
{"type":"Feature","geometry":{"type":"Point","coordinates":[3.0927964,45.0334469]},"properties":{"addr:housenumber":"12","source":"cadastre-dgi-fr source : Direction Générale des Impôts - Cadastre. Mise à jour : 2014"}},
{"type":"Feature","geometry":{"type":"Point","coordinates":[3.0927077,45.0334432]},"properties":{"addr:housenumber":"14","source":"cadastre-dgi-fr source : Direction Générale des Impôts - Cadastre. Mise à jour : 2014"}},
{"type":"Feature","geometry":{"type":"Point","coordinates":[3.0937473,45.0333212]},"properties":{"addr:housenumber":"15","source":"cadastre-dgi-fr source : Direction Générale des Impôts - Cadastre. Mise à jour : 2014"}},
{"type":"Feature","geometry":{"type":"Point","coordinates":[3.0926233,45.0334464]},"properties":{"addr:housenumber":"16","source":"cadastre-dgi-fr source : Direction Générale des Impôts - Cadastre. Mise à jour : 2014"}},
{"type":"Feature","geometry":{"type":"Point","coordinates":[3.0950823,45.0340157]},"properties":{"addr:housenumber":"17","source":"cadastre-dgi-fr source : Direction Générale des Impôts - Cadastre. Mise à jour : 2014"}},
{"type":"Feature","geometry":{"type":"Point","coordinates":[3.0937047,45.0334147]},"properties":{"addr:housenumber":"18","source":"cadastre-dgi-fr source : Direction Générale des Impôts - Cadastre. Mise à jour : 2014"}},
{"type":"Feature","geometry":{"type":"Point","coordinates":[3.0925685,45.0334485]},"properties":{"addr:housenumber":"18","source":"cadastre-dgi-fr source : Direction Générale des Impôts - Cadastre. Mise à jour : 2014"}},
{"type":"Feature","geometry":{"type":"Point","coordinates":[3.0944756,45.0335417]},"properties":{"addr:housenumber":"2","source":"cadastre-dgi-fr source : Direction Générale des Impôts - Cadastre. Mise à jour : 2014"}},
{"type":"Feature","geometry":{"type":"Point","coordinates":[3.0930069,45.0331141]},"properties":{"addr:housenumber":"31","source":"cadastre-dgi-fr source : Direction Générale des Impôts - Cadastre. Mise à jour : 2014"}},
{"type":"Feature","geometry":{"type":"Point","coordinates":[3.0925897,45.0343342]},"properties":{"addr:housenumber":"35","source":"cadastre-dgi-fr source : Direction Générale des Impôts - Cadastre. Mise à jour : 2014"}},
{"type":"Feature","geometry":{"type":"Point","coordinates":[3.0944488,45.0332748]},"properties":{"addr:housenumber":"5","source":"cadastre-dgi-fr source : Direction Générale des Impôts - Cadastre. Mise à jour : 2014"}},
{"type":"Feature","geometry":{"type":"Point","coordinates":[2.9769387,45.1254441]},"properties":{"addr:city":"Neussargues-Moissac","addr:housenumber":"25","addr:street":"Rue de la Gare","source":"cadastre-dgi-fr source : Direction Générale des Finances Publiques - Cadastre. Mise à jour : 2014"}},
{"type":"Feature","geometry":{"type":"Point","coordinates":[2.9428342,45.1253952]},"properties":{"leisure":"picnic_table"}},
{"type":"Feature","geometry":{"type":"Point","coordinates":[2.9438746,45.1255338]},"properties":{"leisure":"picnic_table"}},
{"type":"Feature","geometry":{"type":"Point","coordinates":[3.0191279,45.1522753]},"properties":{"leisure":"picnic_table"}},
{"type":"Feature","geometry":{"type":"Point","coordinates":[3.1044751,45.0345901]},"properties":{"name":"Hôtel des Messageries","phone":"+33 4 71 60 11 36","tourism":"hotel","website":"https://www.hotel-messageries.com/"}},
{"type":"Feature","geometry":{"type":"Point","coordinates":[3.0998436,45.0343036]},"properties":{"addr:city":"Saint-Flour","addr:housenumber":"6","addr:postcode":"15100","addr:street":"Avenue du Commandant Delorme","fax":"+33 4 71 60 46 40","name":"Hôtel de l'Ander","phone":"+33 4 71 60 21 63","source":"Comité Régional de Développement touristique d’Auvergne","tourism":"hotel","website":"www.hotel-ander.com"}},
{"type":"Feature","geometry":{"type":"Point","coordinates":[2.9330218,45.0528033]},"properties":{"tourism":"picnic_site"}},
{"type":"Feature","geometry":{"type":"Point","coordinates":[2.9337826,45.0533097]},"properties":{"historic":"memorial","memorial":"war_memorial","memorial:conflict":"WW1","name":"Monument aux Morts section de Lescure","ref:FR:MemorialGenWeb":"32651"}},
{"type":"Feature","geometry":{"type":"Point","coordinates":[2.9791867,44.9241261]},"properties":{"entrance":"main"}},
{"type":"Feature","geometry":{"type":"Point","coordinates":[3.050977,45.1211507]},"properties":{"name":"Sagne Redonde","natural":"saddle","source":"IGN - 2024-03-15"}},
{"type":"Feature","geometry":{"type":"Point","coordinates":[3.0215832,44.9903376]},"properties":{"archaeological_site":"megalith","historic":"archaeological_site","megalith_type":"dolmen","name":"Dolmen du Bois Grand","source":"www.megalitos.es"}},
{"type":"Feature","geometry":{"type":"Point","coordinates":[3.1151564,45.0433094]},"properties":{"alt_name":"Dolmen de Mons","archaeological_site":"megalith","heritage":"2","heritage:operator":"mhs","historic":"archaeological_site","megalith_type":"dolmen","mhs:inscription_date":"1980-05-22","name":"Dolmen de Chausse","ref:mhs":"PA00093639","source":"www.megalitos.es","wikidata":"Q22936048","wikipedia":"fr:Dolmen de Mons"}},
{"type":"Feature","geometry":{"type":"Point","coordinates":[2.965593,45.1338163]},"properties":{"name":"Grottes de Cuzers","natural":"cave_entrance"}},
{"type":"Feature","geometry":{"type":"Point","coordinates":[3.0955467,45.0339927]},"properties":{"tourism":"viewpoint"}},
{"type":"Feature","geometry":{"type":"Point","coordinates":[3.0152597,44.9968717]},"properties":{"tourism":"picnic_site"}},
{"type":"Feature","geometry":{"type":"Point","coordinates":[3.0792818,44.9261836]},"properties":{"email":"gitegrandval@orange.fr","name":"Grand Val","phone":"+33 4 71 23 83 26","tourism":"guest_house","website":"https://www.le-gite-du-cantal.com/","wheelchair":"no"}},
{"type":"Feature","geometry":{"type":"Point","coordinates":[2.9347137,45.0525296]},"properties":{"historic":"wayside_cross"}},
{"type":"Feature","geometry":{"type":"Point","coordinates":[2.9345909,45.0526234]},"properties":{"entrance":"main"}},
{"type":"Feature","geometry":{"type":"Point","coordinates":[3.0323681,45.0448232]},"properties":{"archaeological_site":"megalith","historic":"archaeological_site","megalith_type":"dolmen","name":"Dolmen de Védernat","wikidata":"Q51076231"}},
{"type":"Feature","geometry":{"type":"Point","coordinates":[3.0848789,45.0384555]},"properties":{"historic":"wayside_cross","source":"©IGN 2010 dans le cadre de la cartographie réglementaire"}},
{"type":"Feature","geometry":{"type":"Point","coordinates":[2.9887031,45.093117]},"properties":{"historic":"wayside_cross","source":"©IGN 2010 dans le cadre de la cartographie réglementaire"}},
{"type":"Feature","geometry":{"type":"Point","coordinates":[2.9749604,45.125639]},"properties":{"name":"Hôtel des voyageurs","tourism":"hotel"}},
{"type":"Feature","geometry":{"type":"Point","coordinates":[2.9776765,45.1256482]},"properties":{"historic":"memorial","memorial":"war_memorial","ref:FR:MemorialGenWeb":"22946","survey:date":"2023-10-21"}},
{"type":"Feature","geometry":{"type":"Point","coordinates":[3.0420719,45.0305977]},"properties":{"name":"Gïte Bon Air","tourism":"chalet"}},
{"type":"Feature","geometry":{"type":"Point","coordinates":[3.0431641,45.0707744]},"properties":{"height":"25","name":"Cascade de Babory","waterway":"waterfall"}},
{"type":"Feature","geometry":{"type":"Point","coordinates":[2.940542,45.0952109]},"properties":{"denomination":"catholic","historic":"wayside_cross","religion":"christian"}},
{"type":"Feature","geometry":{"type":"Point","coordinates":[3.1077737,45.05037]},"properties":{"barrier":"lift_gate"}},
{"type":"Feature","geometry":{"type":"Point","coordinates":[3.0770494,44.9237745]},"properties":{"tourism":"viewpoint"}},
{"type":"Feature","geometry":{"type":"Point","coordinates":[3.0909072,44.9562148]},"properties":{"entrance":"yes"}},
{"type":"Feature","geometry":{"type":"Point","coordinates":[3.015884,44.9969485]},"properties":{"historic":"memorial","memorial":"war_memorial","ref:FR:MemorialGenWeb":"12924"}},
{"type":"Feature","geometry":{"type":"Point","coordinates":[3.0898123,45.032833]},"properties":{"amenity":"restaurant","fax":"+33471600349","name":"Les Iles du Cantal","phone":"+33 4 71 60 76 70","ref:FR:SIRET":"42435714300017","source":"Comité Régional de Développement touristique d’Auvergne","tourism":"hotel"}},
{"type":"Feature","geometry":{"type":"Point","coordinates":[3.0917723,45.0340542]},"properties":{"name":"Hôtel des Voyageurs","ref:FR:SIRET":"31700161800014","source":"Base Sirene - 2017","tourism":"hotel"}},
{"type":"Feature","geometry":{"type":"Point","coordinates":[3.0899484,45.0329581]},"properties":{"name":"Le France","ref:FR:SIRET":"43782739700013","source":"Base Sirene - 2017","tourism":"hotel"}},
{"type":"Feature","geometry":{"type":"Point","coordinates":[3.090409,45.0329994]},"properties":{"name":"Hôtel du Nord","phone":"+33 4 71 60 28 00","ref:FR:SIRET":"33119509900014","source":"Base Sirene - 2017","stars":"2","tourism":"hotel","website":"https://www.hoteldunord-saintflour.com/"}},
{"type":"Feature","geometry":{"type":"Point","coordinates":[3.101212,45.0340219]},"properties":{"addr:housenumber":"35","addr:postcode":"15100","addr:street":"Place de la Liberté","information":"office","name":"Office du Tourisme","tourism":"information"}},
{"type":"Feature","geometry":{"type":"Point","coordinates":[3.062156,45.0600571]},"properties":{"heritage":"3","heritage:operator":"mhs","historic":"wayside_cross","mhs:inscription_date":"1971-05-18","name":"Croix de chemin à l'effigie de Notre-Dame-de-Pitié","ref:mhs":"PA00093436","source:heritage":"data.gouv.fr, Ministère de la Culture - 2016","start_date":"C16","wikidata":"Q22935247"}},
{"type":"Feature","geometry":{"type":"Point","coordinates":[3.1149258,45.0442823]},"properties":{"heritage":"3","heritage:operator":"mhs","historic":"archaeological_site","mhs:inscription_date":"2010-09-21","name":"Tumuli de La Chau","ref:mhs":"PA00093640","source:heritage":"data.gouv.fr, Ministère de la Culture - 2016","wikidata":"Q22936057","wikipedia":"fr:Tumuli de Chausse"}},
{"type":"Feature","geometry":{"type":"Point","coordinates":[3.0132305,45.1421207]},"properties":{"name":"La Jaulipière","tourism":"apartment","website":"https://www.lajaulipiere.com/"}},
{"type":"Feature","geometry":{"type":"Point","coordinates":[2.9347444,45.1543805]},"properties":{"natural":"tree"}},
{"type":"Feature","geometry":{"type":"Point","coordinates":[2.9346706,45.1545545]},"properties":{"natural":"tree"}},
{"type":"Feature","geometry":{"type":"Point","coordinates":[2.9346398,45.1545044]},"properties":{"natural":"tree"}},
{"type":"Feature","geometry":{"type":"Point","coordinates":[2.9346035,45.1544174]},"properties":{"natural":"tree"}},
{"type":"Feature","geometry":{"type":"Point","coordinates":[2.9362719,45.1540362]},"properties":{"natural":"tree"}},
{"type":"Feature","geometry":{"type":"Point","coordinates":[2.9353908,45.1541393]},"properties":{"natural":"tree"}},
{"type":"Feature","geometry":{"type":"Point","coordinates":[2.9354672,45.154006]},"properties":{"natural":"tree"}},
{"type":"Feature","geometry":{"type":"Point","coordinates":[2.9357797,45.154284]},"properties":{"natural":"tree"}},
{"type":"Feature","geometry":{"type":"Point","coordinates":[2.9359433,45.1541554]},"properties":{"natural":"tree"}},
{"type":"Feature","geometry":{"type":"Point","coordinates":[2.9358521,45.1541062]},"properties":{"natural":"tree"}},
{"type":"Feature","geometry":{"type":"Point","coordinates":[2.9363671,45.1541365]},"properties":{"natural":"tree"}},
{"type":"Feature","geometry":{"type":"Point","coordinates":[2.9364771,45.1541611]},"properties":{"natural":"tree"}},
{"type":"Feature","geometry":{"type":"Point","coordinates":[2.9361767,45.1544959]},"properties":{"natural":"tree"}},
{"type":"Feature","geometry":{"type":"Point","coordinates":[2.9362142,45.1544354]},"properties":{"natural":"tree"}},
{"type":"Feature","geometry":{"type":"Point","coordinates":[2.9362383,45.154354]},"properties":{"natural":"tree"}},
{"type":"Feature","geometry":{"type":"Point","coordinates":[2.9362705,45.1542821]},"properties":{"natural":"tree"}},
{"type":"Feature","geometry":{"type":"Point","coordinates":[2.9362598,45.1541876]},"properties":{"natural":"tree"}},
{"type":"Feature","geometry":{"type":"Point","coordinates":[2.9359326,45.1545233]},"properties":{"natural":"tree"}},
{"type":"Feature","geometry":{"type":"Point","coordinates":[2.9357944,45.1545167]},"properties":{"natural":"tree"}},
{"type":"Feature","geometry":{"type":"Point","coordinates":[2.9357395,45.1544183]},"properties":{"natural":"tree"}},
{"type":"Feature","geometry":{"type":"Point","coordinates":[2.9356858,45.1544855]},"properties":{"natural":"tree"}},
{"type":"Feature","geometry":{"type":"Point","coordinates":[2.9355209,45.1544439]},"properties":{"natural":"tree"}},
{"type":"Feature","geometry":{"type":"Point","coordinates":[2.9356228,45.1545838]},"properties":{"natural":"tree"}},
{"type":"Feature","geometry":{"type":"Point","coordinates":[2.9354994,45.1545668]},"properties":{"natural":"tree"}},
{"type":"Feature","geometry":{"type":"Point","coordinates":[2.9353559,45.1545555]},"properties":{"natural":"tree"}},
{"type":"Feature","geometry":{"type":"Point","coordinates":[2.9355517,45.1543625]},"properties":{"natural":"tree"}},
{"type":"Feature","geometry":{"type":"Point","coordinates":[2.935427,45.1543975]},"properties":{"natural":"tree"}},
{"type":"Feature","geometry":{"type":"Point","coordinates":[2.9349831,45.1548174]},"properties":{"natural":"tree"}},
{"type":"Feature","geometry":{"type":"Point","coordinates":[2.9351749,45.1546926]},"properties":{"natural":"tree"}},
{"type":"Feature","geometry":{"type":"Point","coordinates":[2.935022,45.1547342]},"properties":{"natural":"tree"}},
{"type":"Feature","geometry":{"type":"Point","coordinates":[2.9351185,45.1545687]},"properties":{"natural":"tree"}},
{"type":"Feature","geometry":{"type":"Point","coordinates":[2.9351279,45.1544911]},"properties":{"natural":"tree"}},
{"type":"Feature","geometry":{"type":"Point","coordinates":[2.9350394,45.1545148]},"properties":{"natural":"tree"}},
{"type":"Feature","geometry":{"type":"Point","coordinates":[2.9351024,45.1543285]},"properties":{"natural":"tree"}},
{"type":"Feature","geometry":{"type":"Point","coordinates":[2.934684,45.1542557]},"properties":{"natural":"tree"}},
{"type":"Feature","geometry":{"type":"Point","coordinates":[2.9345539,45.1542367]},"properties":{"natural":"tree"}},
{"type":"Feature","geometry":{"type":"Point","coordinates":[2.9348999,45.1543077]},"properties":{"natural":"tree"}},
{"type":"Feature","geometry":{"type":"Point","coordinates":[2.9347926,45.1542954]},"properties":{"natural":"tree"}},
{"type":"Feature","geometry":{"type":"Point","coordinates":[2.9346304,45.1541895]},"properties":{"natural":"tree"}},
{"type":"Feature","geometry":{"type":"Point","coordinates":[2.9345405,45.1541828]},"properties":{"natural":"tree"}},
{"type":"Feature","geometry":{"type":"Point","coordinates":[2.9344627,45.1541734]},"properties":{"natural":"tree"}},
{"type":"Feature","geometry":{"type":"Point","coordinates":[2.9343729,45.1541668]},"properties":{"natural":"tree"}},
{"type":"Feature","geometry":{"type":"Point","coordinates":[2.9339679,45.1543654]},"properties":{"natural":"tree"}},
{"type":"Feature","geometry":{"type":"Point","coordinates":[2.933929,45.1543966]},"properties":{"natural":"tree"}},
{"type":"Feature","geometry":{"type":"Point","coordinates":[2.9338981,45.1543569]},"properties":{"natural":"tree"}},
{"type":"Feature","geometry":{"type":"Point","coordinates":[2.9338485,45.1560856]},"properties":{"natural":"tree"}},
{"type":"Feature","geometry":{"type":"Point","coordinates":[2.9338968,45.1561377]},"properties":{"natural":"tree"}},
{"type":"Feature","geometry":{"type":"Point","coordinates":[2.9339705,45.1561604]},"properties":{"natural":"tree"}},
{"type":"Feature","geometry":{"type":"Point","coordinates":[2.9348932,45.1550529]},"properties":{"natural":"tree"}},
{"type":"Feature","geometry":{"type":"Point","coordinates":[2.9342924,45.1556251]},"properties":{"natural":"tree"}},
{"type":"Feature","geometry":{"type":"Point","coordinates":[2.9344493,45.1554898]},"properties":{"natural":"tree"}},
{"type":"Feature","geometry":{"type":"Point","coordinates":[2.9348221,45.1554927]},"properties":{"natural":"tree"}},
{"type":"Feature","geometry":{"type":"Point","coordinates":[2.9348463,45.1556724]},"properties":{"natural":"tree"}},
{"type":"Feature","geometry":{"type":"Point","coordinates":[2.934735,45.1557225]},"properties":{"natural":"tree"}},
{"type":"Feature","geometry":{"type":"Point","coordinates":[2.9344855,45.1557215]},"properties":{"natural":"tree"}},
{"type":"Feature","geometry":{"type":"Point","coordinates":[2.934503,45.1557537]},"properties":{"natural":"tree"}},
{"type":"Feature","geometry":{"type":"Point","coordinates":[2.9345338,45.1557953]},"properties":{"natural":"tree"}},
{"type":"Feature","geometry":{"type":"Point","coordinates":[2.9346035,45.1557698]},"properties":{"natural":"tree"}},
{"type":"Feature","geometry":{"type":"Point","coordinates":[2.9344507,45.1559797]},"properties":{"natural":"tree"}},
{"type":"Feature","geometry":{"type":"Point","coordinates":[2.9340336,45.1557348]},"properties":{"natural":"tree"}},
{"type":"Feature","geometry":{"type":"Point","coordinates":[2.9339437,45.1558549]},"properties":{"natural":"tree"}},
{"type":"Feature","geometry":{"type":"Point","coordinates":[2.9338485,45.1559107]},"properties":{"natural":"tree"}},
{"type":"Feature","geometry":{"type":"Point","coordinates":[2.9337023,45.1558369]},"properties":{"natural":"tree"}},
{"type":"Feature","geometry":{"type":"Point","coordinates":[2.9335012,45.155941]},"properties":{"natural":"tree"}},
{"type":"Feature","geometry":{"type":"Point","coordinates":[2.9335494,45.1562275]},"properties":{"natural":"tree"}},
{"type":"Feature","geometry":{"type":"Point","coordinates":[2.9335695,45.1561679]},"properties":{"natural":"tree"}},
{"type":"Feature","geometry":{"type":"Point","coordinates":[2.9327139,45.1559665]},"properties":{"natural":"tree"}},
{"type":"Feature","geometry":{"type":"Point","coordinates":[2.9327863,45.15594]},"properties":{"natural":"tree"}},
{"type":"Feature","geometry":{"type":"Point","coordinates":[2.9328427,45.1559249]},"properties":{"natural":"tree"}},
{"type":"Feature","geometry":{"type":"Point","coordinates":[2.9329218,45.1558937]},"properties":{"natural":"tree"}},
{"type":"Feature","geometry":{"type":"Point","coordinates":[2.9326804,45.1558313]},"properties":{"natural":"tree"}},
{"type":"Feature","geometry":{"type":"Point","coordinates":[2.932848,45.1557556]},"properties":{"natural":"tree"}},
{"type":"Feature","geometry":{"type":"Point","coordinates":[2.9327448,45.1557603]},"properties":{"natural":"tree"}},
{"type":"Feature","geometry":{"type":"Point","coordinates":[2.9327555,45.1556298]},"properties":{"natural":"tree"}},
{"type":"Feature","geometry":{"type":"Point","coordinates":[2.9328668,45.1555135]},"properties":{"natural":"tree"}},
{"type":"Feature","geometry":{"type":"Point","coordinates":[2.9327823,45.1555173]},"properties":{"natural":"tree"}},
{"type":"Feature","geometry":{"type":"Point","coordinates":[2.9327086,45.1555277]},"properties":{"natural":"tree"}},
{"type":"Feature","geometry":{"type":"Point","coordinates":[2.9327233,45.1554577]},"properties":{"natural":"tree"}},
{"type":"Feature","geometry":{"type":"Point","coordinates":[2.9327998,45.155453]},"properties":{"natural":"tree"}},
{"type":"Feature","geometry":{"type":"Point","coordinates":[2.933072,45.1553102]},"properties":{"natural":"tree"}},
{"type":"Feature","geometry":{"type":"Point","coordinates":[2.9329446,45.1551815]},"properties":{"natural":"tree"}},
{"type":"Feature","geometry":{"type":"Point","coordinates":[2.9327729,45.1551806]},"properties":{"natural":"tree"}},
{"type":"Feature","geometry":{"type":"Point","coordinates":[2.933135,45.1548846]},"properties":{"natural":"tree"}},
{"type":"Feature","geometry":{"type":"Point","coordinates":[2.9327703,45.1547815]},"properties":{"natural":"tree"}},
{"type":"Feature","geometry":{"type":"Point","coordinates":[2.933021,45.1546756]},"properties":{"natural":"tree"}},
{"type":"Feature","geometry":{"type":"Point","coordinates":[2.9330519,45.1548108]},"properties":{"natural":"tree"}},
{"type":"Feature","geometry":{"type":"Point","coordinates":[2.9330251,45.1550274]},"properties":{"natural":"tree"}},
{"type":"Feature","geometry":{"type":"Point","coordinates":[2.9334167,45.1549309]},"properties":{"natural":"tree"}},
{"type":"Feature","geometry":{"type":"Point","coordinates":[2.9331256,45.1546396]},"properties":{"natural":"tree"}},
{"type":"Feature","geometry":{"type":"Point","coordinates":[2.9333711,45.154651]},"properties":{"natural":"tree"}},
{"type":"Feature","geometry":{"type":"Point","coordinates":[2.9334448,45.155069]},"properties":{"natural":"tree"}},
{"type":"Feature","geometry":{"type":"Point","coordinates":[2.9337211,45.1549234]},"properties":{"natural":"tree"}},
{"type":"Feature","geometry":{"type":"Point","coordinates":[2.9339518,45.1548467]},"properties":{"natural":"tree"}},
{"type":"Feature","geometry":{"type":"Point","coordinates":[2.9338981,45.1547938]},"properties":{"natural":"tree"}},
{"type":"Feature","geometry":{"type":"Point","coordinates":[2.9338552,45.1547276]},"properties":{"natural":"tree"}},
{"type":"Feature","geometry":{"type":"Point","coordinates":[2.9338297,45.1546737]},"properties":{"natural":"tree"}},
{"type":"Feature","geometry":{"type":"Point","coordinates":[2.9337439,45.1546425]},"properties":{"natural":"tree"}},
{"type":"Feature","geometry":{"type":"Point","coordinates":[2.9341556,45.1544344]},"properties":{"natural":"tree"}},
{"type":"Feature","geometry":{"type":"Point","coordinates":[2.9345204,45.1543455]},"properties":{"natural":"tree"}},
{"type":"Feature","geometry":{"type":"Point","coordinates":[2.9344024,45.1543597]},"properties":{"natural":"tree"}},
{"type":"Feature","geometry":{"type":"Point","coordinates":[2.9342428,45.1544117]},"properties":{"natural":"tree"}},
{"type":"Feature","geometry":{"type":"Point","coordinates":[2.9341798,45.154581]},"properties":{"natural":"tree"}},
{"type":"Feature","geometry":{"type":"Point","coordinates":[2.9344051,45.154493]},"properties":{"natural":"tree"}},
{"type":"Feature","geometry":{"type":"Point","coordinates":[2.934676,45.1546406]},"properties":{"natural":"tree"}},
{"type":"Feature","geometry":{"type":"Point","coordinates":[2.9342709,45.1548326]},"properties":{"natural":"tree"}},
{"type":"Feature","geometry":{"type":"Point","coordinates":[2.934173,45.1548562]},"properties":{"natural":"tree"}},
{"type":"Feature","geometry":{"type":"Point","coordinates":[2.9339303,45.1549252]},"properties":{"natural":"tree"}},
{"type":"Feature","geometry":{"type":"Point","coordinates":[2.9340255,45.1549063]},"properties":{"natural":"tree"}},
{"type":"Feature","geometry":{"type":"Point","coordinates":[2.9339933,45.1549829]},"properties":{"natural":"tree"}},
{"type":"Feature","geometry":{"type":"Point","coordinates":[2.9347926,45.1550359]},"properties":{"natural":"tree"}},
{"type":"Feature","geometry":{"type":"Point","coordinates":[2.9345204,45.1554558]},"properties":{"natural":"tree"}},
{"type":"Feature","geometry":{"type":"Point","coordinates":[2.9344144,45.1553026]},"properties":{"natural":"tree"}},
{"type":"Feature","geometry":{"type":"Point","coordinates":[2.9343769,45.1552544]},"properties":{"natural":"tree"}},
{"type":"Feature","geometry":{"type":"Point","coordinates":[2.9342991,45.1550283]},"properties":{"natural":"tree"}},
{"type":"Feature","geometry":{"type":"Point","coordinates":[2.9340751,45.1550208]},"properties":{"natural":"tree"}},
{"type":"Feature","geometry":{"type":"Point","coordinates":[2.9340751,45.1550709]},"properties":{"natural":"tree"}},
{"type":"Feature","geometry":{"type":"Point","coordinates":[2.9341502,45.1551116]},"properties":{"natural":"tree"}},
{"type":"Feature","geometry":{"type":"Point","coordinates":[2.934228,45.1551125]},"properties":{"natural":"tree"}},
{"type":"Feature","geometry":{"type":"Point","coordinates":[2.934169,45.1554236]},"properties":{"natural":"tree"}},
{"type":"Feature","geometry":{"type":"Point","coordinates":[3.0948209,45.0337593]},"properties":{"historic":"memorial","memorial":"war_memorial","ref:FR:MemorialGenWeb":"14612"}},
{"type":"Feature","geometry":{"type":"Point","coordinates":[2.9875568,45.0917379]},"properties":{"leisure":"picnic_table"}},
{"type":"Feature","geometry":{"type":"Point","coordinates":[2.9880431,45.0915321]},"properties":{"leisure":"picnic_table"}},
{"type":"Feature","geometry":{"type":"Point","coordinates":[2.9884088,45.0915058]},"properties":{"leisure":"picnic_table"}},
{"type":"Feature","geometry":{"type":"Point","coordinates":[2.9881622,45.0915195]},"properties":{"leisure":"playground"}},
{"type":"Feature","geometry":{"type":"Point","coordinates":[2.9893842,45.0928396]},"properties":{"contact:facebook":"https://www.facebook.com/museedelagriculture.coltines","description":"Maison de l'agriculture Auvergnate","email":"contact@coltines-musee.com;musee@coltines.com","name":"L'ostal de la Marissou","opening_hours":"Mo-Sa 09:30-12:30,14:00-17:30; Su 14:00-17:30","phone":"+33 4 71 73 27 30","tourism":"museum","website":"https://www.coltines-musee.com/"}},
{"type":"Feature","geometry":{"type":"Point","coordinates":[2.9903502,45.0918707]},"properties":{"leisure":"picnic_table"}},
{"type":"Feature","geometry":{"type":"Point","coordinates":[2.9902688,45.0917982]},"properties":{"leisure":"picnic_table"}},
{"type":"Feature","geometry":{"type":"Point","coordinates":[3.0391525,45.0518026]},"properties":{"leisure":"picnic_table"}},
{"type":"Feature","geometry":{"type":"Point","coordinates":[2.9886429,45.0933187]},"properties":{"entrance":"yes"}},
{"type":"Feature","geometry":{"type":"Point","coordinates":[2.9813142,44.9277595]},"properties":{"historic":"wayside_shrine"}},
{"type":"Feature","geometry":{"type":"Point","coordinates":[2.9694293,44.9329112]},"properties":{"historic":"wayside_shrine"}},
{"type":"Feature","geometry":{"type":"Point","coordinates":[2.9549977,44.936648]},"properties":{"leisure":"picnic_table"}},
{"type":"Feature","geometry":{"type":"Point","coordinates":[2.9552566,44.9369366]},"properties":{"historic":"wayside_cross"}},
{"type":"Feature","geometry":{"type":"Point","coordinates":[2.9558909,44.9368626]},"properties":{"historic":"wayside_shrine"}},
{"type":"Feature","geometry":{"type":"Point","coordinates":[2.957747,44.938148]},"properties":{"historic":"wayside_shrine"}},
{"type":"Feature","geometry":{"type":"Point","coordinates":[2.9629572,44.9437724]},"properties":{"historic":"wayside_shrine"}},
{"type":"Feature","geometry":{"type":"Point","coordinates":[2.9507934,44.9482413]},"properties":{"historic":"wayside_cross"}},
{"type":"Feature","geometry":{"type":"Point","coordinates":[2.9448013,44.9582654]},"properties":{"historic":"wayside_shrine","religion":"christian"}},
{"type":"Feature","geometry":{"type":"Point","coordinates":[2.9711325,44.9645674]},"properties":{"historic":"wayside_cross"}},
{"type":"Feature","geometry":{"type":"Point","coordinates":[2.9842418,44.9280187]},"properties":{"historic":"memorial","memorial":"war_memorial","ref:FR:MemorialGenWeb":"12929"}},
{"type":"Feature","geometry":{"type":"Point","coordinates":[2.9817045,44.930249]},"properties":{"historic":"wayside_cross"}},
{"type":"Feature","geometry":{"type":"Point","coordinates":[2.9820974,44.9508998]},"properties":{"historic":"wayside_cross"}},
{"type":"Feature","geometry":{"type":"Point","coordinates":[3.0401243,44.9763381]},"properties":{"historic":"memorial","memorial":"war_memorial","ref:FR:MemorialGenWeb":"32653"}},
{"type":"Feature","geometry":{"type":"Point","coordinates":[3.0399004,44.976358]},"properties":{"description":"Randonnée: La Table du Loup, VTT: Entre Curiosités et Légendes","information":"board","tourism":"information"}},
{"type":"Feature","geometry":{"type":"Point","coordinates":[3.0404006,44.9760914]},"properties":{"historic":"wayside_cross"}},
{"type":"Feature","geometry":{"type":"Point","coordinates":[3.0126102,44.9825896]},"properties":{"description":"Accès au Dolmen de la Table du Loup","information":"board","tourism":"information"}},
{"type":"Feature","geometry":{"type":"Point","coordinates":[3.0052489,44.9803101]},"properties":{"description":"Menhir de la Pierre Plantade","information":"board","tourism":"information"}},
{"type":"Feature","geometry":{"type":"Point","coordinates":[3.0052462,44.9803519]},"properties":{"archaeological_site":"megalith","historic":"archaeological_site","megalith_type":"menhir","name":"Menhir de la Pierre Plantade"}},
{"type":"Feature","geometry":{"type":"Point","coordinates":[3.0186452,44.9868762]},"properties":{"historic":"wayside_cross"}},
{"type":"Feature","geometry":{"type":"Point","coordinates":[3.0246118,44.9812616]},"properties":{"historic":"memorial","memorial":"war_memorial","ref:FR:MemorialGenWeb":"47888","source":"IGN - 2022-06"}},
{"type":"Feature","geometry":{"type":"Point","coordinates":[3.0100635,44.9869767]},"properties":{"description":"Le Dolmen de la Table du Loup à Sériers","information":"board","tourism":"information"}},
{"type":"Feature","geometry":{"type":"Point","coordinates":[3.0403899,44.9767783]},"properties":{"historic":"wayside_cross"}},
{"type":"Feature","geometry":{"type":"Point","coordinates":[2.9297286,44.9852608]},"properties":{"historic":"wayside_shrine"}},
{"type":"Feature","geometry":{"type":"Point","coordinates":[2.9312602,44.9843056]},"properties":{"description":"Randonnées: Le Chemin de la Narse - La Narse de Lascols","information":"board","tourism":"information"}},
{"type":"Feature","geometry":{"type":"Point","coordinates":[2.931409,44.9838958]},"properties":{"leisure":"picnic_table"}},
{"type":"Feature","geometry":{"type":"Point","coordinates":[2.9150838,44.9980202]},"properties":{"description":"Sarcophage Roman","historic":"tomb","name":"Tombe de la Dame"}},
{"type":"Feature","geometry":{"type":"Point","coordinates":[2.9153936,44.9980212]},"properties":{"leisure":"picnic_table"}},
{"type":"Feature","geometry":{"type":"Point","coordinates":[2.9281622,45.0019386]},"properties":{"leisure":"picnic_table"}},
{"type":"Feature","geometry":{"type":"Point","coordinates":[2.928299,45.0019092]},"properties":{"historic":"wayside_cross"}},
{"type":"Feature","geometry":{"type":"Point","coordinates":[2.9324484,44.982953]},"properties":{"historic":"memorial","memorial":"war_memorial","ref:FR:MemorialGenWeb":"32649"}},
{"type":"Feature","geometry":{"type":"Point","coordinates":[2.9349603,44.9847078]},"properties":{"historic":"wayside_shrine"}},
{"type":"Feature","geometry":{"type":"Point","coordinates":[2.9481447,44.9931674]},"properties":{"historic":"wayside_cross"}},
{"type":"Feature","geometry":{"type":"Point","coordinates":[2.9495837,44.994737]},"properties":{"historic":"wayside_cross"}},
{"type":"Feature","geometry":{"type":"Point","coordinates":[2.9496829,44.9953401]},"properties":{"leisure":"picnic_table"}},
{"type":"Feature","geometry":{"type":"Point","coordinates":[2.9496789,44.9952956]},"properties":{"historic":"wayside_cross"}},
{"type":"Feature","geometry":{"type":"Point","coordinates":[3.0415043,44.9343287]},"properties":{"description":"Randonnée: Le Barrage de Grandval","information":"board","tourism":"information"}},
{"type":"Feature","geometry":{"type":"Point","coordinates":[3.0415016,44.9340942]},"properties":{"leisure":"picnic_table"}},
{"type":"Feature","geometry":{"type":"Point","coordinates":[3.0412951,44.9341046]},"properties":{"historic":"memorial","memorial":"war_memorial","name":"Monument aux Morts","ref:FR:MemorialGenWeb":"32652"}},
{"type":"Feature","geometry":{"type":"Point","coordinates":[3.0494396,44.9337942]},"properties":{"historic":"wayside_cross"}},
{"type":"Feature","geometry":{"type":"Point","coordinates":[3.0421776,44.934267]},"properties":{"leisure":"picnic_table"}},
{"type":"Feature","geometry":{"type":"Point","coordinates":[2.9693489,44.9901456]},"properties":{"description":"Accès au Dolmen d'Alleuzet","information":"board","tourism":"information"}},
{"type":"Feature","geometry":{"type":"Point","coordinates":[3.015275,44.9935249]},"properties":{"description":"Accès au Site Fortifié du Bois Jura","information":"board","tourism":"information"}},
{"type":"Feature","geometry":{"type":"Point","coordinates":[3.005202,44.9863611]},"properties":{"information":"guidepost","tourism":"information"}},
{"type":"Feature","geometry":{"type":"Point","coordinates":[3.0055815,44.9862492]},"properties":{"information":"guidepost","tourism":"information"}},
{"type":"Feature","geometry":{"type":"Point","coordinates":[3.0157538,44.9968471]},"properties":{"description":"Randonnée: Les Mégalithes","information":"board","tourism":"information"}},
{"type":"Feature","geometry":{"type":"Point","coordinates":[2.9946958,44.988463]},"properties":{"historic":"wayside_cross"}},
{"type":"Feature","geometry":{"type":"Point","coordinates":[3.0142102,44.9968386]},"properties":{"leisure":"picnic_table"}},
{"type":"Feature","geometry":{"type":"Point","coordinates":[3.0141431,44.9967371]},"properties":{"leisure":"playground"}},
{"type":"Feature","geometry":{"type":"Point","coordinates":[3.0144247,44.9965958]},"properties":{"entrance":"yes"}},
{"type":"Feature","geometry":{"type":"Point","coordinates":[3.0853075,44.9618648]},"properties":{"description":"Randonnée: Le Site d'Alleuze","information":"board","tourism":"information"}},
{"type":"Feature","geometry":{"type":"Point","coordinates":[3.0854925,44.9620622]},"properties":{"historic":"memorial","memorial":"war_memorial","ref:FR:MemorialGenWeb":"44067"}},
{"type":"Feature","geometry":{"type":"Point","coordinates":[3.0856186,44.9620812]},"properties":{"historic":"monument"}},
{"type":"Feature","geometry":{"type":"Point","coordinates":[3.0857822,44.961825]},"properties":{"historic":"wayside_cross"}},
{"type":"Feature","geometry":{"type":"Point","coordinates":[3.077568,44.9695981]},"properties":{"historic":"wayside_cross"}},
{"type":"Feature","geometry":{"type":"Point","coordinates":[3.1073043,44.9658426]},"properties":{"historic":"wayside_cross"}},
{"type":"Feature","geometry":{"type":"Point","coordinates":[3.1042117,44.9615327]},"properties":{"leisure":"picnic_table"}},
{"type":"Feature","geometry":{"type":"Point","coordinates":[3.027817,45.0237021]},"properties":{"description":"Menhir et Dolmen sous Tumulus de la Pierre Levée 1","information":"board","tourism":"information"}},
{"type":"Feature","geometry":{"type":"Point","coordinates":[3.0280209,45.0236499]},"properties":{"archaeological_site":"megalith","historic":"archaeological_site","megalith_type":"dolmen"}},
{"type":"Feature","geometry":{"type":"Point","coordinates":[3.0277084,45.0238215]},"properties":{"archaeological_site":"megalith","historic":"archaeological_site","megalith_type":"menhir"}},
{"type":"Feature","geometry":{"type":"Point","coordinates":[3.0303517,45.0222991]},"properties":{"archaeological_site":"megalith","historic":"archaeological_site","megalith_type":"dolmen","name":"Dolmen de Pierre Levée"}},
{"type":"Feature","geometry":{"type":"Point","coordinates":[3.0634099,45.0008291]},"properties":{"description":"Randonnée: La Tombe du Capitaine","information":"board","tourism":"information"}},
{"type":"Feature","geometry":{"type":"Point","coordinates":[3.0636057,45.0006224]},"properties":{"historic":"memorial","memorial":"war_memorial","ref:FR:MemorialGenWeb":"32657"}},
{"type":"Feature","geometry":{"type":"Point","coordinates":[3.0330648,45.0146696]},"properties":{"description":"Accès au Dolmen de la Tombe du Capitaine","information":"board","tourism":"information"}},
{"type":"Feature","geometry":{"type":"Point","coordinates":[3.0317438,45.0155456]},"properties":{"description":"Randonnée: Accès au Dolmen de Pierre Levée","information":"board","tourism":"information"}},
{"type":"Feature","geometry":{"type":"Point","coordinates":[3.0391681,45.0139159]},"properties":{"historic":"wayside_cross"}},
{"type":"Feature","geometry":{"type":"Point","coordinates":[3.0244857,45.0118984]},"properties":{"archaeological_site":"megalith","historic":"archaeological_site","megalith_type":"dolmen","name":"Dolmen de la Tombe du Capitaine","wikidata":"Q30739543"}},
{"type":"Feature","geometry":{"type":"Point","coordinates":[3.0483426,45.0023094]},"properties":{"historic":"wayside_cross"}},
{"type":"Feature","geometry":{"type":"Point","coordinates":[3.0246802,45.0377844]},"properties":{"historic":"wayside_cross"}},
{"type":"Feature","geometry":{"type":"Point","coordinates":[3.028226,45.0412177]},"properties":{"historic":"wayside_cross"}},
{"type":"Feature","geometry":{"type":"Point","coordinates":[3.0393948,45.0521503]},"properties":{"historic":"memorial","memorial":"war_memorial","ref:FR:MemorialGenWeb":"22566"}},
{"type":"Feature","geometry":{"type":"Point","coordinates":[3.0390152,45.0519741]},"properties":{"description":"Randonnée: Le Dolmen de Védernat","information":"board","tourism":"information"}},
{"type":"Feature","geometry":{"type":"Point","coordinates":[3.0937074,45.0324458]},"properties":{"name":"Main de Saint-Flour","tourism":"attraction"}},
{"type":"Feature","geometry":{"type":"Point","coordinates":[3.0279224,45.0238986]},"properties":{"name":"Menhir de la Pierre Levée","name:fr":"Menhir de la Pierre Levée","tourism":"attraction"}},
{"type":"Feature","geometry":{"type":"Point","coordinates":[3.0642308,45.0273263]},"properties":{"natural":"tree"}},
{"type":"Feature","geometry":{"type":"Point","coordinates":[3.064559,45.0273146]},"properties":{"natural":"tree"}},
{"type":"Feature","geometry":{"type":"Point","coordinates":[3.0646694,45.027297]},"properties":{"natural":"tree"}},
{"type":"Feature","geometry":{"type":"Point","coordinates":[3.0647769,45.0272629]},"properties":{"natural":"tree"}},
{"type":"Feature","geometry":{"type":"Point","coordinates":[3.0647066,45.0272239]},"properties":{"natural":"tree"}},
{"type":"Feature","geometry":{"type":"Point","coordinates":[3.0648597,45.0272044]},"properties":{"natural":"tree"}},
{"type":"Feature","geometry":{"type":"Point","coordinates":[3.064879,45.0271128]},"properties":{"natural":"tree"}},
{"type":"Feature","geometry":{"type":"Point","coordinates":[3.0647342,45.0271674]},"properties":{"natural":"tree"}},
{"type":"Feature","geometry":{"type":"Point","coordinates":[3.0647011,45.0271245]},"properties":{"natural":"tree"}},
{"type":"Feature","geometry":{"type":"Point","coordinates":[3.0648693,45.02703]},"properties":{"natural":"tree"}},
{"type":"Feature","geometry":{"type":"Point","coordinates":[3.0648335,45.0269734]},"properties":{"natural":"tree"}},
{"type":"Feature","geometry":{"type":"Point","coordinates":[3.0646708,45.0267268]},"properties":{"natural":"tree"}},
{"type":"Feature","geometry":{"type":"Point","coordinates":[3.064639,45.0266654]},"properties":{"natural":"tree"}},
{"type":"Feature","geometry":{"type":"Point","coordinates":[3.0644556,45.0263204]},"properties":{"natural":"tree"}},
{"type":"Feature","geometry":{"type":"Point","coordinates":[3.064235,45.0259032]},"properties":{"natural":"tree"}},
{"type":"Feature","geometry":{"type":"Point","coordinates":[3.0642088,45.0258496]},"properties":{"natural":"tree"}},
{"type":"Feature","geometry":{"type":"Point","coordinates":[3.0641688,45.0257843]},"properties":{"natural":"tree"}},
{"type":"Feature","geometry":{"type":"Point","coordinates":[3.0641012,45.0256927]},"properties":{"natural":"tree"}},
{"type":"Feature","geometry":{"type":"Point","coordinates":[3.0641246,45.0256517]},"properties":{"natural":"tree"}},
{"type":"Feature","geometry":{"type":"Point","coordinates":[3.0641095,45.0256176]},"properties":{"natural":"tree"}},
{"type":"Feature","geometry":{"type":"Point","coordinates":[3.0640571,45.0255591]},"properties":{"natural":"tree"}},
{"type":"Feature","geometry":{"type":"Point","coordinates":[3.0640129,45.0254831]},"properties":{"natural":"tree"}},
{"type":"Feature","geometry":{"type":"Point","coordinates":[3.0617449,45.0245096]},"properties":{"natural":"tree"}},
{"type":"Feature","geometry":{"type":"Point","coordinates":[3.0617699,45.0252023]},"properties":{"natural":"tree"}},
{"type":"Feature","geometry":{"type":"Point","coordinates":[3.0617861,45.0250528]},"properties":{"natural":"tree"}},
{"type":"Feature","geometry":{"type":"Point","coordinates":[3.0600253,45.0229805]},"properties":{"natural":"tree"}},
{"type":"Feature","geometry":{"type":"Point","coordinates":[3.0601187,45.022936]},"properties":{"natural":"tree"}},
{"type":"Feature","geometry":{"type":"Point","coordinates":[3.0601794,45.0228798]},"properties":{"natural":"tree"}},
{"type":"Feature","geometry":{"type":"Point","coordinates":[3.0599085,45.0228254]},"properties":{"natural":"tree"}},
{"type":"Feature","geometry":{"type":"Point","coordinates":[3.0597014,45.0229006]},"properties":{"natural":"tree"}},
{"type":"Feature","geometry":{"type":"Point","coordinates":[3.0543501,45.0246476]},"properties":{"natural":"tree"}},
{"type":"Feature","geometry":{"type":"Point","coordinates":[3.0546898,45.0246926]},"properties":{"natural":"tree"}},
{"type":"Feature","geometry":{"type":"Point","coordinates":[3.0549234,45.025293]},"properties":{"natural":"tree"}},
{"type":"Feature","geometry":{"type":"Point","coordinates":[3.0519231000000004,45.0251545]},"properties":{"access":"private","barrier":"gate"}},
{"type":"Feature","geometry":{"type":"Point","coordinates":[3.0442992,45.0277441]},"properties":{"natural":"wood"}},
{"type":"Feature","geometry":{"type":"Point","coordinates":[3.0447182,45.027724]},"properties":{"natural":"tree"}},
{"type":"Feature","geometry":{"type":"Point","coordinates":[3.0444964,45.0277196]},"properties":{"natural":"tree"}},
{"type":"Feature","geometry":{"type":"Point","coordinates":[3.0450201,45.0277044]},"properties":{"natural":"tree"}},
{"type":"Feature","geometry":{"type":"Point","coordinates":[3.0447521,45.0281573]},"properties":{"natural":"tree"}},
{"type":"Feature","geometry":{"type":"Point","coordinates":[2.94762,45.0004971]},"properties":{"leaf_type":"broadleaved","natural":"tree"}},
{"type":"Feature","geometry":{"type":"Point","coordinates":[2.9514818,45.0018818]},"properties":{"leaf_type":"broadleaved","natural":"tree"}},
{"type":"Feature","geometry":{"type":"Point","coordinates":[2.9477158,45.0015913]},"properties":{"leaf_type":"broadleaved","natural":"tree"}},
{"type":"Feature","geometry":{"type":"Point","coordinates":[2.947916,45.0015812]},"properties":{"leaf_type":"broadleaved","natural":"tree"}},
{"type":"Feature","geometry":{"type":"Point","coordinates":[2.9478311,45.0017242]},"properties":{"leaf_type":"broadleaved","natural":"tree"}},
{"type":"Feature","geometry":{"type":"Point","coordinates":[2.9468891,45.0009494]},"properties":{"leaf_type":"broadleaved","natural":"tree"}},
{"type":"Feature","geometry":{"type":"Point","coordinates":[2.9471196,45.0012725]},"properties":{"leaf_type":"broadleaved","natural":"tree"}},
{"type":"Feature","geometry":{"type":"Point","coordinates":[2.9473055,45.0014526]},"properties":{"leaf_type":"broadleaved","natural":"tree"}},
{"type":"Feature","geometry":{"type":"Point","coordinates":[2.9472934,45.0016184]},"properties":{"leaf_type":"broadleaved","natural":"tree"}},
{"type":"Feature","geometry":{"type":"Point","coordinates":[2.9473945,45.0014955]},"properties":{"leaf_type":"broadleaved","natural":"tree"}},
{"type":"Feature","geometry":{"type":"Point","coordinates":[2.9472045,45.0014583]},"properties":{"leaf_type":"broadleaved","natural":"tree"}},
{"type":"Feature","geometry":{"type":"Point","coordinates":[2.9475036,45.0017184]},"properties":{"leaf_type":"broadleaved","natural":"tree"}},
{"type":"Feature","geometry":{"type":"Point","coordinates":[2.9475805,45.0016756]},"properties":{"leaf_type":"broadleaved","natural":"tree"}},
{"type":"Feature","geometry":{"type":"Point","coordinates":[2.9477947,45.0012696]},"properties":{"leaf_type":"broadleaved","natural":"tree"}},
{"type":"Feature","geometry":{"type":"Point","coordinates":[2.9478554,45.0013068]},"properties":{"leaf_type":"broadleaved","natural":"tree"}},
{"type":"Feature","geometry":{"type":"Point","coordinates":[2.9479888,45.0007979]},"properties":{"leaf_type":"broadleaved","natural":"tree"}},
{"type":"Feature","geometry":{"type":"Point","coordinates":[2.9484133,45.001504]},"properties":{"leaf_type":"broadleaved","natural":"tree"}},
{"type":"Feature","geometry":{"type":"Point","coordinates":[2.9474828,44.9934918]},"properties":{"leaf_cycle":"deciduous","leaf_type":"broadleaved","natural":"tree"}},
{"type":"Feature","geometry":{"type":"Point","coordinates":[2.9473356,44.9933682]},"properties":{"leaf_cycle":"deciduous","leaf_type":"broadleaved","natural":"tree"}},
{"type":"Feature","geometry":{"type":"Point","coordinates":[2.947363,44.9932588]},"properties":{"leaf_cycle":"deciduous","leaf_type":"broadleaved","natural":"tree"}},
{"type":"Feature","geometry":{"type":"Point","coordinates":[2.9475677,44.9933894]},"properties":{"leaf_cycle":"deciduous","leaf_type":"broadleaved","natural":"tree"}},
{"type":"Feature","geometry":{"type":"Point","coordinates":[2.9479919,44.9932465]},"properties":{"leaf_cycle":"deciduous","leaf_type":"broadleaved","natural":"tree"}},
{"type":"Feature","geometry":{"type":"Point","coordinates":[2.9469712,44.9934106]},"properties":{"leaf_cycle":"deciduous","leaf_type":"broadleaved","natural":"tree"}},
{"type":"Feature","geometry":{"type":"Point","coordinates":[2.9469113,44.9933682]},"properties":{"leaf_cycle":"deciduous","leaf_type":"broadleaved","natural":"tree"}},
{"type":"Feature","geometry":{"type":"Point","coordinates":[2.947056,44.99334]},"properties":{"leaf_cycle":"deciduous","leaf_type":"broadleaved","natural":"tree"}},
{"type":"Feature","geometry":{"type":"Point","coordinates":[2.9473705,44.9934335]},"properties":{"leaf_cycle":"deciduous","leaf_type":"broadleaved","natural":"tree"}},
{"type":"Feature","geometry":{"type":"Point","coordinates":[2.9472357,44.9934071]},"properties":{"leaf_cycle":"deciduous","leaf_type":"broadleaved","natural":"tree"}},
{"type":"Feature","geometry":{"type":"Point","coordinates":[2.9736438,45.045375]},"properties":{"leaf_type":"broadleaved","natural":"tree"}},
{"type":"Feature","geometry":{"type":"Point","coordinates":[2.9741642,45.0455607]},"properties":{"leaf_type":"broadleaved","natural":"tree"}},
{"type":"Feature","geometry":{"type":"Point","coordinates":[2.9748026,45.0458866]},"properties":{"leaf_type":"broadleaved","natural":"tree"}},
{"type":"Feature","geometry":{"type":"Point","coordinates":[2.9752907,45.0467963]},"properties":{"leaf_type":"broadleaved","natural":"tree"}},
{"type":"Feature","geometry":{"type":"Point","coordinates":[2.9752961,45.0468986]},"properties":{"leaf_type":"broadleaved","natural":"tree"}},
{"type":"Feature","geometry":{"type":"Point","coordinates":[2.9638752,45.045096]},"properties":{"leaf_type":"broadleaved","natural":"tree"}},
{"type":"Feature","geometry":{"type":"Point","coordinates":[2.9638538,45.0454561]},"properties":{"leaf_type":"broadleaved","natural":"tree"}},
{"type":"Feature","geometry":{"type":"Point","coordinates":[2.9621087,45.0443496]},"properties":{"leaf_type":"broadleaved","natural":"tree"}},
{"type":"Feature","geometry":{"type":"Point","coordinates":[2.963659,45.0441222]},"properties":{"leaf_type":"broadleaved","natural":"tree"}},
{"type":"Feature","geometry":{"type":"Point","coordinates":[2.9635035,45.0435688]},"properties":{"leaf_type":"broadleaved","natural":"tree"}},
{"type":"Feature","geometry":{"type":"Point","coordinates":[2.9634874,45.0434854]},"properties":{"leaf_type":"broadleaved","natural":"tree"}},
{"type":"Feature","geometry":{"type":"Point","coordinates":[2.9634445,45.0433679]},"properties":{"leaf_type":"broadleaved","natural":"tree"}},
{"type":"Feature","geometry":{"type":"Point","coordinates":[2.9631923,45.0427235]},"properties":{"leaf_type":"broadleaved","natural":"tree"}},
{"type":"Feature","geometry":{"type":"Point","coordinates":[2.96014,45.0435005]},"properties":{"leaf_type":"broadleaved","natural":"tree"}},
{"type":"Feature","geometry":{"type":"Point","coordinates":[2.9602902,45.0434513]},"properties":{"leaf_type":"broadleaved","natural":"tree"}},
{"type":"Feature","geometry":{"type":"Point","coordinates":[2.9599093,45.0433186]},"properties":{"leaf_type":"broadleaved","natural":"tree"}},
{"type":"Feature","geometry":{"type":"Point","coordinates":[2.9592709,45.0428751]},"properties":{"leaf_type":"broadleaved","natural":"tree"}},
{"type":"Feature","geometry":{"type":"Point","coordinates":[2.9608052,45.0432921]},"properties":{"leaf_type":"broadleaved","natural":"tree"}},
{"type":"Feature","geometry":{"type":"Point","coordinates":[2.9564546,45.0437128]},"properties":{"leaf_type":"broadleaved","natural":"tree"}},
{"type":"Feature","geometry":{"type":"Point","coordinates":[2.9563688,45.0436597]},"properties":{"leaf_type":"broadleaved","natural":"tree"}},
{"type":"Feature","geometry":{"type":"Point","coordinates":[2.9557411,45.0453176]},"properties":{"leaf_type":"broadleaved","natural":"tree"}},
{"type":"Feature","geometry":{"type":"Point","coordinates":[2.9560094,45.0450295]},"properties":{"leaf_type":"broadleaved","natural":"tree"}},
{"type":"Feature","geometry":{"type":"Point","coordinates":[2.9545717,45.0438394]},"properties":{"leaf_type":"broadleaved","natural":"tree"}},
{"type":"Feature","geometry":{"type":"Point","coordinates":[2.9534023,45.0439379]},"properties":{"leaf_type":"broadleaved","natural":"tree"}},
{"type":"Feature","geometry":{"type":"Point","coordinates":[2.9542928,45.0434604]},"properties":{"leaf_type":"broadleaved","natural":"tree"}},
{"type":"Feature","geometry":{"type":"Point","coordinates":[2.9544537,45.04343]},"properties":{"leaf_type":"broadleaved","natural":"tree"}},
{"type":"Feature","geometry":{"type":"Point","coordinates":[2.9541962,45.0429145]},"properties":{"leaf_type":"broadleaved","natural":"tree"}},
{"type":"Feature","geometry":{"type":"Point","coordinates":[2.9542928,45.0432329]},"properties":{"leaf_type":"broadleaved","natural":"tree"}},
{"type":"Feature","geometry":{"type":"Point","coordinates":[2.9583063,45.0414867]},"properties":{"leaf_type":"broadleaved","natural":"tree"}},
{"type":"Feature","geometry":{"type":"Point","coordinates":[2.9557206,45.0402055]},"properties":{"leaf_type":"broadleaved","natural":"tree"}},
{"type":"Feature","geometry":{"type":"Point","coordinates":[2.9557743,45.0401221]},"properties":{"leaf_type":"broadleaved","natural":"tree"}},
{"type":"Feature","geometry":{"type":"Point","coordinates":[2.9542508,45.0406907]},"properties":{"leaf_type":"broadleaved","natural":"tree"}},
{"type":"Feature","geometry":{"type":"Point","coordinates":[2.9539397,45.0413805]},"properties":{"leaf_type":"broadleaved","natural":"tree"}},
{"type":"Feature","geometry":{"type":"Point","coordinates":[2.9539289,45.041426]},"properties":{"leaf_type":"broadleaved","natural":"tree"}},
{"type":"Feature","geometry":{"type":"Point","coordinates":[2.9538753,45.0417899]},"properties":{"leaf_type":"broadleaved","natural":"tree"}},
{"type":"Feature","geometry":{"type":"Point","coordinates":[2.9723181,45.0476292]},"properties":{"leaf_type":"broadleaved","natural":"tree"}},
{"type":"Feature","geometry":{"type":"Point","coordinates":[2.9620882,45.0502155]},"properties":{"leaf_type":"broadleaved","natural":"tree"}},
{"type":"Feature","geometry":{"type":"Point","coordinates":[2.9612728,45.0498365]},"properties":{"leaf_type":"broadleaved","natural":"tree"}},
{"type":"Feature","geometry":{"type":"Point","coordinates":[2.9608973,45.0496697]},"properties":{"leaf_type":"broadleaved","natural":"tree"}},
{"type":"Feature","geometry":{"type":"Point","coordinates":[2.9619112,45.0488799]},"properties":{"leaf_type":"broadleaved","natural":"tree"}},
{"type":"Feature","geometry":{"type":"Point","coordinates":[2.9619809,45.0488079]},"properties":{"leaf_type":"broadleaved","natural":"tree"}},
{"type":"Feature","geometry":{"type":"Point","coordinates":[2.9612299,45.0494218]},"properties":{"leaf_type":"broadleaved","natural":"tree"}},
{"type":"Feature","geometry":{"type":"Point","coordinates":[2.9628982,45.048084]},"properties":{"leaf_type":"broadleaved","natural":"tree"}},
{"type":"Feature","geometry":{"type":"Point","coordinates":[2.9632416,45.0478263]},"properties":{"leaf_type":"broadleaved","natural":"tree"}},
{"type":"Feature","geometry":{"type":"Point","coordinates":[2.9596689,45.0472198]},"properties":{"leaf_type":"broadleaved","natural":"tree"}},
{"type":"Feature","geometry":{"type":"Point","coordinates":[2.908566,44.9406275]},"properties":{"information":"guidepost","tourism":"information"}},
{"type":"Feature","geometry":{"type":"Point","coordinates":[2.9282977,44.9352021]},"properties":{"historic":"wayside_cross"}},
{"type":"Feature","geometry":{"type":"Point","coordinates":[2.9130158,45.0253277]},"properties":{"historic":"wayside_cross"}},
{"type":"Feature","geometry":{"type":"Point","coordinates":[2.9156913,45.0273666]},"properties":{"historic":"wayside_cross"}},
{"type":"Feature","geometry":{"type":"Point","coordinates":[2.9152648,45.0274035]},"properties":{"leisure":"picnic_table"}},
{"type":"Feature","geometry":{"type":"Point","coordinates":[2.9483881,45.0456335]},"properties":{"leisure":"playground"}},
{"type":"Feature","geometry":{"type":"Point","coordinates":[2.9998477,45.0227826]},"properties":{"direction":"0-360","man_made":"tower","name":"Tour d'observation panoramique","tourism":"viewpoint"}},
{"type":"Feature","geometry":{"type":"Point","coordinates":[2.999795,45.0224819]},"properties":{"historic":"memorial","memorial":"war_memorial","name":"Monument aux morts de Tanavelle","ref:FR:MemorialGenWeb":"6085"}},
{"type":"Feature","geometry":{"type":"Point","coordinates":[2.9818721,45.1351351]},"properties":{"tourism":"viewpoint"}},
{"type":"Feature","geometry":{"type":"Point","coordinates":[3.0387497,44.9301683]},"properties":{"name":"Puy Montbrun","natural":"peak","wikidata":"Q31393837"}},
{"type":"Feature","geometry":{"type":"Point","coordinates":[2.9336205,45.1530858]},"properties":{"natural":"tree"}},
{"type":"Feature","geometry":{"type":"Point","coordinates":[2.9335765,45.153083]},"properties":{"natural":"tree"}},
{"type":"Feature","geometry":{"type":"Point","coordinates":[2.9335362,45.1530804]},"properties":{"natural":"tree"}},
{"type":"Feature","geometry":{"type":"Point","coordinates":[2.9335012,45.1530782]},"properties":{"natural":"tree"}},
{"type":"Feature","geometry":{"type":"Point","coordinates":[2.9334971,45.1530129]},"properties":{"natural":"tree"}},
{"type":"Feature","geometry":{"type":"Point","coordinates":[2.9332463,45.1528096]},"properties":{"natural":"tree"}},
{"type":"Feature","geometry":{"type":"Point","coordinates":[2.9334596,45.1528427]},"properties":{"natural":"tree"}},
{"type":"Feature","geometry":{"type":"Point","coordinates":[2.9333201,45.1528834]},"properties":{"natural":"tree"}},
{"type":"Feature","geometry":{"type":"Point","coordinates":[2.9330076,45.1529987]},"properties":{"natural":"tree"}},
{"type":"Feature","geometry":{"type":"Point","coordinates":[2.9704365,45.0529272]},"properties":{"archaeological_site":"megalith","historic":"archaeological_site","megalith_type":"dolmen","name":"Dolmen de la Pierre-du-Loup","ruins":"yes"}},
{"type":"Feature","geometry":{"type":"Point","coordinates":[3.0999174,45.0337107]},"properties":{"addr:city":"Saint-Flour","addr:housenumber":"49","addr:postcode":"15100","addr:street":"Place de la Liberté","name":"Hôtel Restaurant Bar Tabac du Pont-Vieux","phone":"+33471602300","tourism":"hotel"}},
{"type":"Feature","geometry":{"type":"Point","coordinates":[3.1353505,45.0081896]},"properties":{"natural":"tree"}},
{"type":"Feature","geometry":{"type":"Point","coordinates":[3.1350279,45.0080478]},"properties":{"natural":"tree"}},
{"type":"Feature","geometry":{"type":"Point","coordinates":[3.1349167,45.0080185]},"properties":{"natural":"tree"}},
{"type":"Feature","geometry":{"type":"Point","coordinates":[3.1350868,45.0080755]},"properties":{"natural":"tree"}},
{"type":"Feature","geometry":{"type":"Point","coordinates":[3.1350933,45.0081048]},"properties":{"natural":"tree"}},
{"type":"Feature","geometry":{"type":"Point","coordinates":[3.1348208,45.0081002]},"properties":{"natural":"tree"}},
{"type":"Feature","geometry":{"type":"Point","coordinates":[3.1348382,45.0081387]},"properties":{"natural":"tree"}},
{"type":"Feature","geometry":{"type":"Point","coordinates":[3.1354966,45.0082266]},"properties":{"natural":"tree"}},
{"type":"Feature","geometry":{"type":"Point","coordinates":[3.1356165,45.0082235]},"properties":{"natural":"tree"}},
{"type":"Feature","geometry":{"type":"Point","coordinates":[3.135538,45.0081973]},"properties":{"natural":"tree"}},
{"type":"Feature","geometry":{"type":"Point","coordinates":[3.1354487,45.008037]},"properties":{"natural":"tree"}},
{"type":"Feature","geometry":{"type":"Point","coordinates":[3.1362575,45.0081988]},"properties":{"natural":"tree"}},
{"type":"Feature","geometry":{"type":"Point","coordinates":[3.1360308,45.0080355]},"properties":{"natural":"tree"}},
{"type":"Feature","geometry":{"type":"Point","coordinates":[3.1358672,45.0079445]},"properties":{"natural":"tree"}},
{"type":"Feature","geometry":{"type":"Point","coordinates":[3.135538,45.0077703]},"properties":{"natural":"tree"}},
{"type":"Feature","geometry":{"type":"Point","coordinates":[3.13578,45.0078967]},"properties":{"natural":"tree"}},
{"type":"Feature","geometry":{"type":"Point","coordinates":[3.1356449,45.0078089]},"properties":{"natural":"tree"}},
{"type":"Feature","geometry":{"type":"Point","coordinates":[3.1353222,45.0076085]},"properties":{"natural":"tree"}},
{"type":"Feature","geometry":{"type":"Point","coordinates":[3.1345313,45.0080974]},"properties":{"natural":"tree"}},
{"type":"Feature","geometry":{"type":"Point","coordinates":[3.1358782,45.008407]},"properties":{"natural":"tree"}},
{"type":"Feature","geometry":{"type":"Point","coordinates":[3.1359622,45.0084292]},"properties":{"natural":"tree"}},
{"type":"Feature","geometry":{"type":"Point","coordinates":[3.1352135,45.0082286]},"properties":{"entrance":"yes"}},
{"type":"Feature","geometry":{"type":"Point","coordinates":[2.9836462,44.9288291]},"properties":{"artwork_type":"statue","name":"Statue de Saint-Antoine","tourism":"artwork"}},
{"type":"Feature","geometry":{"type":"Point","coordinates":[3.1376313,45.0699426]},"properties":{"historic":"memorial","memorial":"war_memorial","ref:FR:MemorialGenWeb":"41210"}},
{"type":"Feature","geometry":{"type":"Point","coordinates":[3.0855328,44.9620679]},"properties":{"natural":"tree"}},
{"type":"Feature","geometry":{"type":"Point","coordinates":[3.0780655,44.9617377]},"properties":{"natural":"tree"}},
{"type":"Feature","geometry":{"type":"Point","coordinates":[3.0789936,44.961268]},"properties":{"description:fr":"Pin isolé","natural":"tree"}},
{"type":"Feature","geometry":{"type":"Point","coordinates":[3.0795635,44.9611598]},"properties":{"description:fr":"Pin isolé","natural":"tree"}},
{"type":"Feature","geometry":{"type":"Point","coordinates":[3.0854604,44.9620736]},"properties":{"natural":"tree"}},
{"type":"Feature","geometry":{"type":"Point","coordinates":[3.0857782,44.9617946]},"properties":{"natural":"tree"}},
{"type":"Feature","geometry":{"type":"Point","coordinates":[3.0857165,44.9617937]},"properties":{"natural":"tree"}},
{"type":"Feature","geometry":{"type":"Point","coordinates":[3.0856575,44.9617937]},"properties":{"natural":"tree"}},
{"type":"Feature","geometry":{"type":"Point","coordinates":[3.0857272,44.9618307]},"properties":{"covered":"no","leisure":"picnic_table"}},
{"type":"Feature","geometry":{"type":"Point","coordinates":[3.0854671,44.9618421]},"properties":{"covered":"no","leisure":"picnic_table"}},
{"type":"Feature","geometry":{"type":"Point","coordinates":[3.0813324,45.0323644]},"properties":{"natural":"tree"}},
{"type":"Feature","geometry":{"type":"Point","coordinates":[3.0814598,45.0323539]},"properties":{"natural":"tree"}},
{"type":"Feature","geometry":{"type":"Point","coordinates":[3.0824402,45.0319919]},"properties":{"natural":"tree"}},
{"type":"Feature","geometry":{"type":"Point","coordinates":[3.08229,45.0322317]},"properties":{"natural":"tree"}},
{"type":"Feature","geometry":{"type":"Point","coordinates":[3.0848408,45.0323985]},"properties":{"natural":"tree"}},
{"type":"Feature","geometry":{"type":"Point","coordinates":[3.0833897,45.0322364]},"properties":{"natural":"tree"}},
{"type":"Feature","geometry":{"type":"Point","coordinates":[3.0837263,45.0322516]},"properties":{"natural":"tree"}},
{"type":"Feature","geometry":{"type":"Point","coordinates":[3.0841233,45.0322781]},"properties":{"natural":"tree"}},
{"type":"Feature","geometry":{"type":"Point","coordinates":[3.0870281,45.0314583]},"properties":{"natural":"tree"}},
{"type":"Feature","geometry":{"type":"Point","coordinates":[3.0860974,45.031463]},"properties":{"natural":"tree"}},
{"type":"Feature","geometry":{"type":"Point","coordinates":[3.0859432,45.0314716]},"properties":{"natural":"tree"}},
{"type":"Feature","geometry":{"type":"Point","coordinates":[3.0858453,45.0314498]},"properties":{"natural":"tree"}},
{"type":"Feature","geometry":{"type":"Point","coordinates":[3.0850594,45.0318137]},"properties":{"natural":"tree"}},
{"type":"Feature","geometry":{"type":"Point","coordinates":[3.0844076,45.0317132]},"properties":{"natural":"tree"}},
{"type":"Feature","geometry":{"type":"Point","coordinates":[3.0847362,45.031827]},"properties":{"natural":"tree"}},
{"type":"Feature","geometry":{"type":"Point","coordinates":[3.0841555,45.0318421]},"properties":{"natural":"tree"}},
{"type":"Feature","geometry":{"type":"Point","coordinates":[3.0842815,45.0318298]},"properties":{"natural":"tree"}},
{"type":"Feature","geometry":{"type":"Point","coordinates":[3.0844532,45.031827]},"properties":{"natural":"tree"}},
{"type":"Feature","geometry":{"type":"Point","coordinates":[3.0805331,45.0312792]},"properties":{"natural":"tree"}},
{"type":"Feature","geometry":{"type":"Point","coordinates":[3.0803883,45.0313066]},"properties":{"natural":"tree"}},
{"type":"Feature","geometry":{"type":"Point","coordinates":[3.0819252,45.0312611]},"properties":{"natural":"tree"}},
{"type":"Feature","geometry":{"type":"Point","coordinates":[3.0820835,45.0313057]},"properties":{"natural":"tree"}},
{"type":"Feature","geometry":{"type":"Point","coordinates":[3.0817777,45.031518]},"properties":{"natural":"tree"}},
{"type":"Feature","geometry":{"type":"Point","coordinates":[3.0818018,45.0314156]},"properties":{"natural":"tree"}},
{"type":"Feature","geometry":{"type":"Point","coordinates":[3.0818662,45.0314848]},"properties":{"natural":"tree"}},
{"type":"Feature","geometry":{"type":"Point","coordinates":[3.0810294,45.0321615]},"properties":{"natural":"tree"}},
{"type":"Feature","geometry":{"type":"Point","coordinates":[3.08137,45.0320421]},"properties":{"natural":"tree"}},
{"type":"Feature","geometry":{"type":"Point","coordinates":[3.0814236,45.0320004]},"properties":{"natural":"tree"}},
{"type":"Feature","geometry":{"type":"Point","coordinates":[3.0820271,45.0318317]},"properties":{"natural":"tree"}},
{"type":"Feature","geometry":{"type":"Point","coordinates":[3.0819413,45.0318052]},"properties":{"natural":"tree"}},
{"type":"Feature","geometry":{"type":"Point","coordinates":[3.0820325,45.0317009]},"properties":{"natural":"tree"}},
{"type":"Feature","geometry":{"type":"Point","coordinates":[3.0821371,45.0317331]},"properties":{"natural":"tree"}},
{"type":"Feature","geometry":{"type":"Point","coordinates":[3.0821612,45.0316801]},"properties":{"natural":"tree"}},
{"type":"Feature","geometry":{"type":"Point","coordinates":[3.0822873,45.0316478]},"properties":{"natural":"tree"}},
{"type":"Feature","geometry":{"type":"Point","coordinates":[3.0822712,45.0317294]},"properties":{"natural":"tree"}},
{"type":"Feature","geometry":{"type":"Point","coordinates":[3.0822739,45.0317843]},"properties":{"natural":"tree"}},
{"type":"Feature","geometry":{"type":"Point","coordinates":[3.0820647,45.0315133]},"properties":{"natural":"tree"}},
{"type":"Feature","geometry":{"type":"Point","coordinates":[3.0828318,45.031845]},"properties":{"natural":"tree"}},
{"type":"Feature","geometry":{"type":"Point","coordinates":[3.0823275,45.031953]},"properties":{"natural":"tree"}},
{"type":"Feature","geometry":{"type":"Point","coordinates":[3.0822954,45.0319758]},"properties":{"natural":"tree"}},
{"type":"Feature","geometry":{"type":"Point","coordinates":[3.0820379,45.0319739]},"properties":{"natural":"tree"}},
{"type":"Feature","geometry":{"type":"Point","coordinates":[3.0817777,45.0319853]},"properties":{"natural":"tree"}},
{"type":"Feature","geometry":{"type":"Point","coordinates":[3.0811192,45.0331008]},"properties":{"natural":"tree"}},
{"type":"Feature","geometry":{"type":"Point","coordinates":[3.0812748,45.0330875]},"properties":{"natural":"tree"}},
{"type":"Feature","geometry":{"type":"Point","coordinates":[3.0813713,45.033079]},"properties":{"natural":"tree"}},
{"type":"Feature","geometry":{"type":"Point","coordinates":[3.08148,45.0330686]},"properties":{"natural":"tree"}},
{"type":"Feature","geometry":{"type":"Point","coordinates":[3.0815725,45.0330562]},"properties":{"natural":"tree"}},
{"type":"Feature","geometry":{"type":"Point","coordinates":[3.0816825,45.0330468]},"properties":{"natural":"tree"}},
{"type":"Feature","geometry":{"type":"Point","coordinates":[3.0817924,45.0330344]},"properties":{"natural":"tree"}},
{"type":"Feature","geometry":{"type":"Point","coordinates":[3.0821747,45.0329965]},"properties":{"natural":"tree"}},
{"type":"Feature","geometry":{"type":"Point","coordinates":[3.0820754,45.0330051]},"properties":{"natural":"tree"}},
{"type":"Feature","geometry":{"type":"Point","coordinates":[3.0819815,45.0330221]},"properties":{"natural":"tree"}},
{"type":"Feature","geometry":{"type":"Point","coordinates":[3.0820593,45.0330752]},"properties":{"natural":"tree"}},
{"type":"Feature","geometry":{"type":"Point","coordinates":[3.0817884,45.0330979]},"properties":{"natural":"tree"}},
{"type":"Feature","geometry":{"type":"Point","coordinates":[3.0816597,45.0331188]},"properties":{"natural":"tree"}},
{"type":"Feature","geometry":{"type":"Point","coordinates":[3.0815256,45.033133]},"properties":{"natural":"tree"}},
{"type":"Feature","geometry":{"type":"Point","coordinates":[3.081429,45.0331472]},"properties":{"natural":"tree"}},
{"type":"Feature","geometry":{"type":"Point","coordinates":[3.0812828,45.0331624]},"properties":{"natural":"tree"}},
{"type":"Feature","geometry":{"type":"Point","coordinates":[3.0811527,45.0331681]},"properties":{"natural":"tree"}},
{"type":"Feature","geometry":{"type":"Point","coordinates":[3.0810226,45.0331794]},"properties":{"natural":"tree"}},
{"type":"Feature","geometry":{"type":"Point","coordinates":[3.0809073,45.0331851]},"properties":{"natural":"tree"}},
{"type":"Feature","geometry":{"type":"Point","coordinates":[3.0808899,45.0331235]},"properties":{"natural":"tree"}},
{"type":"Feature","geometry":{"type":"Point","coordinates":[3.0808751,45.0330799]},"properties":{"natural":"tree"}},
{"type":"Feature","geometry":{"type":"Point","coordinates":[3.0807585,45.0327302]},"properties":{"natural":"tree"}},
{"type":"Feature","geometry":{"type":"Point","coordinates":[3.0807839,45.032807]},"properties":{"natural":"tree"}},
{"type":"Feature","geometry":{"type":"Point","coordinates":[3.0808108,45.0328686]},"properties":{"natural":"tree"}},
{"type":"Feature","geometry":{"type":"Point","coordinates":[3.080855,45.0329965]},"properties":{"natural":"tree"}},
{"type":"Feature","geometry":{"type":"Point","coordinates":[3.0809824,45.033024]},"properties":{"natural":"tree"}},
{"type":"Feature","geometry":{"type":"Point","coordinates":[3.0809489,45.0329719]},"properties":{"natural":"tree"}},
{"type":"Feature","geometry":{"type":"Point","coordinates":[3.0809261,45.0328989]},"properties":{"natural":"tree"}},
{"type":"Feature","geometry":{"type":"Point","coordinates":[3.0808979,45.0328458]},"properties":{"natural":"tree"}},
{"type":"Feature","geometry":{"type":"Point","coordinates":[3.0811152,45.0327387]},"properties":{"natural":"tree"}},
{"type":"Feature","geometry":{"type":"Point","coordinates":[3.081201,45.0327255]},"properties":{"natural":"tree"}},
{"type":"Feature","geometry":{"type":"Point","coordinates":[3.0814156,45.0327093]},"properties":{"natural":"tree"}},
{"type":"Feature","geometry":{"type":"Point","coordinates":[3.0816007,45.0326961]},"properties":{"natural":"tree"}},
{"type":"Feature","geometry":{"type":"Point","coordinates":[3.0817133,45.0326828]},"properties":{"natural":"tree"}},
{"type":"Feature","geometry":{"type":"Point","coordinates":[3.0820124,45.0324781]},"properties":{"natural":"tree"}},
{"type":"Feature","geometry":{"type":"Point","coordinates":[3.0821103,45.0324705]},"properties":{"natural":"tree"}},
{"type":"Feature","geometry":{"type":"Point","coordinates":[3.0822055,45.032462]},"properties":{"natural":"tree"}},
{"type":"Feature","geometry":{"type":"Point","coordinates":[3.0823182,45.0324525]},"properties":{"natural":"tree"}},
{"type":"Feature","geometry":{"type":"Point","coordinates":[3.0825113,45.0324307]},"properties":{"natural":"tree"}},
{"type":"Feature","geometry":{"type":"Point","coordinates":[3.0825877,45.032425]},"properties":{"natural":"tree"}},
{"type":"Feature","geometry":{"type":"Point","coordinates":[3.0828412,45.0327264]},"properties":{"natural":"tree"}},
{"type":"Feature","geometry":{"type":"Point","coordinates":[3.0828439,45.032789]},"properties":{"natural":"tree"}},
{"type":"Feature","geometry":{"type":"Point","coordinates":[3.082872,45.032843]},"properties":{"natural":"tree"}},
{"type":"Feature","geometry":{"type":"Point","coordinates":[3.0828854,45.0329188]},"properties":{"natural":"tree"}},
{"type":"Feature","geometry":{"type":"Point","coordinates":[3.0829109,45.0329643]},"properties":{"natural":"tree"}},
{"type":"Feature","geometry":{"type":"Point","coordinates":[3.0827929,45.0329643]},"properties":{"natural":"tree"}},
{"type":"Feature","geometry":{"type":"Point","coordinates":[3.0827098,45.0329861]},"properties":{"natural":"tree"}},
{"type":"Feature","geometry":{"type":"Point","coordinates":[3.082636,45.0329975]},"properties":{"natural":"tree"}},
{"type":"Feature","geometry":{"type":"Point","coordinates":[3.0825435,45.0330174]},"properties":{"natural":"tree"}},
{"type":"Feature","geometry":{"type":"Point","coordinates":[3.0824348,45.032951]},"properties":{"natural":"tree"}},
{"type":"Feature","geometry":{"type":"Point","coordinates":[3.0824094,45.0328875]},"properties":{"natural":"tree"}},
{"type":"Feature","geometry":{"type":"Point","coordinates":[3.0824026,45.0328231]},"properties":{"natural":"tree"}},
{"type":"Feature","geometry":{"type":"Point","coordinates":[3.0823879,45.0327539]},"properties":{"natural":"tree"}},
{"type":"Feature","geometry":{"type":"Point","coordinates":[3.0823638,45.0326838]},"properties":{"natural":"tree"}},
{"type":"Feature","geometry":{"type":"Point","coordinates":[3.0823597,45.0326288]},"properties":{"natural":"tree"}},
{"type":"Feature","geometry":{"type":"Point","coordinates":[3.0824362,45.0326184]},"properties":{"natural":"tree"}},
{"type":"Feature","geometry":{"type":"Point","coordinates":[3.0825381,45.0326203]},"properties":{"natural":"tree"}},
{"type":"Feature","geometry":{"type":"Point","coordinates":[3.0826266,45.032607]},"properties":{"natural":"tree"}},
{"type":"Feature","geometry":{"type":"Point","coordinates":[3.0827366,45.0325861]},"properties":{"natural":"tree"}},
{"type":"Feature","geometry":{"type":"Point","coordinates":[3.0827996,45.0325823]},"properties":{"natural":"tree"}},
{"type":"Feature","geometry":{"type":"Point","coordinates":[3.0827634,45.0325065]},"properties":{"natural":"tree"}},
{"type":"Feature","geometry":{"type":"Point","coordinates":[3.082691,45.0325141]},"properties":{"natural":"tree"}},
{"type":"Feature","geometry":{"type":"Point","coordinates":[3.0826025,45.0325198]},"properties":{"natural":"tree"}},
{"type":"Feature","geometry":{"type":"Point","coordinates":[3.0825247,45.0325283]},"properties":{"natural":"tree"}},
{"type":"Feature","geometry":{"type":"Point","coordinates":[3.0824161,45.0325511]},"properties":{"natural":"tree"}},
{"type":"Feature","geometry":{"type":"Point","coordinates":[3.0823195,45.032553]},"properties":{"natural":"tree"}},
{"type":"Feature","geometry":{"type":"Point","coordinates":[3.0822162,45.0325634]},"properties":{"natural":"tree"}},
{"type":"Feature","geometry":{"type":"Point","coordinates":[3.0821331,45.0325776]},"properties":{"natural":"tree"}},
{"type":"Feature","geometry":{"type":"Point","coordinates":[3.0820365,45.0325805]},"properties":{"natural":"tree"}},
{"type":"Feature","geometry":{"type":"Point","coordinates":[3.0818823,45.0325729]},"properties":{"natural":"tree"}},
{"type":"Feature","geometry":{"type":"Point","coordinates":[3.0820593,45.0326534]},"properties":{"natural":"tree"}},
{"type":"Feature","geometry":{"type":"Point","coordinates":[3.0821425,45.0326506]},"properties":{"natural":"tree"}},
{"type":"Feature","geometry":{"type":"Point","coordinates":[3.0822471,45.0326392]},"properties":{"natural":"tree"}},
{"type":"Feature","geometry":{"type":"Point","coordinates":[3.0822672,45.0326932]},"properties":{"natural":"tree"}},
{"type":"Feature","geometry":{"type":"Point","coordinates":[3.0822726,45.0327728]},"properties":{"natural":"tree"}},
{"type":"Feature","geometry":{"type":"Point","coordinates":[3.0822819,45.0328373]},"properties":{"natural":"tree"}},
{"type":"Feature","geometry":{"type":"Point","coordinates":[3.0823034,45.0329036]},"properties":{"natural":"tree"}},
{"type":"Feature","geometry":{"type":"Point","coordinates":[3.0823275,45.0329709]},"properties":{"natural":"tree"}},
{"type":"Feature","geometry":{"type":"Point","coordinates":[3.0842359,45.0386155]},"properties":{"natural":"tree"}},
{"type":"Feature","geometry":{"type":"Point","coordinates":[3.0842198,45.0385094]},"properties":{"natural":"tree"}},
{"type":"Feature","geometry":{"type":"Point","coordinates":[3.0862248,45.0389737]},"properties":{"natural":"tree"}},
{"type":"Feature","geometry":{"type":"Point","coordinates":[3.0862811,45.0393585]},"properties":{"natural":"tree"}},
{"type":"Feature","geometry":{"type":"Point","coordinates":[3.0862261,45.0395205]},"properties":{"natural":"tree"}},
{"type":"Feature","geometry":{"type":"Point","coordinates":[3.0864219,45.039584]},"properties":{"natural":"tree"}},
{"type":"Feature","geometry":{"type":"Point","coordinates":[3.08654,45.0395262]},"properties":{"natural":"tree"}},
{"type":"Feature","geometry":{"type":"Point","coordinates":[3.0866767,45.0394002]},"properties":{"natural":"tree"}},
{"type":"Feature","geometry":{"type":"Point","coordinates":[3.0866352,45.0393452]},"properties":{"natural":"tree"}},
{"type":"Feature","geometry":{"type":"Point","coordinates":[3.0863737,45.0392504]},"properties":{"natural":"tree"}},
{"type":"Feature","geometry":{"type":"Point","coordinates":[3.0861819,45.0398702]},"properties":{"natural":"tree"}},
{"type":"Feature","geometry":{"type":"Point","coordinates":[3.0859914,45.0398721]},"properties":{"natural":"tree"}},
{"type":"Feature","geometry":{"type":"Point","coordinates":[3.0858171,45.0399744]},"properties":{"natural":"tree"}},
{"type":"Feature","geometry":{"type":"Point","coordinates":[3.0856159,45.0401526]},"properties":{"natural":"tree"}},
{"type":"Feature","geometry":{"type":"Point","coordinates":[3.0855355,45.0402095]},"properties":{"natural":"tree"}},
{"type":"Feature","geometry":{"type":"Point","coordinates":[3.0846718,45.0404331]},"properties":{"natural":"tree"}},
{"type":"Feature","geometry":{"type":"Point","coordinates":[3.0847549,45.0404217]},"properties":{"natural":"tree"}},
{"type":"Feature","geometry":{"type":"Point","coordinates":[3.0849883,45.0404066]},"properties":{"natural":"tree"}},
{"type":"Feature","geometry":{"type":"Point","coordinates":[3.0851009,45.0404104]},"properties":{"natural":"tree"}},
{"type":"Feature","geometry":{"type":"Point","coordinates":[3.0851975,45.0403838]},"properties":{"natural":"tree"}},
{"type":"Feature","geometry":{"type":"Point","coordinates":[3.0853102,45.0403307]},"properties":{"natural":"tree"}},
{"type":"Feature","geometry":{"type":"Point","coordinates":[3.0852297,45.0399327]},"properties":{"natural":"tree"}},
{"type":"Feature","geometry":{"type":"Point","coordinates":[3.0849615,45.0367969]},"properties":{"leaf_type":"needleleaved","natural":"tree"}},
{"type":"Feature","geometry":{"type":"Point","coordinates":[3.0849011,45.0367249]},"properties":{"leaf_type":"needleleaved","natural":"tree"}},
{"type":"Feature","geometry":{"type":"Point","coordinates":[3.084873,45.0366756]},"properties":{"leaf_type":"needleleaved","natural":"tree"}},
{"type":"Feature","geometry":{"type":"Point","coordinates":[3.0847751,45.036523]},"properties":{"leaf_type":"needleleaved","natural":"tree"}},
{"type":"Feature","geometry":{"type":"Point","coordinates":[3.0847523,45.036487]},"properties":{"leaf_type":"needleleaved","natural":"tree"}},
{"type":"Feature","geometry":{"type":"Point","coordinates":[3.0847214,45.0364396]},"properties":{"leaf_type":"needleleaved","natural":"tree"}},
{"type":"Feature","geometry":{"type":"Point","coordinates":[3.0846892,45.0363979]},"properties":{"leaf_type":"needleleaved","natural":"tree"}},
{"type":"Feature","geometry":{"type":"Point","coordinates":[3.0846678,45.0363648]},"properties":{"leaf_type":"needleleaved","natural":"tree"}},
{"type":"Feature","geometry":{"type":"Point","coordinates":[3.0844304,45.036016]},"properties":{"leaf_type":"needleleaved","natural":"tree"}},
{"type":"Feature","geometry":{"type":"Point","coordinates":[3.0844478,45.0360539]},"properties":{"leaf_type":"needleleaved","natural":"tree"}},
{"type":"Feature","geometry":{"type":"Point","coordinates":[3.0855851,45.0373418]},"properties":{"natural":"tree"}},
{"type":"Feature","geometry":{"type":"Point","coordinates":[3.0852002,45.0369229]},"properties":{"natural":"tree"}},
{"type":"Feature","geometry":{"type":"Point","coordinates":[3.0851077,45.0368358]},"properties":{"natural":"tree"}},
{"type":"Feature","geometry":{"type":"Point","coordinates":[3.0856843,45.0366936]},"properties":{"natural":"tree"}},
{"type":"Feature","geometry":{"type":"Point","coordinates":[3.0850875,45.036669]},"properties":{"natural":"tree"}},
{"type":"Feature","geometry":{"type":"Point","coordinates":[3.0850701,45.0367268]},"properties":{"natural":"tree"}},
{"type":"Feature","geometry":{"type":"Point","coordinates":[3.0850339,45.0366699]},"properties":{"natural":"tree"}},
{"type":"Feature","geometry":{"type":"Point","coordinates":[3.0850017,45.0366453]},"properties":{"natural":"tree"}},
{"type":"Feature","geometry":{"type":"Point","coordinates":[3.0850057,45.0365676]},"properties":{"natural":"tree"}},
{"type":"Feature","geometry":{"type":"Point","coordinates":[3.0849333,45.0365334]},"properties":{"natural":"tree"}},
{"type":"Feature","geometry":{"type":"Point","coordinates":[3.0848971,45.0364813]},"properties":{"natural":"tree"}},
{"type":"Feature","geometry":{"type":"Point","coordinates":[3.0848502,45.0364235]},"properties":{"natural":"tree"}},
{"type":"Feature","geometry":{"type":"Point","coordinates":[3.0848341,45.0363932]},"properties":{"natural":"tree"}},
{"type":"Feature","geometry":{"type":"Point","coordinates":[3.0848113,45.0363439]},"properties":{"natural":"tree"}},
{"type":"Feature","geometry":{"type":"Point","coordinates":[3.0848032,45.036305]},"properties":{"natural":"tree"}},
{"type":"Feature","geometry":{"type":"Point","coordinates":[3.0850098,45.036306]},"properties":{"natural":"tree"}},
{"type":"Feature","geometry":{"type":"Point","coordinates":[3.0846409,45.0363145]},"properties":{"leaf_type":"needleleaved","natural":"tree"}},
{"type":"Feature","geometry":{"type":"Point","coordinates":[3.0845913,45.0370281]},"properties":{"natural":"tree"}},
{"type":"Feature","geometry":{"type":"Point","coordinates":[3.0848761,45.0384505]},"properties":{"historic":"wayside_cross"}},
{"type":"Feature","geometry":{"type":"Point","coordinates":[3.0857527,45.0388145]},"properties":{"natural":"tree"}},
{"type":"Feature","geometry":{"type":"Point","coordinates":[3.0858627,45.0390306]},"properties":{"natural":"tree"}},
{"type":"Feature","geometry":{"type":"Point","coordinates":[3.0850124,45.0392485]},"properties":{"natural":"tree"}},
{"type":"Feature","geometry":{"type":"Point","coordinates":[3.0852565,45.0393073]},"properties":{"natural":"tree"}},
{"type":"Feature","geometry":{"type":"Point","coordinates":[3.085978,45.0393983]},"properties":{"natural":"tree"}},
{"type":"Feature","geometry":{"type":"Point","coordinates":[3.0860665,45.0393623]},"properties":{"natural":"tree"}},
{"type":"Feature","geometry":{"type":"Point","coordinates":[3.0859512,45.0393509]},"properties":{"natural":"tree"}},
{"type":"Feature","geometry":{"type":"Point","coordinates":[3.0858466,45.0393793]},"properties":{"natural":"tree"}},
{"type":"Feature","geometry":{"type":"Point","coordinates":[3.0856883,45.0394419]},"properties":{"natural":"tree"}},
{"type":"Feature","geometry":{"type":"Point","coordinates":[3.0854979,45.0395234]},"properties":{"natural":"tree"}},
{"type":"Feature","geometry":{"type":"Point","coordinates":[3.0854872,45.0394475]},"properties":{"natural":"tree"}},
{"type":"Feature","geometry":{"type":"Point","coordinates":[3.0853826,45.0393016]},"properties":{"natural":"tree"}},
{"type":"Feature","geometry":{"type":"Point","coordinates":[3.0853423,45.0377214]},"properties":{"natural":"tree"}},
{"type":"Feature","geometry":{"type":"Point","coordinates":[3.0853182,45.0381331]},"properties":{"natural":"tree"}},
{"type":"Feature","geometry":{"type":"Point","coordinates":[3.0855475,45.0382469]},"properties":{"natural":"tree"}},
{"type":"Feature","geometry":{"type":"Point","coordinates":[3.0855381,45.038298]},"properties":{"natural":"tree"}},
{"type":"Feature","geometry":{"type":"Point","coordinates":[3.0853048,45.0382592]},"properties":{"natural":"tree"}},
{"type":"Feature","geometry":{"type":"Point","coordinates":[3.0852404,45.0382905]},"properties":{"natural":"tree"}},
{"type":"Feature","geometry":{"type":"Point","coordinates":[3.0851492,45.038350199999999]},"properties":{"natural":"tree"}},
{"type":"Feature","geometry":{"type":"Point","coordinates":[3.0846745,45.0384421]},"properties":{"natural":"tree"}},
{"type":"Feature","geometry":{"type":"Point","coordinates":[3.0846919,45.0383625]},"properties":{"natural":"tree"}},
{"type":"Feature","geometry":{"type":"Point","coordinates":[3.0848367,45.0382923]},"properties":{"natural":"tree"}},
{"type":"Feature","geometry":{"type":"Point","coordinates":[3.0849695,45.0381578]},