{"type":"FeatureCollection","features":[
{"type":"Feature","geometry":{"type":"Point","coordinates":[1.6694953,42.8107817]},"properties":{"ele":"1542","name":"Rochers de la Mirouge","natural":"peak"}},
{"type":"Feature","geometry":{"type":"Point","coordinates":[1.5187225,42.6454747]},"properties":{"ele":"2682","name":"Pic des Fangasses","natural":"peak","wikidata":"Q115677991"}},
{"type":"Feature","geometry":{"type":"Point","coordinates":[1.5492987,42.6559357]},"properties":{"ele":"2685","name":"Pic d'Arial","natural":"peak"}},
{"type":"Feature","geometry":{"type":"Point","coordinates":[1.562287,42.6535635]},"properties":{"ele":"2427","natural":"peak"}},
{"type":"Feature","geometry":{"type":"Point","coordinates":[1.5760117,42.643268]},"properties":{"ele":"2584","name":"Pic de Soulanet","natural":"peak"}},
{"type":"Feature","geometry":{"type":"Point","coordinates":[1.5803532,42.6368285]},"properties":{"ele":"2698.9","natural":"peak"}},
{"type":"Feature","geometry":{"type":"Point","coordinates":[1.6797394,42.6240801]},"properties":{"natural":"saddle"}},
{"type":"Feature","geometry":{"type":"Point","coordinates":[1.6531544,42.6263668]},"properties":{"ele":"2733","name":"Pic de Ransol","natural":"peak","wikidata":"Q30912943"}},
{"type":"Feature","geometry":{"type":"Point","coordinates":[1.73608,42.6178377]},"properties":{"alt_name":"Pic de Juclar","ele":"2617","name":"Pic de Ruf","natural":"peak","source":"Bing;GPS"}},
{"type":"Feature","geometry":{"type":"Point","coordinates":[1.7384087,42.6117099]},"properties":{"ele":"2748","name":"Pic de Noè","natural":"peak","wikidata":"Q21330042"}},
{"type":"Feature","geometry":{"type":"Point","coordinates":[1.78118,42.58253]},"properties":{"source":"Décret n° 2015-1187 du 25 septembre 2015 portant publication de l'accord entre le Gouvernement de la République française et le Gouvernement de la Principauté d'Andorre portant délimitation de la frontière, signé à Paris le 6 mars 2012"}},
{"type":"Feature","geometry":{"type":"Point","coordinates":[1.7831481,42.5819438]},"properties":{"source":"Décret n° 2015-1187 du 25 septembre 2015 portant publication de l'accord entre le Gouvernement de la République française et le Gouvernement de la Principauté d'Andorre portant délimitation de la frontière, signé à Paris le 6 mars 2012"}},
{"type":"Feature","geometry":{"type":"Point","coordinates":[1.6457902,42.6118724]},"properties":{"created_by":"JOSM"}},
{"type":"Feature","geometry":{"type":"Point","coordinates":[1.5635268,42.6528474]},"properties":{"ele":"2396","mountain_pass":"yes","name":"Port de Siguer","natural":"saddle","wikidata":"Q21330422","wikipedia":"fr:Port de Siguer"}},
{"type":"Feature","geometry":{"type":"Point","coordinates":[1.6025216,42.6255422]},"properties":{"ele":"2912","name":"Pic de la Serrera","name:ca":"Pic de la Serrera","name:fr":"Pic de Serrère","natural":"peak","prominence":"222","source:prominence":"CNIG Map. Key col: col at NW of Pic Cabaneta 2690m","wikidata":"Q11941547","wikipedia":"ca:Pic de la Serrera"}},
{"type":"Feature","geometry":{"type":"Point","coordinates":[1.5906452,42.7966802]},"properties":{"heritage":"2","heritage:operator":"mhs","historic":"castle","image":"File:Miglos chateau02.png","mhs:inscription_date":"1987-09-22","name":"Château de Miglos","ref:mhs":"PA00093824","ruins":"yes","source:heritage":"data.gouv.fr:Ministère de la Culture - 04/2015","wikidata":"Q2969890","wikipedia":"fr:Château de Miglos"}},
{"type":"Feature","geometry":{"type":"Point","coordinates":[1.505383,42.658027]},"properties":{"mountain_pass":"yes","name":"Port de la Goueille","natural":"saddle"}},
{"type":"Feature","geometry":{"type":"Point","coordinates":[1.5373054,42.6557003]},"properties":{"ele":"2575","mountain_pass":"yes","natural":"saddle"}},
{"type":"Feature","geometry":{"type":"Point","coordinates":[1.5528404,42.6538593]},"properties":{"ele":"2436","name":"el Port Vell de Siguer","natural":"saddle"}},
{"type":"Feature","geometry":{"type":"Point","coordinates":[1.5784,42.642354]},"properties":{"ele":"2527","mountain_pass":"yes","name":"Port de Bagnels ou de Soulanet","natural":"saddle"}},
{"type":"Feature","geometry":{"type":"Point","coordinates":[1.63698,42.633053]},"properties":{"ele":"2526","mountain_pass":"yes","name":"Col de l'Homme Mort","natural":"saddle"}},
{"type":"Feature","geometry":{"type":"Point","coordinates":[1.7323048,42.6878117]},"properties":{"ele":"1964","mountain_pass":"yes","name":"Col des Finestres","natural":"saddle"}},
{"type":"Feature","geometry":{"type":"Point","coordinates":[1.5661787,42.7635187]},"properties":{"name":"Point d'accueil randonneurs","ref:refuges.info":"7932","tourism":"chalet"}},
{"type":"Feature","geometry":{"type":"Point","coordinates":[1.6327407,42.7032582]},"properties":{"capacity":"6","description":"2018-01 : Solide battisse très bien isolée. Équipement : - 2 bas-flancs superposés avec matelas en mousse. - 1 table - 1 chaise, 1 banc, 5/6 tabourets","ele":"1630","fireplace":"yes","name":"Cabane des Ludines","note":"211","ref:refuges.info":"5390","source":"Association \"Refuges et cabanes des Pyrénées\"","stove":"no","tourism":"wilderness_hut"}},
{"type":"Feature","geometry":{"type":"Point","coordinates":[1.6364553,42.6699838]},"properties":{"capacity":"4","description":"2013-06 : Seule la partie gauche est ouverte aux randonneurs, la partie droite étant réservée aux bergers Deux tables, 3 bancs, une belle cheminée","ele":"1610","fireplace":"yes","name":"Cabane de Quioulès","note":"277","ref:refuges.info":"3676","source":"Association \"Refuges et cabanes des Pyrénées\"","stove":"no","tourism":"wilderness_hut"}},
{"type":"Feature","geometry":{"type":"Point","coordinates":[1.6860237,42.6822369]},"properties":{"capacity":"8","description":"2019-12 : -occupée l'été par un berger début juin à fin octobre. Bonne isolation -vaisselle -table, bancs -ustensiles de cuisine -évier avec eau couranteen été uniquement. -occupée l'été par un berger début juin à fin octobre.","fireplace":"yes","name":"Cabane de la Jasse de Sénard","note":"717","ref:refuges.info":"6812","source":"Association \"Refuges et cabanes des Pyrénées\"","stove":"no","tourism":"wilderness_hut"}},
{"type":"Feature","geometry":{"type":"Point","coordinates":[1.630693,42.6580075]},"properties":{"capacity":"4","description":"2016-02 : Equipement : - 1 bat-flanc - 1 table (petite) - 1 banc (petit, tout est petit à Bela ...) - A l'extérieur, une table pique-nique en bois avec ses 2 bancs solidaires. La partie de gauche de la Cabane est fermée et réservée au berger.","ele":"1780","fireplace":"yes","name":"Cabane de Bela","note":"54","ref:refuges.info":"5399","source":"Association \"Refuges et cabanes des Pyrénées\"","stove":"no","tourism":"wilderness_hut"}},
{"type":"Feature","geometry":{"type":"Point","coordinates":[1.6702994,42.7194095]},"properties":{"building":"yes","capacity":"10","description":"Ravitaillement disponible dans la cabane, paiement à l'association.\nUne grande table et deux banc, un deuxième espace disponible pour dormir avec des petits matelas.","fireplace":"yes","name":"Cabane de Clarans (assos GR10)","source":"Association \"Refuges et cabanes des Pyrénées\"","tourism":"wilderness_hut"}},
{"type":"Feature","geometry":{"type":"Point","coordinates":[1.5126596,42.7620642]},"properties":{"capacity":"2","description":"2018-10 : 2 lits métalliques superposés et 2 matelas 1 cheminée","ele":"1320","fireplace":"yes","name":"Abri forestier de Nagot","note":"231","ref:refuges.info":"6480","source":"Association \"Refuges et cabanes des Pyrénées\"","stove":"no","tourism":"wilderness_hut"}},
{"type":"Feature","geometry":{"type":"Point","coordinates":[1.5343398,42.6496897]},"properties":{"ele":"2903","name":"Pic de la Font Blanca","name:ca":"Pic de la Font Blanca","name:fr":"Pic du Port ou Pic de Font Blanca","natural":"peak","prominence":"389","source:prominence":"ICGC map. Key col: Port de l’Estany Esbalçat 2514m","wikidata":"Q3382368","wikipedia":"ca:Pic de la Font Blanca"}},
{"type":"Feature","geometry":{"type":"Point","coordinates":[1.5250631,42.7270561]},"properties":{"ele":"2213","name":"Pic du Sarrasi","natural":"peak","source":"survey"}},
{"type":"Feature","geometry":{"type":"Point","coordinates":[1.6911439,42.7247664]},"properties":{"email":"info@beille.fr","name":"ancien Centre d'accueil du Plateau de Beille","opening_hours":"Mo-Su 09:00-1x7:00","phone":"+33 5 34 09 35 35","source":"cadastre-dgi-fr source : Direction Générale des Finances Publiques - Cadastre. Mise à jour : juillet 2021 (bâtiment détruit)","tourism":"information","was:building":"yes","was:shop":"ticket","website":"https://www.beille.fr/","wikidata":"Q764281","wikipedia":"fr:Plateau de Beille"}},
{"type":"Feature","geometry":{"type":"Point","coordinates":[1.6974058,42.7182326]},"properties":{"information":"map","tourism":"information"}},
{"type":"Feature","geometry":{"type":"Point","coordinates":[1.7052171,42.7155901]},"properties":{"ele":"1939","natural":"peak"}},
{"type":"Feature","geometry":{"type":"Point","coordinates":[1.7231046,42.6974588]},"properties":{"ele":"1999","name":"Prat Moll","natural":"peak"}},
{"type":"Feature","geometry":{"type":"Point","coordinates":[1.5895562,42.7647842]},"properties":{"ele":"1389","mountain_pass":"yes","name":"Col de Gamel","natural":"saddle"}},
{"type":"Feature","geometry":{"type":"Point","coordinates":[1.6555291,42.6987968]},"properties":{"mountain_pass":"yes","name":"Pas de la Crabe","natural":"saddle"}},
{"type":"Feature","geometry":{"type":"Point","coordinates":[1.6138195,42.6437089]},"properties":{"ele":"2567","name":"Pic de l'Estagnol","natural":"peak"}},
{"type":"Feature","geometry":{"type":"Point","coordinates":[1.5150412,42.6983187]},"properties":{"ele":"2479","name":"Pic de Peyrot","natural":"peak","wikidata":"Q31634082"}},
{"type":"Feature","geometry":{"type":"Point","coordinates":[1.5889059,42.6771631]},"properties":{"ele":"2602","name":"Pic du Pas de Bouc","natural":"peak"}},
{"type":"Feature","geometry":{"type":"Point","coordinates":[1.6395088,42.6405568]},"properties":{"ele":"2655","name":"Pic de L'Homme Mort","natural":"peak","wikidata":"Q31641797"}},
{"type":"Feature","geometry":{"type":"Point","coordinates":[1.555208,42.6711899]},"properties":{"ele":"2685","name":"Pic de Bourbonne","natural":"peak"}},
{"type":"Feature","geometry":{"type":"Point","coordinates":[1.5159766,42.6713754]},"properties":{"ele":"2744","name":"Pic de l'Aspre","natural":"peak","prominence":"336","source:prominence":"CNIG map. Key col: Port de la Goueille 2408m"}},
{"type":"Feature","geometry":{"type":"Point","coordinates":[1.5131206,42.7702201]},"properties":{"historic":"archaeological_site","name":"Dolmen de Sem","opening_hours":"24/7"}},
{"type":"Feature","geometry":{"type":"Point","coordinates":[1.7301792,42.6145171]},"properties":{"ele":"2450","mountain_pass":"yes","name":"Collada de Juclar","natural":"saddle","wikidata":"Q21329828"}},
{"type":"Feature","geometry":{"type":"Point","coordinates":[1.7049381,42.6194424]},"properties":{"ele":"2262","mountain_pass":"yes","name":"Port de Fontargente","name:es":"el Port d'Incles","natural":"saddle"}},
{"type":"Feature","geometry":{"type":"Point","coordinates":[1.5747943,42.6479347]},"properties":{"alt_name":"Pic de Banyell","ele":"2638","name":"Pic de Bagnels ou Pic de Port de Siguer","natural":"peak"}},
{"type":"Feature","geometry":{"type":"Point","coordinates":[1.6596655,42.620488]},"properties":{"FIXME":"Différentes orthographes. Pourtaneille -> cadastre; Portaneille -> diverses sources WEB","name":"Piques de la Pourtaneille","natural":"peak","source":"cadastre-dgi-fr source : Direction Générale des Impôts - Cadastre"}},
{"type":"Feature","geometry":{"type":"Point","coordinates":[1.5066124,42.6452694]},"properties":{"alt_name":"Pic de les Planes","ele":"2788","name":"Pic de l'Albeille","name:ca":"Pic de les Planes","name:fr":"Pic de l'Albeille","natural":"peak","prominence":"185","source":"Bing;approximate","source:prominence":"CNIG map. Key col: Port de l’Albeille 2603m","wikidata":"Q115650824"}},
{"type":"Feature","geometry":{"type":"Point","coordinates":[1.6745939,42.670466]},"properties":{"ele":"2080","name":"Col d'Aychade","natural":"saddle","source":"GPS, Bing"}},
{"type":"Feature","geometry":{"type":"Point","coordinates":[1.5493275,42.6928181]},"properties":{"ele":"2324","mountain_pass":"yes","name":"Col de Neych","natural":"saddle"}},
{"type":"Feature","geometry":{"type":"Point","coordinates":[1.5469204,42.6885715]},"properties":{"ele":"2485","name":"Pic des Redouneilles","natural":"peak","wikidata":"Q3382417"}},
{"type":"Feature","geometry":{"type":"Point","coordinates":[1.5455664,42.6847563]},"properties":{"ele":"2478","natural":"peak"}},
{"type":"Feature","geometry":{"type":"Point","coordinates":[1.5774831,42.662447]},"properties":{"ele":"2660","name":"Pic de l'Étang Blaou","natural":"peak","prominence":"159","source":"GPS, Bing","source:prominence":"IGN map. Key col: 2481m"}},
{"type":"Feature","geometry":{"type":"Point","coordinates":[1.7073008,42.7894892]},"properties":{"ele":"1041","name":"Sarrat des Taychous","natural":"peak","source":"IGN"}},
{"type":"Feature","geometry":{"type":"Point","coordinates":[1.6314431,42.773132]},"properties":{"ele":"1568","name":"Cap de la Lesse de Bialac","natural":"peak"}},
{"type":"Feature","geometry":{"type":"Point","coordinates":[1.5773969,42.6598386]},"properties":{"natural":"saddle"}},
{"type":"Feature","geometry":{"type":"Point","coordinates":[1.5240173,42.6495779]},"properties":{"ele":"2596","name":"Collet de la Coma","name:ca":"Collet de la Coma","natural":"saddle"}},
{"type":"Feature","geometry":{"type":"Point","coordinates":[1.5165901,42.7195706]},"properties":{"comment":"D'après le cadastre la limite passe par le pic","ele":"2472","name":"Pique d'Endron","natural":"peak","wikidata":"Q3389075"}},
{"type":"Feature","geometry":{"type":"Point","coordinates":[1.529863,42.7352622]},"properties":{"ele":"2047","fixme":"géolocalisation","name":"Pic du Garbié de Bresoul","natural":"peak"}},
{"type":"Feature","geometry":{"type":"Point","coordinates":[1.5597119,42.805377]},"properties":{"ele":"1224","name":"Col de la Bène","natural":"saddle"}},
{"type":"Feature","geometry":{"type":"Point","coordinates":[1.7356452,42.6092126]},"properties":{"ele":"2781","name":"Pic d'Escobes","natural":"peak","wikidata":"Q18005600","wikipedia":"ca:Pic d'Escobes"}},
{"type":"Feature","geometry":{"type":"Point","coordinates":[1.57124,42.6326332]},"properties":{"ele":"2419.1","natural":"peak"}},
{"type":"Feature","geometry":{"type":"Point","coordinates":[1.5766793,42.6362312]},"properties":{"ele":"2662.5","name":"Turó del Forn","natural":"peak","wikidata":"Q21329708"}},
{"type":"Feature","geometry":{"type":"Point","coordinates":[1.7327095,42.6417691]},"properties":{"ele":"2304","mapillary":"296697415397484","mountain_pass":"yes","name":"Col de Terre Negre","natural":"saddle"}},
{"type":"Feature","geometry":{"type":"Point","coordinates":[1.5840024,42.7100419]},"properties":{"name":"Pas des Egues","natural":"saddle"}},
{"type":"Feature","geometry":{"type":"Point","coordinates":[1.5961398,42.7226066]},"properties":{"natural":"spring"}},
{"type":"Feature","geometry":{"type":"Point","coordinates":[1.5832468,42.7351219]},"properties":{"name":"Col de Lars","natural":"saddle"}},
{"type":"Feature","geometry":{"type":"Point","coordinates":[1.5926138,42.6086785]},"properties":{"ele":"2915","name":"Pic de l'Estanyó","natural":"peak","prominence":"519","wikidata":"Q4563375","wikipedia":"ca:Pic de l'Estanyó"}},
{"type":"Feature","geometry":{"type":"Point","coordinates":[1.6073176,42.6135315]},"properties":{"ele":"2862","name":"Pic de la Cabaneta","natural":"peak","wikidata":"Q21329212"}},
{"type":"Feature","geometry":{"type":"Point","coordinates":[1.5941673,42.6329699]},"properties":{"ele":"2743","name":"Pic du Sal","name:ca":"Pic de la Sal","natural":"peak"}},
{"type":"Feature","geometry":{"type":"Point","coordinates":[1.6826526,42.6248785]},"properties":{"alt_name":"Pic d'Anrodat","ele":"2730","name":"Pic de la Coume d'Enfer","natural":"peak","wikidata":"Q21332188"}},
{"type":"Feature","geometry":{"type":"Point","coordinates":[1.6093857,42.6285683]},"properties":{"ele":"2857","name":"Pic de la Coume de Seignac","natural":"peak","wikidata":"Q115581363"}},
{"type":"Feature","geometry":{"type":"Point","coordinates":[1.6371384,42.6302998]},"properties":{"ele":"2778","name":"Pic de Mil-Menut","natural":"peak"}},
{"type":"Feature","geometry":{"type":"Point","coordinates":[1.582887,42.653962]},"properties":{"ele":"2741","name":"Pic de Thoumasset","natural":"peak"}},
{"type":"Feature","geometry":{"type":"Point","coordinates":[1.5111019,42.7218937]},"properties":{"fixme":"Precise location ?","name":"Pic de Sauzeton","natural":"peak"}},
{"type":"Feature","geometry":{"type":"Point","coordinates":[1.679341,42.6456299]},"properties":{"FIXME":"A localiser précisément (GPS)","ele":"2555","name":"Pic de Cabaillère","natural":"peak"}},
{"type":"Feature","geometry":{"type":"Point","coordinates":[1.7202544,42.6576907]},"properties":{"natural":"peak"}},
{"type":"Feature","geometry":{"type":"Point","coordinates":[1.5595717,42.8053058]},"properties":{"historic":"wayside_shrine"}},
{"type":"Feature","geometry":{"type":"Point","coordinates":[1.5537492,42.8053903]},"properties":{"information":"guidepost","tourism":"information"}},
{"type":"Feature","geometry":{"type":"Point","coordinates":[1.5595902,42.8054666]},"properties":{"information":"guidepost","tourism":"information"}},
{"type":"Feature","geometry":{"type":"Point","coordinates":[1.5025701,42.8088973]},"properties":{"ele":"1984","name":"Pic de Boucarle","natural":"peak"}},
{"type":"Feature","geometry":{"type":"Point","coordinates":[1.7193105,42.6202224]},"properties":{"ele":"2627","name":"Pic Nègre de Joclar","natural":"peak"}},
{"type":"Feature","geometry":{"type":"Point","coordinates":[1.5963126,42.6308034]},"properties":{"mountain_pass":"yes","name":"La Portella de la Cebollera","natural":"saddle"}},
{"type":"Feature","geometry":{"type":"Point","coordinates":[1.6192744,42.6259935]},"properties":{"ele":"2714","mountain_pass":"yes","name":"Port Vieux de Coume d'Ose","natural":"saddle"}},
{"type":"Feature","geometry":{"type":"Point","coordinates":[1.6394716,42.6284463]},"properties":{"mountain_pass":"yes","name":"Col de Coume d'Ose","name:es":"la Collada de Jan","natural":"saddle"}},
{"type":"Feature","geometry":{"type":"Point","coordinates":[1.6538471,42.6251559]},"properties":{"mountain_pass":"yes","name":"Port de Ransol","natural":"saddle"}},
{"type":"Feature","geometry":{"type":"Point","coordinates":[1.6570832,42.6213508]},"properties":{"ele":"2564","mountain_pass":"yes","name":"la Portella de la Coma de Varilles","natural":"saddle"}},
{"type":"Feature","geometry":{"type":"Point","coordinates":[1.6890394,42.6237585]},"properties":{"name":"Coll d'Anrodat","natural":"saddle"}},
{"type":"Feature","geometry":{"type":"Point","coordinates":[1.7032043,42.7839125]},"properties":{"ele":"763","mountain_pass":"yes","name":"Col de Darques","natural":"saddle"}},
{"type":"Feature","geometry":{"type":"Point","coordinates":[1.5652778,42.7653274]},"properties":{"historic":"memorial","memorial":"war_memorial","ref:FR:MemorialGenWeb":"47628"}},
{"type":"Feature","geometry":{"type":"Point","coordinates":[1.6598519,42.7772034]},"properties":{"description":"Circuit de la chapelle St Barthelemy","hiking":"yes","information":"map","map_size":"site","map_type":"scheme","tourism":"information"}},
{"type":"Feature","geometry":{"type":"Point","coordinates":[1.6481068,42.7804726]},"properties":{"name":"Col de Doulant","natural":"saddle"}},
{"type":"Feature","geometry":{"type":"Point","coordinates":[1.6549587,42.7843807]},"properties":{"ele":"1236","information":"map","map_size":"site","map_type":"toposcope","name":"Chapelle Saint-Barthelemy","tourism":"information"}},
{"type":"Feature","geometry":{"type":"Point","coordinates":[1.6473878,42.7806067]},"properties":{"name":"Col de Doulant","tourism":"picnic_site"}},
{"type":"Feature","geometry":{"type":"Point","coordinates":[1.5984061,42.7916529]},"properties":{"name":"Gitamiglos","tourism":"guest_house"}},
{"type":"Feature","geometry":{"type":"Point","coordinates":[1.5784226,42.7922509]},"properties":{"historic":"memorial","memorial":"war_memorial","ref:FR:MemorialGenWeb":"47929"}},
{"type":"Feature","geometry":{"type":"Point","coordinates":[1.6405886,42.806959]},"properties":{"name":"Spoulga de Bouan","natural":"cave_entrance"}},
{"type":"Feature","geometry":{"type":"Point","coordinates":[1.6363323,42.8098716]},"properties":{"name":"Grotte de Sainte-Eulalie","natural":"cave_entrance"}},
{"type":"Feature","geometry":{"type":"Point","coordinates":[1.5021575,42.7630247]},"properties":{"name":"Grotte de l'Esqueras","natural":"cave_entrance"}},
{"type":"Feature","geometry":{"type":"Point","coordinates":[1.5362166,42.6403037]},"properties":{"ele":"2508","name":"Portella de Rialb","name:ca":"Portella de Rialb","natural":"saddle"}},
{"type":"Feature","geometry":{"type":"Point","coordinates":[1.7337264,42.5887795]},"properties":{"ele":"2818","name":"Pic de la Cabaneta","natural":"peak","prominence":"410","source:prominence":"CNIG map. Key col: Port d’Envalira 2408m","wikidata":"Q21329211"}},
{"type":"Feature","geometry":{"type":"Point","coordinates":[1.7267866,42.5890571]},"properties":{"ele":"2818","name":"Tosa de Siscaro","natural":"peak"}},
{"type":"Feature","geometry":{"type":"Point","coordinates":[1.7259333,42.6006629]},"properties":{"ele":"2636","name":"Pic de Siscaro","natural":"peak","wikidata":"Q21330426"}},
{"type":"Feature","geometry":{"type":"Point","coordinates":[1.4937644,42.6534813]},"properties":{"ele":"2878","name":"Tristaina/Tristagne","name:ca":"Pic de Tristaina","name:fr":"Pic de Tristagne","natural":"peak","prominence":"336","source:prominence":"CNIG map. Key col: Port de Rat 2542m","wikidata":"Q3382394"}},
{"type":"Feature","geometry":{"type":"Point","coordinates":[1.6642931,42.6191537]},"properties":{"ele":"2760","name":"Pic de la Coma de Varilles","name:fr":"Pics de la Portaneille","natural":"peak","wikidata":"Q21329386"}},
{"type":"Feature","geometry":{"type":"Point","coordinates":[1.6131488,42.7353172]},"properties":{"ele":"1959","name":"Pic du Col Taillat","natural":"peak"}},
{"type":"Feature","geometry":{"type":"Point","coordinates":[1.6234918,42.7597782]},"properties":{"ele":"1708","name":"Rocher de Miglos","natural":"peak"}},
{"type":"Feature","geometry":{"type":"Point","coordinates":[1.5933648,42.7623135]},"properties":{"drinking_water":"yes","natural":"spring","source":"survey"}},
{"type":"Feature","geometry":{"type":"Point","coordinates":[1.6634041,42.8063213]},"properties":{"leisure":"sports_centre","name":"Gueule d'Enfer","sport":"climbing"}},
{"type":"Feature","geometry":{"type":"Point","coordinates":[1.5001836,42.7693778]},"properties":{"historic":"wayside_cross","name":"Croix"}},
{"type":"Feature","geometry":{"type":"Point","coordinates":[1.7215218,42.6021116]},"properties":{"ele":"2699","fixme":"position","name":"Pic de la Tossa de Juclar","natural":"peak","wikidata":"Q21330511"}},
{"type":"Feature","geometry":{"type":"Point","coordinates":[1.6921293,42.6219763]},"properties":{"ele":"2618","name":"Pic de Fontargente","natural":"peak"}},
{"type":"Feature","geometry":{"type":"Point","coordinates":[1.7095828,42.6117059]},"properties":{"ele":"2586","name":"Alt de Juclar","natural":"peak","wikidata":"Q21329826","wikipedia":"ca:Alt de Juclar"}},
{"type":"Feature","geometry":{"type":"Point","coordinates":[1.7061511,42.611328]},"properties":{"natural":"peak"}},
{"type":"Feature","geometry":{"type":"Point","coordinates":[1.706686,42.6113411]},"properties":{"natural":"peak"}},
{"type":"Feature","geometry":{"type":"Point","coordinates":[1.7073991,42.6113411]},"properties":{"natural":"peak"}},
{"type":"Feature","geometry":{"type":"Point","coordinates":[1.7103611,42.6121917]},"properties":{"natural":"peak"}},
{"type":"Feature","geometry":{"type":"Point","coordinates":[1.711725,42.6129855]},"properties":{"ele":"2555","natural":"peak"}},
{"type":"Feature","geometry":{"type":"Point","coordinates":[1.6328566,42.6219988]},"properties":{"ele":"2525","name":"Bony de la Pala de Jan","name:ca":"Bony de la Pala de Jan","natural":"peak","wikidata":"Q115628749"}},
{"type":"Feature","geometry":{"type":"Point","coordinates":[1.6285559,42.6266399]},"properties":{"ele":"2746","name":"Pic de l'Estany Mort","natural":"peak","wikidata":"Q30912941"}},
{"type":"Feature","geometry":{"type":"Point","coordinates":[1.5128856,42.6460422]},"properties":{"ele":"2509","name":"Port de l'Estany Esbalçat","name:fr":"Port Nouveau","natural":"saddle"}},
{"type":"Feature","geometry":{"type":"Point","coordinates":[1.7243744,42.6010759]},"properties":{"ele":"2599","natural":"saddle"}},
{"type":"Feature","geometry":{"type":"Point","coordinates":[1.7233958,42.7760147]},"properties":{"historic":"memorial","memorial":"war_memorial","ref:FR:MemorialGenWeb":"41405"}},
{"type":"Feature","geometry":{"type":"Point","coordinates":[1.6325044,42.7994928]},"properties":{"denomination":"catholic","historic":"wayside_cross","religion":"christian"}},
{"type":"Feature","geometry":{"type":"Point","coordinates":[1.6911275,42.7241617]},"properties":{"information":"map","tourism":"information"}},
{"type":"Feature","geometry":{"type":"Point","coordinates":[1.6181319,42.6259739]},"properties":{"ele":"2716","name":"Pic de Meners","natural":"peak"}},
{"type":"Feature","geometry":{"type":"Point","coordinates":[1.5255703,42.8093598]},"properties":{"ele":"1840","name":"Roc de Querquéou","natural":"peak"}},
{"type":"Feature","geometry":{"type":"Point","coordinates":[1.5701806,42.7996724]},"properties":{"information":"guidepost","tourism":"information"}},
{"type":"Feature","geometry":{"type":"Point","coordinates":[1.5716252,42.8000711]},"properties":{"description":"Col de Lastris","hiking":"yes","information":"guidepost","tourism":"information"}},
{"type":"Feature","geometry":{"type":"Point","coordinates":[1.5839585,42.6313016]},"properties":{"ele":"2572","name":"Portella del Forn","name:ca":"Portella del Forn","natural":"saddle"}},
{"type":"Feature","geometry":{"type":"Point","coordinates":[1.5851587,42.6337022]},"properties":{"ele":"2719","natural":"peak"}},
{"type":"Feature","geometry":{"type":"Point","coordinates":[1.7086321,42.7738908]},"properties":{"leisure":"picnic_table"}},
{"type":"Feature","geometry":{"type":"Point","coordinates":[1.7079063,42.7740616]},"properties":{"leisure":"picnic_table"}},
{"type":"Feature","geometry":{"type":"Point","coordinates":[1.5657322,42.7637193]},"properties":{"heritage":"2","heritage:operator":"mhs","historic":"building","mhs:inscription_date":"1987-04-06","name":"Ancien rendez-vous de chasse des Comtes de Foix","ref:mhs":"PA00093920","source:heritage":"data.gouv.fr:Ministère de la Culture - 04/2015","wikidata":"Q22937271"}},
{"type":"Feature","geometry":{"type":"Point","coordinates":[1.5988286,42.791864]},"properties":{"historic":"memorial","memorial":"war_memorial","ref:FR:MemorialGenWeb":"37086"}},
{"type":"Feature","geometry":{"type":"Point","coordinates":[1.7334916,42.7899249]},"properties":{"historic":"memorial","memorial":"war_memorial","ref:FR:MemorialGenWeb":"32457"}},
{"type":"Feature","geometry":{"type":"Point","coordinates":[1.7184068,42.7928584]},"properties":{"historic":"memorial","memorial":"war_memorial","ref:FR:MemorialGenWeb":"184"}},
{"type":"Feature","geometry":{"type":"Point","coordinates":[1.7237496,42.7762387]},"properties":{"natural":"saddle"}},
{"type":"Feature","geometry":{"type":"Point","coordinates":[1.7229376,42.7759766]},"properties":{"denomination":"catholic","historic":"wayside_cross","image":"File:Vèbre Croix.jpg","religion":"christian"}},
{"type":"Feature","geometry":{"type":"Point","coordinates":[1.6863677,42.7849036]},"properties":{"denomination":"catholic","historic":"wayside_cross","religion":"christian"}},
{"type":"Feature","geometry":{"type":"Point","coordinates":[1.6610201,42.7991569]},"properties":{"denomination":"catholic","historic":"wayside_cross","image":"File:Sinsat Croix.jpg","religion":"christian"}},
{"type":"Feature","geometry":{"type":"Point","coordinates":[1.6236134,42.7594841]},"properties":{"historic":"memorial","image":"File:Stèle dédiée aux passeurs, Roc de Miglos.jpg","name":"Stèle guerre 1939-1945","note":"Guerre 1939-1945. En hommage aux passeurs et évadés de France."}},
{"type":"Feature","geometry":{"type":"Point","coordinates":[1.5081025,42.7815884]},"properties":{"denomination":"catholic","historic":"wayside_cross","religion":"christian"}},
{"type":"Feature","geometry":{"type":"Point","coordinates":[1.7024952,42.7769329]},"properties":{"historic":"memorial","image":"File:Albiès Monument aux morts.jpg","memorial":"war_memorial","ref:FR:MemorialGenWeb":"44632"}},
{"type":"Feature","geometry":{"type":"Point","coordinates":[1.6895478,42.7844821]},"properties":{"historic":"memorial","image":"File:Les Cabannes, Ariège, Monument aux morts.jpg","memorial":"war_memorial","name":"Monument aux morts"}},
{"type":"Feature","geometry":{"type":"Point","coordinates":[1.7102107,42.7983275]},"properties":{"historic":"memorial","memorial":"war_memorial","ref:FR:MemorialGenWeb":"1004"}},
{"type":"Feature","geometry":{"type":"Point","coordinates":[1.6932821,42.7837897]},"properties":{"denomination":"catholic","historic":"wayside_cross","image":"File:Les Cabannes, Ariège, Croix.jpg","religion":"christian"}},
{"type":"Feature","geometry":{"type":"Point","coordinates":[1.6742522,42.792301]},"properties":{"denomination":"catholic","historic":"wayside_shrine","image":"File:Aulos, Ariege, Oratory.JPG","religion":"christian"}},
{"type":"Feature","geometry":{"type":"Point","coordinates":[1.6873752,42.7962788]},"properties":{"denomination":"catholic","historic":"wayside_cross","image":"File:Verdun (Ariège) Croix face église.jpg","religion":"christian"}},
{"type":"Feature","geometry":{"type":"Point","coordinates":[1.5028631,42.6664998]},"properties":{"mountain_pass":"yes","natural":"saddle"}},
{"type":"Feature","geometry":{"type":"Point","coordinates":[1.6892253,42.793904]},"properties":{"denomination":"catholic","historic":"wayside_shrine","religion":"christian"}},
{"type":"Feature","geometry":{"type":"Point","coordinates":[1.7027894,42.7066861]},"properties":{"leisure":"picnic_table"}},
{"type":"Feature","geometry":{"type":"Point","coordinates":[1.7028504,42.7066459]},"properties":{"name":"Laparan 1960 m","tourism":"viewpoint"}},
{"type":"Feature","geometry":{"type":"Point","coordinates":[1.6449823,42.8108646]},"properties":{"name":"Grotte de Fontanet","natural":"cave_entrance"}},
{"type":"Feature","geometry":{"type":"Point","coordinates":[1.6638594,42.6431794]},"properties":{"ele":"2617","name":"Mirabail","natural":"peak","prominence":"265","source:prominence":"IGN map. Key col: 2352m"}},
{"type":"Feature","geometry":{"type":"Point","coordinates":[1.5006685,42.7706603]},"properties":{"historic":"memorial","memorial":"war_memorial","ref:FR:MemorialGenWeb":"47632"}},
{"type":"Feature","geometry":{"type":"Point","coordinates":[1.5456612,42.769678999999999]},"properties":{"denomination":"catholic","historic":"wayside_cross","religion":"christian"}},
{"type":"Feature","geometry":{"type":"Point","coordinates":[1.545516,42.7696542]},"properties":{"historic":"memorial","memorial":"war_memorial","ref:FR:MemorialGenWeb":"52702"}},
{"type":"Feature","geometry":{"type":"Point","coordinates":[1.5025487,42.763234]},"properties":{"board_type":"notice","description":"Fin de la Via Ferrata / 40 min de retour à pied","information":"board","tourism":"information"}},
{"type":"Feature","geometry":{"type":"Point","coordinates":[1.7326413,42.6078723]},"properties":{"ele":"2670","name":"Cylindre d'Escobes","natural":"peak"}},
{"type":"Feature","geometry":{"type":"Point","coordinates":[1.5092326,42.7640422]},"properties":{"ele":"1373","name":"Pic de Risoul","natural":"peak","wikidata":"Q3382383"}},
{"type":"Feature","geometry":{"type":"Point","coordinates":[1.5174723,42.748592]},"properties":{"ele":"1674","name":"Pic du Besset","natural":"peak"}},
{"type":"Feature","geometry":{"type":"Point","coordinates":[1.5796331,42.7139763]},"properties":{"ele":"2288","name":"Pic de Baljésou","natural":"peak","wikidata":"Q3382349"}},
{"type":"Feature","geometry":{"type":"Point","coordinates":[1.6005067,42.6869546]},"properties":{"ele":"2464","name":"Pic de Mille Roques","natural":"peak"}},
{"type":"Feature","geometry":{"type":"Point","coordinates":[1.5959681,42.6851175]},"properties":{"ele":"2491","name":"Pic du Pas de Chien","natural":"peak"}},
{"type":"Feature","geometry":{"type":"Point","coordinates":[1.6009728,42.6710749]},"properties":{"ele":"2561","name":"Pic de la Sabine","natural":"peak","wikidata":"Q3382410"}},
{"type":"Feature","geometry":{"type":"Point","coordinates":[1.5459435,42.7146961]},"properties":{"ele":"1976","name":"Pic du Taychou","natural":"peak"}},
{"type":"Feature","geometry":{"type":"Point","coordinates":[1.5663572,42.7238769]},"properties":{"ele":"2003","name":"Pic du Midi de Siguer","natural":"peak","wikidata":"Q3382429"}},
{"type":"Feature","geometry":{"type":"Point","coordinates":[1.5574599,42.6974914]},"properties":{"ele":"2421","name":"Pic de Cancel","natural":"peak"}},
{"type":"Feature","geometry":{"type":"Point","coordinates":[1.5538611,42.6952137]},"properties":{"ele":"2408","name":"Pic de Neych","natural":"peak"}},
{"type":"Feature","geometry":{"type":"Point","coordinates":[1.5045762,42.7261241]},"properties":{"ele":"2183","name":"Pijol des Enroucades","natural":"peak"}},
{"type":"Feature","geometry":{"type":"Point","coordinates":[1.5915155,42.7000998]},"properties":{"ele":"2380","name":"Pic de Béze","natural":"peak"}},
{"type":"Feature","geometry":{"type":"Point","coordinates":[1.5907967,42.7187839]},"properties":{"ele":"2114","name":"Cap de la Serre de Font Cendrasse","natural":"peak"}},
{"type":"Feature","geometry":{"type":"Point","coordinates":[1.5983391,42.7103492]},"properties":{"ele":"2205","name":"Cap de la Tose d'en Carniès","natural":"peak"}},
{"type":"Feature","geometry":{"type":"Point","coordinates":[1.5934038,42.7227092]},"properties":{"ele":"2185","name":"La Calbe","natural":"peak","wikidata":"Q3206995"}},
{"type":"Feature","geometry":{"type":"Point","coordinates":[1.6098657,42.7243245]},"properties":{"ele":"2072","name":"Cap de la Serre de l'Escalier","natural":"peak"}},
{"type":"Feature","geometry":{"type":"Point","coordinates":[1.6059994,42.7185159]},"properties":{"ele":"2090","name":"Cap de la Serre des Afumats","natural":"peak"}},
{"type":"Feature","geometry":{"type":"Point","coordinates":[1.6327002,42.7112101]},"properties":{"ele":"1922","name":"Massayre","natural":"peak"}},
{"type":"Feature","geometry":{"type":"Point","coordinates":[1.6791916,42.7418908]},"properties":{"ele":"1738","name":"Sarrat des Auzels","natural":"peak"}},
{"type":"Feature","geometry":{"type":"Point","coordinates":[1.7097555,42.6164609]},"properties":{"ele":"2493","name":"Pic Negre de Juclar","natural":"peak"}},
{"type":"Feature","geometry":{"type":"Point","coordinates":[1.7184103,42.6507164]},"properties":{"ele":"2378","name":"Pic de Pradel","natural":"peak"}},
{"type":"Feature","geometry":{"type":"Point","coordinates":[1.6612479,42.6869253]},"properties":{"ele":"2092","name":"Pic du Col de Gos","natural":"peak"}},
{"type":"Feature","geometry":{"type":"Point","coordinates":[1.6567493,42.6507311]},"properties":{"name":"Pic de Riet","natural":"peak"}},
{"type":"Feature","geometry":{"type":"Point","coordinates":[1.5849065,42.7764404]},"properties":{"name":"Bouiche de Gestiès","natural":"peak"}},
{"type":"Feature","geometry":{"type":"Point","coordinates":[1.5678598,42.7710152]},"properties":{"direction":"180-270","tourism":"viewpoint"}},
{"type":"Feature","geometry":{"type":"Point","coordinates":[1.7259157,42.6298635]},"properties":{"information":"guidepost","mapillary":"811275683131984","tourism":"information"}},
{"type":"Feature","geometry":{"type":"Point","coordinates":[1.7073441,42.6406715]},"properties":{"hiking":"yes","information":"guidepost","mapillary":"835610620710619","tourism":"information"}},
{"type":"Feature","geometry":{"type":"Point","coordinates":[1.7035065,42.6492925]},"properties":{"ele":"1700","hiking":"yes","information":"guidepost","mapillary":"519050435924374","name":"Pla de las Peyres","tourism":"information"}},
{"type":"Feature","geometry":{"type":"Point","coordinates":[1.7260028,42.6378736]},"properties":{"hiking":"yes","information":"guidepost","mapillary":"218629713358731","tourism":"information"}},
{"type":"Feature","geometry":{"type":"Point","coordinates":[1.7283535,42.6405321]},"properties":{"hiking":"yes","information":"guidepost","mapillary":"159943789392123","tourism":"information"}},
{"type":"Feature","geometry":{"type":"Point","coordinates":[1.7327122,42.6417667]},"properties":{"ele":"2304","hiking":"yes","information":"guidepost","mapillary":"296697415397484","name":"Col de Terre Negre","tourism":"information"}},
{"type":"Feature","geometry":{"type":"Point","coordinates":[1.5987464,42.7920992]},"properties":{"addr:postcode":"09400","name":"Église Saint-Hilaire","name:es":"Iglesia de San Hilario (s.X)","tourism":"attraction"}},
{"type":"Feature","geometry":{"type":"Point","coordinates":[1.7056332,42.7948315]},"properties":{"description":"source : geoportail.gouv.fr IGN 2017","ele":"1153","name":"Sommet de Crouzille","natural":"peak","source":"survey;ign 2018"}},
{"type":"Feature","geometry":{"type":"Point","coordinates":[1.703212,42.7969212]},"properties":{"ele":"1089","name":"Le Grand Simbal","natural":"peak"}},
{"type":"Feature","geometry":{"type":"Point","coordinates":[1.699063,42.7990741]},"properties":{"description":"Pas de Toulzan , 956 m altitude","ele":"956","name":"Pas de Toulzan","natural":"saddle"}},
{"type":"Feature","geometry":{"type":"Point","coordinates":[1.6756081,42.7931755]},"properties":{"email":"villavictoirepyrenees@gmail.com","internet_access:fee":"no","name":"Villa Victoire","rooms":"5","smoking":"outside","tourism":"guest_house","website":"https://www.villavictoire-pyrenees.com/"}},
{"type":"Feature","geometry":{"type":"Point","coordinates":[1.7327513,42.7917713]},"properties":{"information":"guidepost","mapillary":"872609536627868","tourism":"information"}},
{"type":"Feature","geometry":{"type":"Point","coordinates":[1.7086449,42.7994392]},"properties":{"hiking":"yes","information":"guidepost","mapillary":"251901133354206","tourism":"information"}},
{"type":"Feature","geometry":{"type":"Point","coordinates":[1.7279957,42.7891957]},"properties":{"hiking":"yes","information":"guidepost","tourism":"information"}},
{"type":"Feature","geometry":{"type":"Point","coordinates":[1.5140077,42.8114338]},"properties":{"ele":"1906","name":"Pla de Madame","natural":"peak"}},
{"type":"Feature","geometry":{"type":"Point","coordinates":[1.531886,42.7534262]},"properties":{"leisure":"picnic_table"}},
{"type":"Feature","geometry":{"type":"Point","coordinates":[1.5323541,42.7530549]},"properties":{"leisure":"picnic_table"}},
{"type":"Feature","geometry":{"type":"Point","coordinates":[1.7233414,42.6093292]},"properties":{"natural":"rock"}},
{"type":"Feature","geometry":{"type":"Point","coordinates":[1.7118019,42.6035913]},"properties":{"historic":"memorial","memorial":"stone"}},
{"type":"Feature","geometry":{"type":"Point","coordinates":[1.6854612,42.7874941]},"properties":{"name":"Complexe des Oustalous","tourism":"chalet"}},
{"type":"Feature","geometry":{"type":"Point","coordinates":[1.6626056,42.8075744]},"properties":{"leisure":"sports_centre","name":"Site d'escalade de Sinsat","sport":"climbing"}},
{"type":"Feature","geometry":{"type":"Point","coordinates":[1.5909918,42.6808344]},"properties":{"ele":"2388","name":"Pas du Bouc","natural":"saddle"}},
{"type":"Feature","geometry":{"type":"Point","coordinates":[1.5980144,42.6951506]},"properties":{"name":"La Unarde","natural":"peak"}},
{"type":"Feature","geometry":{"type":"Point","coordinates":[1.6283041,42.710239]},"properties":{"name":"Source de Sazé","natural":"spring"}},
{"type":"Feature","geometry":{"type":"Point","coordinates":[1.5922681,42.673984]},"properties":{"ele":"2423","natural":"saddle"}},
{"type":"Feature","geometry":{"type":"Point","coordinates":[1.6769903,42.622434]},"properties":{"ele":"2679","name":"Tossa de les Mussoles","natural":"peak"}},
{"type":"Feature","geometry":{"type":"Point","coordinates":[1.5149713,42.7527418]},"properties":{"description":"2020-08 : petite source qui coule peu","natural":"spring"}},
{"type":"Feature","geometry":{"type":"Point","coordinates":[1.5730363,42.7665711]},"properties":{"name":"Belvédère de Guestier","name:fr":"Belvédère de Gesties","tourism":"viewpoint"}},
{"type":"Feature","geometry":{"type":"Point","coordinates":[1.6859588,42.7850743]},"properties":{"information":"office","name":"Office de Tourisme des Vallées d'Ax","opening_hours":"Mo-Su 09:00-12:30,15:00-18:30","tourism":"information"}},
{"type":"Feature","geometry":{"type":"Point","coordinates":[1.6813065,42.7826565]},"properties":{"natural":"tree"}},
{"type":"Feature","geometry":{"type":"Point","coordinates":[1.6818939,42.7828681]},"properties":{"natural":"tree"}},
{"type":"Feature","geometry":{"type":"Point","coordinates":[1.6819382,42.7834606]},"properties":{"natural":"tree"}},
{"type":"Feature","geometry":{"type":"Point","coordinates":[1.6819932,42.783999]},"properties":{"natural":"tree"}},
{"type":"Feature","geometry":{"type":"Point","coordinates":[1.6814943,42.7837215]},"properties":{"natural":"tree"}},
{"type":"Feature","geometry":{"type":"Point","coordinates":[1.5703329,42.6711296]},"properties":{"natural":"spring"}},
{"type":"Feature","geometry":{"type":"Point","coordinates":[1.6363215,42.6851344]},"properties":{"capacity":"4","description":"2016-02 : Solide petite bâtisse très bien isolée, en 2 parties : - 1 partie fermée réservée au berger - 1 partie randonneur Équipement intérieur : - 2 Bat-flancs avec matelas - 2 Tables - 2 Chaises - 1 Tabouret - 1 Evier + robinet","ele":"1740","fireplace":"yes","name":"Cabane Rieutort de Gascous","ref:refuges.info":"5425","stove":"no","tourism":"wilderness_hut"}},
{"type":"Feature","geometry":{"type":"Point","coordinates":[1.5907637,42.8097709]},"properties":{"historic":"wayside_cross","source":"IGN - 09/2020"}},
{"type":"Feature","geometry":{"type":"Point","coordinates":[1.5755497,42.7911107]},"properties":{"historic":"wayside_shrine","source":"IGN - 09/2020"}},
{"type":"Feature","geometry":{"type":"Point","coordinates":[1.6015319,42.7789434]},"properties":{"historic":"wayside_cross","source":"IGN - 09/2020"}},
{"type":"Feature","geometry":{"type":"Point","coordinates":[1.6167924,42.7999112]},"properties":{"ele":"1245","name":"Col de Lafajole","natural":"saddle"}},
{"type":"Feature","geometry":{"type":"Point","coordinates":[1.6634268,42.7924178]},"properties":{"ele":"815","name":"Col de Nix","natural":"saddle"}},
{"type":"Feature","geometry":{"type":"Point","coordinates":[1.7322651,42.8083201]},"properties":{"natural":"stone"}},
{"type":"Feature","geometry":{"type":"Point","coordinates":[1.5363189,42.7012745]},"properties":{"name":"Pourtaneille de Gnioure","natural":"saddle"}},
{"type":"Feature","geometry":{"type":"Point","coordinates":[1.5413626,42.70678]},"properties":{"name":"Source de la Coume du Four","natural":"spring"}},
{"type":"Feature","geometry":{"type":"Point","coordinates":[1.6841641999999999,42.7094937]},"properties":{"natural":"spring"}},
{"type":"Feature","geometry":{"type":"Point","coordinates":[1.6145314,42.8011855]},"properties":{"ele":"1320","name":"Pas de la Balme","natural":"peak"}},
{"type":"Feature","geometry":{"type":"Point","coordinates":[1.6254557,42.8013178]},"properties":{"ele":"1100","name":"l'Escalié","natural":"peak"}},
{"type":"Feature","geometry":{"type":"Point","coordinates":[1.635306,42.8030623]},"properties":{"ele":"988","name":"Pic de l'Auriol","natural":"peak"}},
{"type":"Feature","geometry":{"type":"Point","coordinates":[1.6318901,42.8022191]},"properties":{"historic":"wayside_shrine","name":"Oratoire Pémissol"}},
{"type":"Feature","geometry":{"type":"Point","coordinates":[1.620328,42.7919216]},"properties":{"ele":"1265","name":"Roc Darnat","natural":"peak"}},
{"type":"Feature","geometry":{"type":"Point","coordinates":[1.6264649,42.7811336]},"properties":{"ele":"1385","name":"Les Estanils","natural":"peak"}},
{"type":"Feature","geometry":{"type":"Point","coordinates":[1.7201697,42.7307557]},"properties":{"ele":"1776","name":"Jasse de Dédor","natural":"peak"}},
{"type":"Feature","geometry":{"type":"Point","coordinates":[1.7101982,42.7412939]},"properties":{"ele":"1702","name":"Mont Redon","natural":"peak"}},
{"type":"Feature","geometry":{"type":"Point","coordinates":[1.7027192,42.700592]},"properties":{"ele":"1811","name":"Jasse de Toudous","natural":"peak"}},
{"type":"Feature","geometry":{"type":"Point","coordinates":[1.5972408,42.8050618]},"properties":{"name":"Spoulga de Baychon","natural":"cave_entrance"}},
{"type":"Feature","geometry":{"type":"Point","coordinates":[1.5802373,42.8037239]},"properties":{"historic":"Dolmen_de_Quiernès"}},
{"type":"Feature","geometry":{"type":"Point","coordinates":[1.7117947,42.6036033]},"properties":{"tourism":"viewpoint"}},
{"type":"Feature","geometry":{"type":"Point","coordinates":[1.727701,42.6440681]},"properties":{"ele":"2250","name":"Col du Rieutort","natural":"saddle"}},
{"type":"Feature","geometry":{"type":"Point","coordinates":[1.5500713,42.7837854]},"properties":{"bench":"yes","leisure":"picnic_table","lit":"no","material":"wood"}},
{"type":"Feature","geometry":{"type":"Point","coordinates":[1.5395516,42.7717204]},"properties":{"information":"guidepost","tourism":"information"}},
{"type":"Feature","geometry":{"type":"Point","coordinates":[1.5399487,42.769904]},"properties":{"information":"guidepost","tourism":"information"}},
{"type":"Feature","geometry":{"type":"Point","coordinates":[1.5425136,42.7729743]},"properties":{"leisure":"picnic_table","material":"wood"}},
{"type":"Feature","geometry":{"type":"Point","coordinates":[1.5423468,42.7731482]},"properties":{"board_type":"history","information":"board","tourism":"information"}},
{"type":"Feature","geometry":{"type":"Point","coordinates":[1.5419311,42.7731341]},"properties":{"information":"guidepost","tourism":"information"}},
{"type":"Feature","geometry":{"type":"Point","coordinates":[1.5426219,42.77298]},"properties":{"direction":"ESE-SSE","name":"Roche de Barracou","tourism":"viewpoint"}},
{"type":"Feature","geometry":{"type":"Point","coordinates":[1.5678324,42.7196021]},"properties":{"name":"Col de Bayle","natural":"saddle"}},
{"type":"Feature","geometry":{"type":"Point","coordinates":[1.6256717,42.7094815]},"properties":{"name":"Col de l’Orry de Suze","natural":"saddle"}},
{"type":"Feature","geometry":{"type":"Point","coordinates":[1.732129,42.6862132]},"properties":{"name":"Col des finestres","tourism":"attraction"}},
{"type":"Feature","geometry":{"type":"Point","coordinates":[1.7286442,42.63945]},"properties":{"name":"Col de Belh","natural":"saddle"}},
{"type":"Feature","geometry":{"type":"Point","coordinates":[1.5040934,42.7560633]},"properties":{"check_date":"2024-06-25","internet_access":"wlan","name":"Gîte","name:fr":"Relais d'Endron","tourism":"guest_house"}},
{"type":"Feature","geometry":{"type":"Point","coordinates":[1.5193163,42.7666841]},"properties":{"historic":"mine","name":"Mine du Rancié","wikidata":"Q3314912","wikipedia":"fr:Mines de Rancié"}},
{"type":"Feature","geometry":{"type":"Point","coordinates":[1.7032666,42.7024229]},"properties":{"information":"guidepost","tourism":"information"}},
{"type":"Feature","geometry":{"type":"Point","coordinates":[1.7080001,42.7102243]},"properties":{"information":"guidepost","tourism":"information"}},
{"type":"Feature","geometry":{"type":"Point","coordinates":[1.7066482,42.7106757]},"properties":{"leisure":"picnic_table"}},
{"type":"Feature","geometry":{"type":"Point","coordinates":[1.6970728,42.7183182]},"properties":{"leisure":"picnic_table"}},
{"type":"Feature","geometry":{"type":"Point","coordinates":[1.6677061,42.6215424]},"properties":{"name":"Pas de la Portaneille","natural":"saddle"}},
{"type":"Feature","geometry":{"type":"Point","coordinates":[1.6469381,42.7808462]},"properties":{"name":"Source","natural":"spring"}},
{"type":"Feature","geometry":{"type":"Point","coordinates":[1.6485496,42.7807142]},"properties":{"name":"Panneau randonneurs","tourism":"information"}},
{"type":"Feature","geometry":{"type":"Point","coordinates":[1.649228,42.7797076]},"properties":{"name":"Panneau randonneurs","tourism":"information"}},
{"type":"Feature","geometry":{"type":"Point","coordinates":[1.6610185,42.7781668]},"properties":{"name":"Carte","tourism":"information"}},
{"type":"Feature","geometry":{"type":"Point","coordinates":[1.6618741,42.7780001]},"properties":{"name":"Panneau","tourism":"information"}},
{"type":"Feature","geometry":{"type":"Point","coordinates":[1.6622576,42.7804742]},"properties":{"name":"Panneau rando","tourism":"information"}},
{"type":"Feature","geometry":{"type":"Point","coordinates":[1.6599065,42.7787656]},"properties":{"name":"Fontaine de dessus","natural":"spring"}},
{"type":"Feature","geometry":{"type":"Point","coordinates":[1.7498108,42.5845712]},"properties":{"ele":"2691","name":"Cap de la Cometa del Forn","natural":"peak","wikidata":"Q115609594"}},
{"type":"Feature","geometry":{"type":"Point","coordinates":[1.6207095,42.6337635]},"properties":{"natural":"spring"}},
{"type":"Feature","geometry":{"type":"Point","coordinates":[1.6292904,42.7560327]},"properties":{"beds":"3","capacity":"4","description":"2021-03 : Partie droite ouverte pour les randonneurs : 4 places sur 2 bas-flanc superposés avec 3 matelas assez court, 7 chaises, 1 table pliante 1 scie","ele":"1600","fireplace":"yes","name":"Cabane du Besset","ref:refuges.info":"7573","stove":"no","tourism":"wilderness_hut"}},
{"type":"Feature","geometry":{"type":"Point","coordinates":[1.6292576,42.7560712]},"properties":{"natural":"spring"}},
{"type":"Feature","geometry":{"type":"Point","coordinates":[1.706046,42.626638]},"properties":{"camp_site":"basic","name":"Bivouac possible","operator":"Bivouac libre","tourism":"camp_site"}},
{"type":"Feature","geometry":{"type":"Point","coordinates":[1.5832004,42.6457319]},"properties":{"camp_site":"basic","name":"Bivouac possible","tourism":"camp_site"}},
{"type":"Feature","geometry":{"type":"Point","coordinates":[1.6885679,42.7224919]},"properties":{"leisure":"picnic_table"}},
{"type":"Feature","geometry":{"type":"Point","coordinates":[1.6749121,42.7734291]},"properties":{"leisure":"picnic_table"}},
{"type":"Feature","geometry":{"type":"Point","coordinates":[1.6932589,42.7868092]},"properties":{"historic":"ruins"}},
{"type":"Feature","geometry":{"type":"Point","coordinates":[1.6963557,42.786173]},"properties":{"board_type":"history","information":"board","name":"Chemin du Corret","tourism":"information"}},
{"type":"Feature","geometry":{"type":"Point","coordinates":[1.5772784,42.8105615]},"properties":{"name":"Planel de Prat Milou","natural":"peak"}},
{"type":"Feature","geometry":{"type":"Point","coordinates":[1.6885267,42.7920438]},"properties":{"leisure":"picnic_table"}},
{"type":"Feature","geometry":{"type":"Point","coordinates":[1.6884593,42.7921733]},"properties":{"leisure":"picnic_table"}},
{"type":"Feature","geometry":{"type":"Point","coordinates":[1.549665,42.7301098]},"properties":{"information":"map","tourism":"information"}},
{"type":"Feature","geometry":{"type":"Point","coordinates":[1.7154413,42.6073731]},"properties":{"entrance":"yes"}},
{"type":"Feature","geometry":{"type":"Point","coordinates":[1.7157249,42.60733]},"properties":{"entrance":"yes"}},
{"type":"Feature","geometry":{"type":"Point","coordinates":[1.6869726,42.7849809]},"properties":{"natural":"tree","source":"BDOrtho IGN"}},
{"type":"Feature","geometry":{"type":"Point","coordinates":[1.6868445,42.7850006]},"properties":{"natural":"tree","source":"BDOrtho IGN"}},
{"type":"Feature","geometry":{"type":"Point","coordinates":[1.6867649,42.7850152]},"properties":{"natural":"tree","source":"BDOrtho IGN"}},
{"type":"Feature","geometry":{"type":"Point","coordinates":[1.6866619,42.7850298]},"properties":{"natural":"tree","source":"BDOrtho IGN"}},
{"type":"Feature","geometry":{"type":"Point","coordinates":[1.6865062,42.7850514]},"properties":{"natural":"tree","source":"BDOrtho IGN"}},
{"type":"Feature","geometry":{"type":"Point","coordinates":[1.6866654,42.7849262]},"properties":{"natural":"tree","source":"BDOrtho IGN"}},
{"type":"Feature","geometry":{"type":"Point","coordinates":[1.6863774,42.7850626]},"properties":{"natural":"tree","source":"BDOrtho IGN"}},
{"type":"Feature","geometry":{"type":"Point","coordinates":[1.6863657,42.7850006]},"properties":{"natural":"tree","source":"BDOrtho IGN"}},
{"type":"Feature","geometry":{"type":"Point","coordinates":[1.6863417,42.7849364]},"properties":{"natural":"tree","source":"BDOrtho IGN"}},
{"type":"Feature","geometry":{"type":"Point","coordinates":[1.6863478,42.7848812]},"properties":{"natural":"tree","source":"BDOrtho IGN"}},
{"type":"Feature","geometry":{"type":"Point","coordinates":[1.6863504,42.7848208]},"properties":{"natural":"tree","source":"BDOrtho IGN"}},
{"type":"Feature","geometry":{"type":"Point","coordinates":[1.6863296,42.784744]},"properties":{"natural":"tree","source":"BDOrtho IGN"}},
{"type":"Feature","geometry":{"type":"Point","coordinates":[1.6864776,42.7847681]},"properties":{"natural":"tree","source":"BDOrtho IGN"}},
{"type":"Feature","geometry":{"type":"Point","coordinates":[1.5096972,42.7825565]},"properties":{"tourism":"viewpoint"}},
{"type":"Feature","geometry":{"type":"Point","coordinates":[1.674622,42.7737365]},"properties":{"historic":"memorial","memorial":"war_memorial","name":"monument aux morts du bourg","ref:FR:MemorialGenWeb":"69027"}},
{"type":"Feature","geometry":{"type":"Point","coordinates":[1.6712876,42.7737132]},"properties":{"historic":"memorial","memorial":"war_memorial","memorial:conflict":"WW1","name":"Monument aux morts 1914-1918","ref:FR:MemorialGenWeb":"41404"}},
{"type":"Feature","geometry":{"type":"Point","coordinates":[1.6481641,42.799928800000007]},"properties":{"historic":"memorial","memorial":"war_memorial","ref:FR:MemorialGenWeb":"22898"}},
{"type":"Feature","geometry":{"type":"Point","coordinates":[1.5733851,42.7664903]},"properties":{"historic":"memorial","memorial":"war_memorial","ref:FR:MemorialGenWeb":"47620"}},
{"type":"Feature","geometry":{"type":"Point","coordinates":[1.5393913,42.787259]},"properties":{"historic":"memorial","memorial":"war_memorial","ref:FR:MemorialGenWeb":"74694"}},
{"type":"Feature","geometry":{"type":"Point","coordinates":[1.5716924,42.7992255]},"properties":{"historic":"memorial","memorial":"war_memorial","ref:FR:MemorialGenWeb":"47623"}},
{"type":"Feature","geometry":{"type":"Point","coordinates":[1.6313802,42.8004016]},"properties":{"historic":"memorial","memorial":"war_memorial","ref:FR:MemorialGenWeb":"47624"}},
{"type":"Feature","geometry":{"type":"Point","coordinates":[1.5904737,42.8113652]},"properties":{"historic":"memorial","memorial":"war_memorial","ref:FR:MemorialGenWeb":"26918"}},
{"type":"Feature","geometry":{"type":"Point","coordinates":[1.5000596,42.7685497]},"properties":{"historic":"memorial","memorial":"plaque","name":"plaque des passeurs 1940-1944","ref:FR:MemorialGenWeb":"131581","war_memorial":"yes"}},
{"type":"Feature","geometry":{"type":"Point","coordinates":[1.502631,42.7571738]},"properties":{"historic":"memorial","memorial":"war_memorial","ref:FR:MemorialGenWeb":"55081"}},
{"type":"Feature","geometry":{"type":"Point","coordinates":[1.5180304,42.7683852]},"properties":{"description":"plaque sur le socle de la croix du cimetière","historic":"memorial","memorial":"plaque","ref:FR:MemorialGenWeb":"47930","war_memorial":"yes"}},
{"type":"Feature","geometry":{"type":"Point","coordinates":[1.6872773,42.7964171]},"properties":{"historic":"memorial","memorial":"war_memorial","ref:FR:MemorialGenWeb":"32464"}},
{"type":"Feature","geometry":{"type":"Point","coordinates":[1.565657,42.7623572]},"properties":{"tourism":"chalet"}},
{"type":"Feature","geometry":{"type":"Point","coordinates":[1.6556553,42.8032381]},"properties":{"height":"30m","name":"Secteur de la lame décolée","natural":"cliff"}},
{"type":"Feature","geometry":{"type":"Point","coordinates":[1.6553408,42.8031893]},"properties":{"height":"25","name":"Secteur \"C'est à Voir\"","natural":"cliff"}},
{"type":"Feature","geometry":{"type":"Point","coordinates":[1.672713,42.7775014]},"properties":{"denomination":"roman_catholic","historic":"wayside_shrine","religion":"christian"}},
{"type":"Feature","geometry":{"type":"Point","coordinates":[1.6762547,42.7806734]},"properties":{"leisure":"picnic_table"}},
{"type":"Feature","geometry":{"type":"Point","coordinates":[1.6762376,42.7808035]},"properties":{"leisure":"picnic_table"}},
{"type":"Feature","geometry":{"type":"Point","coordinates":[1.5311717,42.7045553]},"properties":{"direction":"180","information":"map","map_type":"toposcope","tourism":"viewpoint"}},
{"type":"Feature","geometry":{"type":"Point","coordinates":[1.7265845,42.6348439]},"properties":{"name":"Source d'eau","natural":"spring"}},
{"type":"Feature","geometry":{"type":"Point","coordinates":[1.7068897,42.6266937]},"properties":{"camp_site":"basic","name":"Bivouac possible","operator":"Bivouac libre","tourism":"camp_site"}},
{"type":"Feature","geometry":{"type":"Point","coordinates":[1.7049483,42.6194353]},"properties":{"ele":"2262","hiking":"yes","information":"guidepost","name":"Port de Fontargente","tourism":"information"}},
{"type":"Feature","geometry":{"type":"Point","coordinates":[1.7258902,42.6302767]},"properties":{"hiking":"yes","information":"guidepost","material":"wood","tourism":"information"}},
{"type":"Feature","geometry":{"type":"Point","coordinates":[1.5521915,42.8036536]},"properties":{"denotation":"natural_monument","genus":"Fagus","genus:fr":"hêtre","height":"20","leaf_type":"broadleaved","natural":"tree"}},
{"type":"Feature","geometry":{"type":"Point","coordinates":[1.5002408,42.7685687]},"properties":{"information":"map","tourism":"information"}},
{"type":"Feature","geometry":{"type":"Point","coordinates":[1.5013594,42.7684061]},"properties":{"natural":"tree"}},
{"type":"Feature","geometry":{"type":"Point","coordinates":[1.5007854,42.7685285]},"properties":{"natural":"tree"}},
{"type":"Feature","geometry":{"type":"Point","coordinates":[1.5009059,42.7686027]},"properties":{"natural":"tree"}},
{"type":"Feature","geometry":{"type":"Point","coordinates":[1.501638,42.76838]},"properties":{"natural":"tree"}},
{"type":"Feature","geometry":{"type":"Point","coordinates":[1.5015442,42.7683891]},"properties":{"natural":"tree"}},
{"type":"Feature","geometry":{"type":"Point","coordinates":[1.501514,42.7682914]},"properties":{"access":"yes","capacity":"3","tourism":"picnic_site"}},
{"type":"Feature","geometry":{"type":"Point","coordinates":[1.5013514,42.7683807]},"properties":{"bench":"yes","leisure":"picnic_table","material":"wood"}},
{"type":"Feature","geometry":{"type":"Point","coordinates":[1.5015907,42.768375]},"properties":{"bench":"yes","leisure":"picnic_table","material":"wood"}},
{"type":"Feature","geometry":{"type":"Point","coordinates":[1.5013961,42.7683257]},"properties":{"bench":"yes","leisure":"picnic_table","material":"wood"}},
{"type":"Feature","geometry":{"type":"Point","coordinates":[1.5018118,42.7685646]},"properties":{"natural":"tree"}},
{"type":"Feature","geometry":{"type":"Point","coordinates":[1.5000858,42.7699753]},"properties":{"natural":"tree"}},
{"type":"Feature","geometry":{"type":"Point","coordinates":[1.5005753,42.770623]},"properties":{"natural":"tree"}},
{"type":"Feature","geometry":{"type":"Point","coordinates":[1.5004394,42.7706838]},"properties":{"bench":"yes","leisure":"picnic_table","material":"wood"}},
{"type":"Feature","geometry":{"type":"Point","coordinates":[1.5003729,42.770689]},"properties":{"historic":"wayside_cross"}},
{"type":"Feature","geometry":{"type":"Point","coordinates":[1.7340675,42.7964216]},"properties":{"leisure":"sports_centre","sport":"climbing"}},
{"type":"Feature","geometry":{"type":"Point","coordinates":[1.6646198,42.8008945]},"properties":{"leisure":"picnic_table","material":"concrete"}},
{"type":"Feature","geometry":{"type":"Point","coordinates":[1.6646983,42.8008644]},"properties":{"leisure":"picnic_table","material":"concrete"}},
{"type":"Feature","geometry":{"type":"Point","coordinates":[1.6719301,42.6391026]},"properties":{"backcountry":"yes","name":"Bivouac","tourism":"camp_site"}},
{"type":"Feature","geometry":{"type":"Point","coordinates":[1.5342053,42.759445]},"properties":{"ele":"1685","name":"Pic de la Bède","natural":"peak"}},
{"type":"Feature","geometry":{"type":"Point","coordinates":[1.6151386,42.8065701]},"properties":{"ele":"1416","name":"Pic de Baychon","natural":"peak"}},
{"type":"Feature","geometry":{"type":"Point","coordinates":[1.6132471,42.7493559]},"properties":{"ele":"1905","name":"Pla de Montcamp","natural":"peak"}},
{"type":"Feature","geometry":{"type":"Point","coordinates":[1.7257346,42.7854318]},"properties":{"ele":"1233","name":"Rocher du Courbas","natural":"peak"}},
{"type":"Feature","geometry":{"type":"Point","coordinates":[1.5174688,42.7700958]},"properties":{"historic":"mine","name":"Le carreau - mine de Rancié"}},
{"type":"Feature","geometry":{"type":"Point","coordinates":[1.5177978,42.7722222]},"properties":{"historic":"mine","name":"Trémie - Mine de Rancié"}},
{"type":"Feature","geometry":{"type":"Point","coordinates":[1.691269,42.7273116]},"properties":{"amenity":"parking"}},
{"type":"Feature","geometry":{"type":"Point","coordinates":[1.5723927,42.8010461]},"properties":{"natural":"tree"}},
{"type":"Feature","geometry":{"type":"Point","coordinates":[1.5720253,42.8002215]},"properties":{"natural":"tree"}},
{"type":"Feature","geometry":{"type":"Point","coordinates":[1.5719756,42.7994864]},"properties":{"natural":"tree"}},
{"type":"Feature","geometry":{"type":"Point","coordinates":[1.571804,42.7991302]},"properties":{"natural":"tree"}},
{"type":"Feature","geometry":{"type":"Point","coordinates":[1.5912184,42.7962592]},"properties":{"leisure":"picnic_table"}},
{"type":"Feature","geometry":{"type":"Point","coordinates":[1.6545873,42.7842911]},"properties":{"leisure":"picnic_table"}},
{"type":"Feature","geometry":{"type":"Point","coordinates":[1.621756,42.7946959]},"properties":{"information":"route_marker","tourism":"information"}},
{"type":"Feature","geometry":{"type":"Point","coordinates":[1.6870463,42.7960938]},"properties":{"information":"board","tourism":"information"}},
{"type":"Feature","geometry":{"type":"Point","coordinates":[1.6878221,42.796701]},"properties":{"information":"board","tourism":"information"}},
{"type":"Feature","geometry":{"type":"Point","coordinates":[1.5963336,42.8039942]},"properties":{"leisure":"sports_centre","name":"Baychon","sport":"climbing","website":"https://topo-escalade-cafma.fr/sites-escalade/baychon/"}},
{"type":"Feature","geometry":{"type":"Point","coordinates":[1.655174,42.8031789]},"properties":{"leisure":"sports_centre","sport":"climbing"}},
{"type":"Feature","geometry":{"type":"Point","coordinates":[1.6557489,42.80326]},"properties":{"leisure":"sports_centre","sport":"climbing"}},
{"type":"Feature","geometry":{"type":"Point","coordinates":[1.5397292,42.7876559]},"properties":{"leisure":"playground","source":"survey"}},
{"type":"Feature","geometry":{"type":"Point","coordinates":[1.5324221,42.7642584]},"properties":{"ele":"1597","name":"pic de Ganchette","natural":"peak"}},
{"type":"Feature","geometry":{"type":"Point","coordinates":[1.6517361,42.7047555]},"properties":{"name":"Roc de Juel","natural":"rock"}},
{"type":"Feature","geometry":{"type":"Point","coordinates":[1.6512248,42.7046543]},"properties":{"natural":"peak"}},
{"type":"Feature","geometry":{"type":"Point","coordinates":[1.6713491,42.7102714]},"properties":{"name":"Finestre","natural":"peak"}},
{"type":"Feature","geometry":{"type":"Point","coordinates":[1.6968724,42.7192375]},"properties":{"ele":"1891","name":"Piparlon","natural":"peak"}},
{"type":"Feature","geometry":{"type":"Point","coordinates":[1.7113539,42.7226585]},"properties":{"ele":"1836","name":"l'Estagnol","natural":"peak"}},
{"type":"Feature","geometry":{"type":"Point","coordinates":[1.6809093,42.7472196]},"properties":{"ele":"1606","name":"Pierrefitte","natural":"peak"}},
{"type":"Feature","geometry":{"type":"Point","coordinates":[1.5649341,42.8065614]},"properties":{"ele":"1276","name":"la Serre","natural":"peak"}},
{"type":"Feature","geometry":{"type":"Point","coordinates":[1.5556116,42.8043052]},"properties":{"ele":"1315","name":"Mèdiès","natural":"peak"}},
{"type":"Feature","geometry":{"type":"Point","coordinates":[1.5499461,42.7950052]},"properties":{"ele":"1259","name":"Pic de Montaut","natural":"peak"}},
{"type":"Feature","geometry":{"type":"LineString","coordinates":[[1.7384087,42.6117099],[1.7358522,42.6093963],[1.7356452,42.6092126],[1.7338747,42.6075698],[1.7335135,42.6059254],[1.732985,42.603519],[1.7302129,42.6004497],[1.727676,42.6010001],[1.7270214,42.5968441],[1.7270029,42.5919231],[1.7263033,42.5913994],[1.7268159,42.5898819],[1.7268146,42.5890618],[1.7276538,42.5882686]]},"properties":{"admin_level":"2","border_type":"nation","boundary":"administrative","name":"France - Andorra","name:ca":"França - Andorra","name:en":"France - Andorra","name:es":"Francia - Andorra","name:fr":"France - Andorre","name:oc":"França - Andòrra","name:pt":"França - Andorra","name:ru":"Франция - Андорра","source":"cadastre-dgi-fr source : Direction Générale des Impôts - Cadastre. Mise à jour : 2011"}},
{"type":"Feature","geometry":{"type":"LineString","coordinates":[[1.5841417,42.6460763],[1.5839403,42.646077],[1.5837715,42.6461837],[1.5833871,42.6461578],[1.5832601,42.6461877],[1.5831423,42.6462601],[1.5828386,42.6462363],[1.5828205,42.6462905],[1.5827894,42.6463838],[1.5830353,42.6465117],[1.5830738,42.646554],[1.5833507,42.6465013],[1.5835118,42.646532],[1.5836052,42.6465992],[1.5837807,42.6466154],[1.5839403,42.6467478],[1.5844031,42.6470844],[1.5844789,42.6471379],[1.5846034,42.6472257],[1.5848082,42.6471234],[1.5851177,42.6471865],[1.5852512,42.6471549],[1.5857632,42.646812],[1.5862898,42.6466905],[1.586534,42.6463161],[1.5865668,42.6462658],[1.5866028,42.6460575],[1.5865513,42.6458637],[1.5863792,42.6456341],[1.5862303,42.6455054],[1.5862082,42.645295],[1.5864528,42.6452743],[1.5870864,42.6450044],[1.5871644,42.6449473],[1.5876882,42.644564],[1.5877964,42.6443279],[1.5876882,42.6441705],[1.5872649,42.6441451],[1.585888,42.6440623],[1.5854159,42.644082],[1.5850152,42.6443897],[1.5848181,42.6447972],[1.5845299,42.6449413],[1.5841457,42.6450854],[1.5840329,42.6451686],[1.5840187,42.6452582],[1.5841827,42.6453858],[1.5843932,42.6455122],[1.5844763,42.6457378],[1.5849142,42.6458059],[1.5849985,42.6459337],[1.5851125,42.6459547],[1.5850912,42.6460562],[1.5849471,42.6461211],[1.5847681,42.6461255],[1.5845568,42.6461408],[1.5844271,42.6462024],[1.5842481,42.64613],[1.5841417,42.6460763]]},"properties":{"name":"Étang de Soulanet","natural":"water","water":"lake"}},
{"type":"Feature","geometry":{"type":"LineString","coordinates":[[1.5686793,42.6529528],[1.5686278,42.6529717],[1.5686106,42.6530033],[1.5686535,42.6530286],[1.5686964,42.6530286],[1.5686793,42.6529528]]},"properties":{"created_by":"Potlatch 0.9c","natural":"water","note":"A pond, actually"}},
{"type":"Feature","geometry":{"type":"LineString","coordinates":[[1.5687804,42.6537668],[1.5687897,42.6537879],[1.568876,42.6537979],[1.569026,42.653935],[1.569093,42.653943],[1.569241,42.654075],[1.569431,42.654365],[1.569795,42.654565],[1.56982,42.654625],[1.569729,42.654901],[1.570003,42.654953],[1.570396,42.655113],[1.57103,42.655428],[1.571416,42.655725],[1.57178,42.655896],[1.571971,42.655931],[1.572138,42.655906],[1.5723,42.655955],[1.572361,42.656116],[1.572606,42.656325],[1.573003,42.656416],[1.573143,42.656393],[1.573205,42.656658],[1.573521,42.656945],[1.573805,42.65699],[1.574325,42.656948],[1.574555,42.657028],[1.57478,42.656861],[1.574805,42.65681],[1.57504,42.656548],[1.574961,42.65635],[1.5751,42.656223],[1.575303,42.655901],[1.575156,42.6557],[1.575081,42.655476],[1.575166,42.655306],[1.575295,42.655256],[1.575298,42.655178],[1.575221,42.655153],[1.575178,42.655051],[1.575271,42.65498],[1.575063,42.654886],[1.575035,42.654775],[1.574836,42.654586],[1.574915,42.654452],[1.574691,42.654053],[1.574701,42.653893],[1.574621,42.653838],[1.574711,42.65375],[1.574656,42.65373],[1.574676,42.653703],[1.574596,42.653676],[1.574488,42.65348],[1.574346,42.653404],[1.574234,42.65326],[1.574019,42.6532],[1.573971,42.653128],[1.573741,42.653113],[1.573588,42.65305],[1.573321,42.652778],[1.573371,42.652683],[1.573195,42.652583],[1.572878,42.652563],[1.572738,42.652491],[1.572171,42.652431],[1.571851,42.652415],[1.571175,42.652625],[1.570949,42.652615],[1.5708336,42.6525488],[1.5707649,42.6525425],[1.570456,42.652441],[1.57031,42.652533],[1.569403,42.652436],[1.568953,42.652622],[1.568911,42.652773],[1.56878,42.65285],[1.5687393,42.6529023],[1.5687222,42.6529844],[1.5687479,42.6530601],[1.5687307,42.6531296],[1.5687737,42.6531927],[1.568815,42.653351],[1.568683,42.653648],[1.5687222,42.6536851],[1.5688238,42.6536413],[1.5688707,42.653696],[1.5688225,42.6537439],[1.5687804,42.6537668]]},"properties":{"ele":"2290","name":"Étang Blaou","name:ca":"Estany Blau","name:en":"Blue Lake","name:fr":"Étang Blaou","natural":"water","source":"GPS Survey","wikidata":"Q49316549"}},
{"type":"Feature","geometry":{"type":"LineString","coordinates":[[1.501,42.688],[1.500984,42.6879273],[1.5010174,42.68782],[1.5010661,42.6877217],[1.5010691,42.6876703],[1.5011087,42.6875429],[1.501136,42.6874088],[1.5012364,42.687183],[1.5012729,42.6870109],[1.5012881,42.6866622],[1.5012881,42.6864052],[1.501358,42.6863136],[1.50125,42.686],[1.5008411,42.6855201],[1.5005309,42.68512],[1.5004975,42.6849859],[1.5004732,42.6848675],[1.5004002,42.6847915],[1.50025,42.68475],[1.4997381,42.6848036],[1.4993702,42.6848214],[1.4992364,42.6848505],[1.4991695,42.6848572],[1.4991482,42.6848125],[1.4991695,42.6847387],[1.4992121,42.6846784],[1.4992425,42.684627],[1.4992212,42.684589],[1.4991421,42.684551],[1.4988472,42.6845689],[1.4987043,42.6845622],[1.4985696,42.6845294],[1.498432,42.6844567],[1.49826,42.6844188],[1.4980192,42.6844409],[1.4976795,42.6845184],[1.4974989,42.6845152],[1.4971893,42.684795],[1.4969528,42.6849325],[1.4968474,42.6850162],[1.4968259,42.6851284],[1.4968238,42.6852233],[1.4968797,42.6853497],[1.4968754,42.685454],[1.4967958,42.6855947],[1.4966432,42.6858475],[1.4965529,42.6860056],[1.4963723,42.6861178],[1.4962175,42.6862363],[1.4960304,42.6864355],[1.4958778,42.6865303],[1.4956886,42.6865998],[1.4955058,42.686671],[1.4952693,42.6868227],[1.4951575,42.6869175],[1.4950758,42.687025],[1.4950543,42.6870961],[1.4951339,42.6871814],[1.4951468,42.6872668],[1.4950909,42.6874833],[1.4948715,42.6882692],[1.4950114,42.6885351],[1.495054,42.6888436],[1.4951391,42.6890134],[1.4951665,42.6892056],[1.4952364,42.6895409],[1.4953276,42.6898203],[1.4953428,42.6900437],[1.4954401,42.690303],[1.495577,42.6905041],[1.4957533,42.6906204],[1.4957959,42.6906829],[1.4958841,42.6908394],[1.4960087,42.6909645],[1.4962246,42.6910584],[1.4963341,42.6911232],[1.4964131,42.6912216],[1.4964466,42.6915054],[1.4964831,42.6917445],[1.4964101,42.691939],[1.4963554,42.6923859],[1.4963326,42.692555],[1.4964156,42.692563],[1.4964817,42.6926164],[1.4964753,42.6926954],[1.497213,42.6927789],[1.4981512,42.6928971],[1.4980255,42.6927793],[1.4980376,42.692643],[1.4980985,42.6925648],[1.498214,42.692491],[1.4984056,42.6923949],[1.4985211,42.6923055],[1.4985606,42.6922161],[1.4985576,42.6921603],[1.4985241,42.6921312],[1.4984147,42.6920753],[1.4983539,42.6920172],[1.4983295,42.6919033],[1.4983812,42.6917558],[1.4984785,42.6916842],[1.4985758,42.6916619],[1.4986944,42.6916999],[1.4988039,42.6916999],[1.4989346,42.691653],[1.4991992,42.6914205],[1.4995032,42.691206],[1.4995549,42.6911278],[1.4996036,42.6907791],[1.499634,42.6905534],[1.4996857,42.6903411],[1.4997373,42.6902092],[1.5000292,42.6896862],[1.5002421,42.6893689],[1.5003576,42.6891834],[1.5004641,42.6890001],[1.5005492,42.6888369],[1.5006891,42.6886201],[1.5008046,42.6884324],[1.5009019,42.6882178],[1.501,42.688]]},"properties":{"name":"Étang d'Izourt","natural":"water","water":"reservoir","wikidata":"Q3591662"}},
{"type":"Feature","geometry":{"type":"LineString","coordinates":[[1.5181081,42.7749522],[1.5184749,42.7731693],[1.5213954,42.7719444],[1.5238235,42.7713095],[1.5243947,42.770839],[1.5240068,42.7697066],[1.5241101,42.7681041],[1.5264632,42.7670521],[1.5269783,42.7665325],[1.5276904,42.7658141],[1.5290017,42.7642792],[1.5294395,42.7617879],[1.5268602,42.7617683],[1.5268794,42.760401],[1.5286685,42.7592863],[1.5303431,42.7589442],[1.5303725,42.7585268],[1.530062,42.757633],[1.5288623,42.7569705],[1.5291137,42.7562595],[1.5300918,42.7554945],[1.5299527,42.7539497],[1.5293982,42.7532326],[1.5265796,42.7533055],[1.5257028,42.7540712],[1.524912,42.7558177],[1.5246151,42.7568854],[1.5240848,42.7573271],[1.5231599,42.7571707],[1.5225236,42.7565427],[1.522124,42.7563016],[1.5228575,42.7557133],[1.5230273,42.7551207],[1.5227089,42.75485],[1.5223114,42.7544618],[1.5206692,42.7548287],[1.5200889,42.7559537],[1.5207139,42.7573843],[1.5207796,42.7583942],[1.5199654,42.7589818],[1.5188155,42.7604583],[1.5189552,42.7620042],[1.5172566,42.7624077],[1.5158847,42.7624555],[1.515384,42.7636406],[1.5152106,42.7645307],[1.5132026,42.7639797],[1.5116647,42.7643843],[1.5109336,42.764794],[1.5098965,42.7643398],[1.5086201,42.7639338],[1.5079883,42.7639191],[1.5077708,42.7636638],[1.5075058,42.7635796],[1.5070392,42.7636859],[1.5060265,42.7639834],[1.5048967,42.7640341],[1.5039327,42.7637885],[1.5011978,42.7633517],[1.4998291,42.763222],[1.4982311,42.7631871],[1.4965943,42.7631636],[1.4954044,42.7625337],[1.497191,42.7618229],[1.4992157,42.7610189],[1.5007459,42.7611499],[1.5026816,42.7611056],[1.5039058,42.7600463],[1.5045042,42.7605729],[1.5060764,42.7609715],[1.5072389,42.7587641],[1.5085795,42.7575929],[1.5095206,42.756466],[1.5114671,42.7556492],[1.5121559,42.7546591],[1.5122075,42.754585],[1.5098835,42.7536172],[1.5047883,42.7537626],[1.5047096,42.7540978],[1.504611,42.7550098],[1.5052241,42.7553427],[1.5052236,42.7554756],[1.504627,42.7554671],[1.504451,42.7561792],[1.5048685,42.7564657],[1.503801,42.7573358],[1.5031523,42.758236],[1.5026559,42.7580774],[1.5017843,42.7579258],[1.5023974,42.7573832],[1.5020263,42.7571617],[1.5025137,42.756437],[1.5025322,42.7563576],[1.5025442,42.7555258],[1.5020075,42.7542772],[1.501864,42.7544323],[1.5018759,42.7543152],[1.5018401,42.7542655],[1.5017643,42.754283],[1.5013617,42.7548362],[1.5011943,42.7549241],[1.5010189,42.754848],[1.500975,42.7548948],[1.5011026,42.755085],[1.500995,42.755325],[1.5005087,42.7556558],[1.5003014,42.755928],[1.5002256,42.7561768],[1.499839,42.756048],[1.4992091,42.7561797],[1.4990856,42.7560012],[1.4990617,42.7557143],[1.4987906,42.7556031],[1.4988065,42.7554304],[1.4987388,42.7552548],[1.4988026,42.7551348],[1.4987906,42.7549826],[1.4989819,42.7548099],[1.4993726,42.7548099],[1.4995081,42.7547514],[1.4996995,42.7544938],[1.4998469,42.7543387],[1.4999944,42.7540079],[1.5000901,42.7538791],[1.5001379,42.753683],[1.5006456,42.7530162],[1.5011812,42.7522177],[1.5014758,42.7513892],[1.4983277,42.7519101],[1.497277,42.7528752],[1.4964084,42.7531524],[1.4952284,42.7533148],[1.4939536,42.7532958],[1.4929921,42.7535733],[1.4924696,42.7545583],[1.4926917,42.7553134],[1.4927899,42.7562056],[1.4920525,42.7575582],[1.4915262,42.7579717],[1.4897254,42.7582279],[1.4886069,42.7583459],[1.487954,42.7583474],[1.4871742,42.7579146],[1.4861457,42.7575056],[1.4849033,42.757554],[1.4842244,42.7582323],[1.4835306,42.7587915],[1.4871131,42.7608534],[1.4871875,42.7607617],[1.4872259,42.7607318],[1.4872908,42.7606683],[1.4875812,42.7606947],[1.4876677,42.7607088],[1.4877229,42.7606049],[1.4879966,42.7606507],[1.4879293,42.7608569],[1.4879652,42.7608646],[1.4883422,42.7609362],[1.4887072,42.7612774],[1.4889269,42.7612792],[1.4889918,42.7611926],[1.4891382,42.7611874],[1.4891563,42.76125],[1.4895355,42.7611627],[1.4898966,42.7609513],[1.4898947,42.7606863],[1.4902758,42.7605012],[1.4912947,42.7605288],[1.4917695,42.7605268],[1.492365,42.7605445],[1.4928907,42.7609896],[1.4922336,42.7613933],[1.4919468,42.7616124],[1.4918019,42.7616239],[1.4917503,42.7621011],[1.4910391,42.7621652],[1.4905477,42.7621623],[1.4905769,42.7622897],[1.4902967,42.7623063],[1.4900679,42.7622718],[1.4900166,42.7623544],[1.4895606,42.7623173],[1.4893919,42.7624834],[1.4888442,42.7624276],[1.4887637,42.7624945],[1.4887656,42.7625869],[1.4884505,42.762519],[1.4880715,42.7621341],[1.4880037,42.7617791],[1.4836246,42.7622266],[1.4855622,42.7637679],[1.4867264,42.7646944],[1.4872201,42.7653664],[1.4877795,42.7654433],[1.4886135,42.7652653],[1.4895291,42.7650012],[1.4902636,42.7645915],[1.491969,42.7636675],[1.49259,42.7633618],[1.4928922,42.763479],[1.4936408,42.7637173],[1.4938237,42.7647524],[1.4938498,42.7655764],[1.4939942,42.765958],[1.4944219,42.7663292],[1.4949622,42.7666909],[1.4954679,42.7665456],[1.4960685,42.7668479],[1.4969587,42.7669829],[1.4975161,42.7672485],[1.4979933,42.7673165],[1.4986086,42.7675307],[1.4989843,42.7677774],[1.4991433,42.7680738],[1.501838,42.7681137],[1.5031224,42.7683293],[1.5033672,42.7686565],[1.504514,42.7690961],[1.5055666,42.7698396],[1.5056612,42.7700622],[1.5061568,42.770083],[1.5059417,42.771002],[1.5071847,42.7715169],[1.5076404,42.7706593],[1.5101706,42.7715828],[1.5096675,42.7726657],[1.5097195,42.7726861],[1.5101289,42.7728466],[1.5108496,42.7731789],[1.5112092,42.7734489],[1.511284,42.7738661],[1.5115887,42.7745386],[1.5114785,42.7748497],[1.5114095,42.775171],[1.5114164,42.7755681],[1.5115164,42.7758463],[1.5116518,42.7757639],[1.5117172,42.7754756],[1.511955,42.7752074],[1.5122376,42.7749115],[1.5123754,42.774828],[1.5125994,42.774828],[1.5127924,42.7748761],[1.5128475,42.7750911],[1.5128854,42.7751417],[1.5131473,42.7750102],[1.5133403,42.7752454],[1.5134436,42.7754174],[1.5135022,42.7755793],[1.5134746,42.7757487],[1.5135401,42.7759131],[1.5137262,42.775989],[1.5139777,42.7760067],[1.5142121,42.7759789],[1.5144188,42.7759587],[1.5147879,42.7759055],[1.5151631,42.7758482],[1.5149487,42.7757445],[1.5146807,42.7757051],[1.5144774,42.7756425],[1.5141294,42.7755691],[1.5139295,42.7755691],[1.5137917,42.7754756],[1.5136263,42.7753263],[1.5134919,42.7751923],[1.5133919,42.7751467],[1.513354,42.7750633],[1.513323,42.7749292],[1.5137124,42.7747547],[1.5138606,42.7745523],[1.514201,42.7746567],[1.5145387,42.7747124],[1.5151383,42.7747655],[1.5156489,42.7747849],[1.5158033,42.7747908],[1.5165201,42.7748313],[1.5181081,42.7749522]]},"properties":{"natural":"scrub","source":"Union européenne - SOeS, CORINE Land Cover, 2006."}},
{"type":"Feature","geometry":{"type":"LineString","coordinates":[[1.6307271,42.7803442],[1.6297766,42.7792387],[1.6294008,42.7779463],[1.629084,42.777238],[1.6300928,42.7765699],[1.6314006,42.7768009],[1.6328759,42.775734],[1.6322948,42.7752698],[1.6341526,42.7743312],[1.6344269,42.7743954],[1.6354594,42.7746373],[1.6373675,42.775008],[1.6381797,42.7747663],[1.638625,42.7753126],[1.6406317,42.7762307],[1.6406757,42.7767508],[1.6416075,42.7771431],[1.6420793,42.7773909],[1.6422247,42.7779116],[1.6425205,42.7784704],[1.643324,42.7786991],[1.64449,42.7791333],[1.6448029,42.7790276],[1.6464159,42.7786092],[1.6479111,42.7786031],[1.6484884,42.7788808],[1.6489881,42.7792186],[1.6494952,42.7789984],[1.650103,42.778706],[1.6507565,42.7788584],[1.6512579,42.7791221],[1.6518234,42.7780861],[1.6519208,42.7773962],[1.6517694,42.7763399],[1.6511634,42.776239],[1.6506127,42.7761472],[1.6497568,42.7760295],[1.6483484,42.7757981],[1.6471912,42.7756424],[1.6467401,42.7754531],[1.6465933,42.7750446],[1.6469523,42.7745271],[1.6471613,42.7739334],[1.6459939,42.7734261],[1.645458,42.7730691],[1.6452632,42.7724739],[1.6443117,42.7719468],[1.6439914,42.771782],[1.6427093,42.7711202],[1.6423989,42.7717862],[1.6421916,42.7722305],[1.6414313,42.7725972],[1.640825,42.7727044],[1.6401741,42.7724026],[1.6402805,42.7719205],[1.6400332,42.7715114],[1.6395288,42.7715822],[1.6389669,42.7721724],[1.6385188,42.7720538],[1.6384015,42.7723023],[1.6374724,42.7727644],[1.6368454,42.7721259],[1.6367449,42.7709902],[1.6349698,42.7700905],[1.6360048,42.7694405],[1.6357048,42.7684191],[1.6350403,42.767987],[1.6348243,42.7673939],[1.6353205,42.7669369],[1.6357267,42.7666106],[1.6366375,42.766016],[1.6374522,42.7655132],[1.6367983,42.7648505],[1.6368074,42.7640983],[1.6365425,42.7634947],[1.6339373,42.7650323],[1.6336553,42.7658328],[1.6316748,42.7663714],[1.6300118,42.7632008],[1.6292724,42.7624436],[1.6283405,42.7607323],[1.6264479,42.7596665],[1.6263296,42.7582113],[1.6253144,42.7577531],[1.6240288,42.7571427],[1.6249277,42.7559952],[1.6244594,42.7553401],[1.6232456,42.7544293],[1.6214906,42.753264],[1.6215291,42.7501549],[1.6204478,42.7495458],[1.6181219,42.7505331],[1.6165625,42.7500712],[1.6151418,42.7494097],[1.6141336,42.7483998],[1.6145544,42.7473996],[1.615522,42.7462025],[1.6167548,42.7455589],[1.6173803,42.74451],[1.6176668,42.7433584],[1.6176181,42.7418034],[1.6192652,42.7406611],[1.6206752,42.7421751],[1.6218219,42.7429852],[1.6228381,42.7433431],[1.6246682,42.743907],[1.6266915,42.7453749],[1.6269577,42.7463187],[1.6281365,42.7464384],[1.6274054,42.7473948],[1.629849,42.7481529],[1.6307431,42.7492849],[1.6317617,42.7503863],[1.6326607,42.751122],[1.6336845,42.7517979],[1.6341773,42.7519841],[1.6344175,42.7525942],[1.6341725,42.7532103],[1.6343338,42.7536323],[1.6340659,42.7543859],[1.6365122,42.7568663],[1.6363621,42.7579942],[1.6373233,42.7588947],[1.6380088,42.7594823],[1.6388603,42.7585591],[1.6394356,42.7576479],[1.6390109,42.7555734],[1.638891,42.7555549],[1.6386639,42.7543061],[1.6381981,42.7528178],[1.6380504,42.751748],[1.639592,42.7509262],[1.6405593,42.7509325],[1.641763,42.7513558],[1.6425623,42.7518954],[1.6434454,42.7522582],[1.6441719,42.7521439],[1.6449862,42.7514363],[1.6452398,42.750487],[1.6460668,42.7487107],[1.647039,42.7483005],[1.6480098,42.7480104],[1.6485812,42.7474202],[1.6491554,42.746592],[1.6482711,42.7464078],[1.6464967,42.7464558],[1.6459424,42.7456798],[1.645058,42.7454361],[1.6438437,42.7459042],[1.6427923,42.7461937],[1.6424637,42.7467271],[1.6417337,42.7470782],[1.6413236,42.7476694],[1.6401129,42.74784],[1.6393143,42.7471814],[1.6393293,42.7459342],[1.6391044,42.7445664],[1.6383058,42.7439078],[1.637668,42.7433681],[1.6376752,42.7427743],[1.6388037,42.7427222],[1.6397672,42.743026],[1.6410615,42.7426774],[1.6403423,42.7421383],[1.6387446,42.7409996],[1.6378589,42.7408748],[1.6369782,42.740393],[1.637719,42.7391506],[1.6393274,42.7393991],[1.6402081,42.7399393],[1.6411758,42.7398861],[1.6411037,42.7391727],[1.6406273,42.7385758],[1.639501,42.7383899],[1.6380526,42.738203],[1.6378219999999999,42.7373101],[1.6380013,42.7357665],[1.637845,42.7354084],[1.6368023,42.7349862],[1.6357567,42.7348008],[1.6343178,42.7338416],[1.6350513,42.7331335],[1.6340887,42.7327701],[1.6345859,42.7316452],[1.6352336,42.7314114],[1.6352423,42.7306986],[1.6345622,42.7295974],[1.633677,42.7299971],[1.631991,42.729487],[1.6300693,42.7298069],[1.6293965,42.7294698],[1.6293812,42.7294571],[1.6286546,42.7298186],[1.6272014,42.7306026],[1.626052,42.7306982],[1.6247481,42.730795],[1.6232728,42.7311399],[1.6216563,42.7319958],[1.6202448,42.7321042],[1.6189459,42.7328981],[1.6185783,42.733311],[1.6177694,42.7335132],[1.6163575,42.733653],[1.6150159,42.7337629],[1.6141174,42.7323602],[1.6140867,42.7315876],[1.6149564,42.7304687],[1.6137235,42.7301458],[1.6137216,42.7301594],[1.612269,42.730328],[1.6120624,42.7301035],[1.6118406,42.7304803],[1.6101205,42.7320233],[1.6089395,42.7339711],[1.6085849,42.7351221],[1.6079613,42.7360205],[1.606665,42.7363126],[1.6053687,42.7366046],[1.6046058,42.7377528],[1.6058214,42.7384633],[1.6070447,42.738572],[1.6073164,42.7385812],[1.6086154,42.7378586],[1.6089023,42.7374452],[1.6101526,42.7373942],[1.6102806,42.7376641],[1.610528,42.7374925],[1.6115478,42.7375496],[1.6131037,42.7382623],[1.6138452,42.738819],[1.613842,42.7390697],[1.6132827,42.7402695],[1.6134044,42.7414238],[1.6123675,42.7427207],[1.6110679,42.7432635],[1.6102332,42.7447122],[1.6092732,42.7453074],[1.6084561,42.745352],[1.6081254,42.7445975],[1.6077171,42.7445947],[1.6061453,42.7451356],[1.6050447,42.7460809],[1.6042142,42.7471785],[1.6035287,42.747575],[1.6020884,42.7484678],[1.6021412,42.7496718],[1.6022632,42.750776],[1.6019802,42.7516266],[1.5995788,42.7531647],[1.5986923,42.753309],[1.5982962,42.7523534],[1.5970771,42.7518935],[1.5955885,42.7512312],[1.5953234,42.7506777],[1.5945191,42.7497192],[1.5937712,42.7496638],[1.5924733,42.750056],[1.5913684,42.751302],[1.5907411,42.7524511],[1.5905273,42.7532019],[1.5898429,42.753498],[1.5889531,42.753893],[1.5878592,42.7542865],[1.586911,42.7539288],[1.586029,42.7537219],[1.5853388,42.7544694],[1.5857392,42.755074],[1.58634,42.755981],[1.5863302,42.7567332],[1.5859867,42.7569815],[1.5857041,42.757782],[1.5860372,42.758336],[1.5862949,42.7588101],[1.5864454,42.7587616],[1.5872567,42.7584114],[1.5877758,42.7587418],[1.588782,42.7588679],[1.5892218,42.7591382],[1.5889735,42.7596708],[1.5887682,42.7609369],[1.5884105,42.761314],[1.588313,42.76109],[1.5882915,42.7608104],[1.5880501,42.7607789],[1.5879106,42.7605701],[1.5876532,42.7606253],[1.5875351,42.7607474],[1.5876049,42.7609246],[1.5874708,42.7611176],[1.5875673,42.7611767],[1.5877551,42.7610979],[1.5879643,42.7611412],[1.5880448,42.7612436],[1.5880501,42.7613972],[1.5880287,42.7617517],[1.5884349,42.7620827],[1.5881842,42.7627126],[1.5882969,42.763008],[1.5882915,42.763268],[1.5883344,42.7634846],[1.5885544,42.7637248],[1.5887797,42.7635673],[1.589123,42.7637169],[1.589344,42.7639539],[1.5896165,42.7639887],[1.5898418,42.7636519],[1.5899974,42.7626811],[1.5904212,42.7624527],[1.5906841,42.7620864],[1.5905982,42.7618797],[1.5904641,42.761732],[1.590519,42.7616268],[1.5906036,42.7615547],[1.5908772,42.7614858],[1.5911132,42.761346],[1.591014,42.7611747],[1.5910603,42.7609804],[1.590963,42.7608635],[1.5908557,42.7606568],[1.5912815,42.7604549],[1.5914311,42.7601072],[1.5910917,42.7600463],[1.5910274,42.7599793],[1.5912849,42.7598769],[1.5914351,42.7597312],[1.5922968,42.7595289],[1.5928261,42.7588611],[1.5935199,42.7584239],[1.5941388,42.7581015],[1.5949396,42.7571371],[1.5975132,42.7562804],[1.5981225,42.7562218],[1.5990042,42.7561381],[1.6000464,42.756346],[1.6004205,42.7560406],[1.6003668,42.7557885],[1.600084,42.7551498],[1.603498,42.7544964],[1.6060413,42.7538458],[1.6085181,42.7526009],[1.6115319,42.7524385],[1.6130106,42.7530267],[1.6142395,42.7537345],[1.6150922,42.7548664],[1.615654,42.7561781],[1.6162592,42.7573071],[1.6179464,42.7576834],[1.6195148,42.7577546],[1.6204978,42.7583394],[1.6209749,42.7598032],[1.6218705,42.7608129],[1.6219811,42.7619083],[1.6228023,42.7622787],[1.6242517,42.7624355],[1.6241767,42.7629537],[1.6242802,42.7632754],[1.6233165,42.7640773],[1.6241729,42.7649341],[1.6257399,42.7650669],[1.6286131,42.7656137],[1.6292793,42.7671439],[1.6301604,42.7684229],[1.6310054,42.7691055],[1.6314761,42.7696756],[1.6315132,42.7703854],[1.630429,42.7707554],[1.6294974,42.7709199],[1.6276959,42.7711324],[1.6268018,42.7720291],[1.6271228,42.77331],[1.6266942,42.7740212],[1.6260154,42.7747554],[1.6259612,42.7756948],[1.626898,42.7761714],[1.6267517,42.7772247],[1.6262651,42.7785541],[1.6258982,42.7793342],[1.6257152,42.7797697],[1.6265632,42.7806589],[1.6267584,42.7811441],[1.6288587,42.7810166],[1.6298268,42.7805538],[1.6307271,42.7803442]]},"properties":{"CLC:code":"321","CLC:id":"FR-244271","CLC:year":"2006","natural":"grassland","source":"Union européenne - SOeS, CORINE Land Cover, 2006."}},
{"type":"Feature","geometry":{"type":"LineString","coordinates":[[1.549602,42.7734972],[1.551037,42.7726444],[1.5523987,42.772074],[1.5533531,42.771431],[1.553206,42.7706418],[1.5518812,42.7707937],[1.5512505,42.7708362],[1.549865,42.7708024],[1.5487347,42.770492],[1.5473485,42.7705053],[1.5466384,42.7695019],[1.5461445,42.7687326],[1.5443052,42.7686751],[1.5443395,42.7691211],[1.5443346,42.7694769],[1.5444912,42.7697726],[1.5442872,42.7698971],[1.5445008,42.7701752],[1.5443334,42.7702587],[1.5446983,42.7705217],[1.5449248,42.7704819],[1.5454574,42.7707926],[1.5450567,42.7708278],[1.5440753,42.7707223],[1.542953,42.7702694],[1.5414988,42.7704662],[1.5406067,42.7708458],[1.5399903,42.7716731],[1.5405096,42.7720329],[1.5409874,42.7721249],[1.5411525,42.7721567],[1.541706,42.7729625],[1.5423028,42.7735608],[1.54286,42.7741005],[1.543543,42.7742538],[1.5441928,42.773932],[1.5447594,42.773788],[1.545283,42.7737818],[1.546292,42.773769],[1.5477039,42.77372],[1.5489566,42.7734924],[1.549602,42.7734972]]},"properties":{"CLC:code":"321","CLC:id":"FR-244354","CLC:year":"2006","natural":"grassland","source":"Union européenne - SOeS, CORINE Land Cover, 2006."}},
{"type":"Feature","geometry":{"type":"LineString","coordinates":[[1.5921469,42.7425901],[1.5922142,42.7424536],[1.5917662,42.7418184],[1.5914461,42.7416579],[1.5910187,42.7414371],[1.5904349,42.7408784],[1.5902002,42.7403614],[1.5901789,42.7399459],[1.5900246,42.7393902],[1.5897617,42.7389326],[1.5894189,42.7384743],[1.5896382,42.73812],[1.5899949,42.7375084],[1.5901063,42.7371926],[1.5904307,42.7370758],[1.5904889,42.7367002],[1.5902762,42.7365404],[1.5894468,42.7363168],[1.5894762,42.7360992],[1.5897765,42.7357252],[1.590424,42.735531],[1.5908011,42.7353956],[1.5908533,42.7352489],[1.5909133,42.7350798],[1.5907035,42.7346416],[1.5904403,42.7342636],[1.5901518,42.7336677],[1.5903988,42.7332934],[1.5908687,42.7331069],[1.5913693,42.7330229],[1.5921721,42.7332463],[1.5929451,42.7337075],[1.593343,42.7341459],[1.5939006,42.7346056],[1.5945125,42.7351049],[1.5950724,42.7354445],[1.5956371,42.7353497],[1.5960173,42.7350357],[1.5965318,42.734762],[1.5955254,42.7342038],[1.5956902,42.7338782],[1.5960603,42.7333464],[1.5964265,42.7330514],[1.5976367,42.7329117],[1.5982492,42.7322928],[1.5993832,42.731855],[1.6005572,42.7313871],[1.601454,42.7306209],[1.6001065,42.7298875],[1.5984186,42.7295794],[1.5981917,42.728389],[1.5993389,42.7269116],[1.600882,42.7259725],[1.6011764,42.7259971],[1.6032161,42.7261672],[1.6057139,42.7261844],[1.6071664,42.7260158],[1.607342,42.7248876],[1.6069663,42.7226869],[1.6076947,42.722455],[1.609301,42.7228814],[1.6109992,42.7223586],[1.6106308,42.7211975],[1.6098763,42.7203605],[1.6096443,42.7195573],[1.6104945,42.7192656],[1.6119849,42.7192758],[1.6133043,42.7200571],[1.6143006,42.720925],[1.6151819,42.7213172],[1.6160272,42.7213532],[1.6164232,42.7218903],[1.6162251,42.7223854],[1.6179794,42.7222406],[1.6187684,42.722408],[1.6187708,42.7224035],[1.6205518,42.7220764],[1.6204915,42.721591],[1.6197115,42.7208336],[1.6196854,42.7202991],[1.6198221,42.719888],[1.6205147,42.7197231],[1.6211702,42.7200834],[1.622024,42.7200487],[1.6233666,42.7205674],[1.6243165,42.7208881],[1.6260929,42.7209247],[1.6270473,42.7208828],[1.6293509,42.7208252],[1.6302676,42.721195],[1.6307976,42.7209313],[1.6313914,42.7204952],[1.6292883,42.7189758],[1.6282345,42.7184344],[1.6280763,42.7181762],[1.6272208,42.7178528],[1.6267978,42.7173358],[1.6256548,42.7163773],[1.6246246,42.7159652],[1.6236813,42.7151124],[1.6224166,42.7155687],[1.6213547,42.7166134],[1.6199283,42.7166038],[1.6191608,42.7163764],[1.6182597,42.7163568],[1.6174815,42.7161315],[1.6164865,42.7159519],[1.6157089,42.7158636],[1.614991,42.7153849],[1.61477,42.7149748],[1.6150462,42.7145613],[1.6155705,42.7141472],[1.6168155,42.7144172],[1.6181563,42.7140233],[1.6191194,42.7141847],[1.6209191,42.714537],[1.6216961,42.7146129],[1.6221506,42.7142421],[1.6220601,42.7138643],[1.6214771,42.7134888],[1.6204095,42.7129664],[1.6193533,42.7123934],[1.618533,42.7118209],[1.6174144,42.7115518],[1.6169061,42.7115955],[1.6167096,42.7112428],[1.6164213,42.7106739],[1.6155937,42.7107559],[1.6146386,42.711533],[1.6133389,42.711568],[1.612917,42.7114013],[1.6121043,42.7110802],[1.6109215,42.7112035],[1.6102036,42.7119384],[1.6089586,42.712279],[1.6074826,42.7122251],[1.6064201,42.7122178],[1.605127,42.7117296],[1.6042372,42.7120288],[1.6031678,42.7125008],[1.6019783,42.713146],[1.6013772,42.7139692],[1.599947,42.714917],[1.5979962,42.7150774],[1.5965838,42.714632],[1.5958846,42.7138873],[1.5951245,42.7132724],[1.5937666,42.713263],[1.5929555,42.7138894],[1.5932094,42.7145063],[1.5929665,42.7152849],[1.5920994,42.7155864],[1.5913258,42.7159548],[1.5904681,42.7163541],[1.5906707,42.7169348],[1.5914163,42.718148],[1.5924982,42.7181937],[1.5943996,42.7185663],[1.5954831,42.7179552],[1.5948848,42.7174189],[1.59497,42.7172466],[1.5951191,42.7164214],[1.5956761,42.7161447],[1.5964871,42.7165994],[1.5971729,42.7168949],[1.5983183,42.7163876],[1.5994338,42.716063],[1.6013926,42.7162842],[1.6027844,42.7155462],[1.6033754,42.7153987],[1.6043603,42.7158893],[1.6054456,42.7151233],[1.6076217,42.7151382],[1.6091091,42.7157479],[1.6091016,42.7170097],[1.6057264,42.718327],[1.6043624,42.7186757],[1.6033069,42.7187033],[1.6023181,42.7187571],[1.6014417,42.718595],[1.6005417,42.7186673],[1.5996058,42.7182129],[1.5988903,42.7180328],[1.5986464,42.718652],[1.5987757,42.7193152],[1.5987195,42.7200244],[1.5980387,42.7203935],[1.5968597,42.7205582],[1.595432,42.7198656],[1.5936574,42.720226],[1.592849,42.7201608],[1.5915137,42.7201649],[1.5909812,42.7196639],[1.5906966,42.7190018],[1.5904284,42.7185156],[1.5903187,42.7183166],[1.5897527,42.7174021],[1.5891265,42.7166736],[1.5877949,42.7162186],[1.5868176,42.7154449],[1.5861827,42.7153304],[1.5852509,42.7144549],[1.5848788,42.7142154],[1.5839088,42.7135899],[1.583532,42.7128261],[1.5837365,42.7119721],[1.5838732,42.7113556],[1.5836258,42.7105938],[1.5837285,42.7101309],[1.583836,42.7096445],[1.5842589,42.7098473],[1.5848265,42.7101533],[1.585788,42.7104385],[1.5860584,42.7105942],[1.5860083,42.7112282],[1.5861502,42.7116165],[1.5866992,42.7121267],[1.5866988,42.7129821],[1.587284,42.7131714],[1.5881622,42.7133629],[1.58875,42.7133524],[1.5894767,42.713902],[1.5896188,42.714333],[1.5904432,42.7143332],[1.5910914,42.713828],[1.5899188,42.7132607],[1.5898386,42.7124586],[1.591152,42.7124341],[1.5916587,42.7118034],[1.5916643,42.711369],[1.591402,42.7106329],[1.5923535,42.7105722],[1.5928059,42.7106091],[1.5938927,42.7106167],[1.5945297,42.7103876],[1.5948492,42.7102226],[1.5957097,42.7101949],[1.5966593,42.7103351],[1.5975104,42.7110426],[1.5984135,42.7112499],[1.5989608,42.7109528],[1.5991948,42.7103864],[1.5987484,42.7098826],[1.5974386,42.7095726],[1.5965414,42.7088984],[1.5954256,42.7076546],[1.5949852,42.7066838],[1.5955495,42.705051],[1.5962279,42.7050894],[1.5975923,42.7046307],[1.5974675,42.7037946],[1.5967558,42.7027883],[1.596465,42.700715],[1.5971082,42.6999853],[1.5963466,42.6993783],[1.5949939,42.6989344],[1.5946986,42.6987011],[1.5944992,42.6981642],[1.5943836,42.6970935],[1.5949291,42.69693],[1.5960139,42.6970712],[1.5977784,42.6971508],[1.5997687,42.6972983],[1.5998307,42.697323],[1.6013012,42.6979094],[1.6019397,42.6975468],[1.6016812,42.6965099],[1.6018508,42.6963462],[1.6023684,42.6958467],[1.6026406,42.695629],[1.6032379,42.6951511],[1.6033368,42.6944838],[1.603371,42.6943078],[1.6035306,42.6934838],[1.6039449,42.6929186],[1.6046892,42.6926049],[1.6051655,42.6923039],[1.606229,42.6922675],[1.6064627,42.6924431],[1.6068084,42.6931426],[1.6078109,42.6932359],[1.6087595,42.6928944],[1.6093007,42.6921572],[1.6097231,42.6914202],[1.6097313,42.6907669],[1.6094427,42.6902418],[1.6093899,42.6897194],[1.6086285,42.6892787],[1.6077429,42.6892726],[1.6068524,42.6896583],[1.6061894,42.6906989],[1.6052398,42.6911279],[1.6039419,42.6909888],[1.6027654,42.6915386],[1.6021581,42.6914278],[1.6009958,42.6911604],[1.600259,42.6921993],[1.5996628,42.692651],[1.5995606,42.6927289],[1.5992425,42.6922752],[1.5990425,42.6917551],[1.5991656,42.6912575],[1.599504,42.6910427],[1.599504,42.6907487],[1.5999194,42.6902738],[1.6003347,42.689584],[1.6004602,42.6888587],[1.600997,42.6886951],[1.6012072,42.6872165],[1.6004202,42.6867811],[1.6000016,42.6865639],[1.5988296,42.6863829],[1.5976723,42.6860209],[1.5966332,42.6854598],[1.5962786,42.6850652],[1.5955202,42.6849928],[1.5949591,42.6860364],[1.5952266,42.6872451],[1.5953011,42.6888004],[1.5946334,42.6900138],[1.5934826,42.689743],[1.5924382,42.6903195],[1.5924275,42.6911513],[1.5921672,42.6925752],[1.5912701,42.6934602],[1.5902854,42.6948791],[1.5897017,42.6964197],[1.5893583,42.6980799],[1.5886316,42.6982533],[1.5879864,42.6983082],[1.587966,42.6991736],[1.5895505,42.6996978],[1.5891197,42.7012362],[1.5886706,42.7032998],[1.5884886,42.7049611],[1.5875106,42.7058456],[1.5867784,42.7063748],[1.5854784,42.707257],[1.5851457,42.7080865],[1.5837719,42.7083732],[1.5823213,42.7084224],[1.5815921,42.7087742],[1.5799786,42.7089413],[1.5804425,42.7104298],[1.5786684,42.7111761],[1.5796121,42.7119428],[1.5801808,42.7128023],[1.5810755,42.7134273],[1.5794555,42.7140804],[1.5771348,42.7138292],[1.5757757,42.7130471],[1.5745748,42.7125041],[1.5719946,42.7126641],[1.5694112,42.7130609],[1.5684328,42.7139452],[1.5681741,42.7152501],[1.5675951,42.7163753],[1.5665398,42.7169615],[1.5675706,42.7182162],[1.5692462,42.7194756],[1.5695018,42.7182268],[1.5704791,42.7174323],[1.5712077,42.71714],[1.572306,42.7163464],[1.5729601,42.7156382],[1.5737732,42.7150501],[1.5747438,42.7147596],[1.5761488,42.7151255],[1.577307,42.7159062],[1.5780618,42.7166839],[1.5789358,42.7176107],[1.5795218,42.7190115],[1.5800315,42.720085],[1.5802659,42.7206211],[1.5807388,42.721426],[1.5809661,42.722557],[1.5814798,42.7233319],[1.583027,42.7234922],[1.5836831,42.7239695],[1.5842438,42.7241744],[1.5849896,42.7229717],[1.5858468,42.7225658],[1.5859933,42.7231865],[1.5863832,42.7242288],[1.586445,42.7256247],[1.5865538,42.7265764],[1.5875871,42.7276827],[1.5875232,42.7294943],[1.5864288,42.7299917],[1.5859111,42.7309188],[1.5855111,42.7314706],[1.5848273,42.7314725],[1.58436,42.7312222],[1.5828227,42.7315694],[1.5819392,42.7313555],[1.5815857,42.7306109],[1.5813199,42.7293909],[1.5808481,42.7284962],[1.579969,42.7279555],[1.5790867,42.7276517],[1.5781229,42.727408],[1.5774374,42.7274323],[1.5760356,42.7267992],[1.5754029,42.725873],[1.5758558,42.7251341],[1.5768343,42.7242497],[1.5759665,42.7228481],[1.5749672,42.7222459],[1.5733533,42.7224723],[1.5721041,42.7224634],[1.5702505,42.7225095],[1.5691654,42.722294],[1.5684079,42.7217238],[1.567237,42.7218939],[1.5664578,42.722957],[1.5657334,42.7228631],[1.5650539,42.7225011],[1.5633342,42.7217499],[1.5631577,42.7228781],[1.563027,42.7243972],[1.5635954,42.724993],[1.5633442,42.7256737],[1.5623298,42.7262007],[1.5615971,42.7267893],[1.5609432,42.7274682],[1.5601297,42.7280562],[1.5596427,42.7283198],[1.5591565,42.7285251],[1.5592252,42.7293563],[1.5604776,42.7301603],[1.5621077,42.7304529],[1.5629804,42.7308387],[1.5637313,42.7298652],[1.5643425,42.7293644],[1.5648371,42.7285361],[1.5645649,42.7277617],[1.5644546,42.7270189],[1.5644653,42.7262162],[1.5655639,42.7253631],[1.566249,42.7253681],[1.5674579,42.7253768],[1.5693165,42.7262861],[1.5699718,42.7267646],[1.5731242,42.7286992],[1.5746517,42.7293804],[1.5746255,42.7300437],[1.5745687,42.7307079],[1.5749184,42.7317365],[1.5755168,42.7329016],[1.5763615,42.7336307],[1.5778215,42.7335569],[1.5786595,42.733463],[1.5801212,42.7336631],[1.5810554,42.7339571],[1.5817751,42.7345954],[1.5819058,42.7353733],[1.5822868,42.7366412],[1.5842048,42.7363629],[1.5850964,42.7363692],[1.5855939,42.7361785],[1.5859311,42.735596],[1.5870838,42.7358477],[1.5876952,42.7365593],[1.5884203,42.7367249],[1.5889289,42.7368475],[1.5889786,42.7371847],[1.5887029,42.7377171],[1.5885615,42.7382909],[1.588449,42.7386853],[1.588281