{"type":"FeatureCollection","features":[
{"type":"Feature","geometry":{"type":"Point","coordinates":[6.9758024,48.0476093]},"properties":{"ele":"954","name":"Col des Feignes sous Vologne","natural":"saddle"}},
{"type":"Feature","geometry":{"type":"Point","coordinates":[6.9999553,48.0211854]},"properties":{"historic":"boundary_stone"}},
{"type":"Feature","geometry":{"type":"Point","coordinates":[6.9932738,48.0206918]},"properties":{"historic":"boundary_stone"}},
{"type":"Feature","geometry":{"type":"Point","coordinates":[6.9437887,47.9804501]},"properties":{"ele":"1135","name":"Hasenlochkopf","natural":"peak"}},
{"type":"Feature","geometry":{"type":"Point","coordinates":[6.944008,47.9918657]},"properties":{"ele":"1197","name":"l'Altenberg","natural":"peak"}},
{"type":"Feature","geometry":{"type":"Point","coordinates":[6.9676759,48.0473982]},"properties":{"ele":"989","name":"Col de Grande Basse","natural":"saddle"}},
{"type":"Feature","geometry":{"type":"Point","coordinates":[6.9828879,48.0585535]},"properties":{"created_by":"JOSM"}},
{"type":"Feature","geometry":{"type":"Point","coordinates":[6.9832628,48.0589538]},"properties":{"created_by":"JOSM"}},
{"type":"Feature","geometry":{"type":"Point","coordinates":[6.9836873,48.0590413]},"properties":{"created_by":"JOSM"}},
{"type":"Feature","geometry":{"type":"Point","coordinates":[6.9823827,48.0562612]},"properties":{"created_by":"JOSM"}},
{"type":"Feature","geometry":{"type":"Point","coordinates":[6.9509934,48.0616151]},"properties":{"ele":"984","name":"La Roche des Vieux Chevaux","tourism":"viewpoint"}},
{"type":"Feature","geometry":{"type":"Point","coordinates":[6.9429365,48.0569753]},"properties":{"name":"Collet de la Mine","natural":"saddle"}},
{"type":"Feature","geometry":{"type":"Point","coordinates":[6.9972405,48.0214296]},"properties":{"historic":"boundary_stone"}},
{"type":"Feature","geometry":{"type":"Point","coordinates":[7.0016515,48.021952]},"properties":{"historic":"boundary_stone"}},
{"type":"Feature","geometry":{"type":"Point","coordinates":[7.0018553,48.0225603]},"properties":{"historic":"boundary_stone"}},
{"type":"Feature","geometry":{"type":"Point","coordinates":[6.9905965,47.9744204]},"properties":{"ele":"1271","name":"Le Schweisel","name:de":"Schweisel","natural":"peak","ref:refuges.info":"5977","wikidata":"Q17426607"}},
{"type":"Feature","geometry":{"type":"Point","coordinates":[6.9820535,47.9840978]},"properties":{"ele":"1223","mountain_pass":"yes","name":"Col du Neurod","natural":"saddle"}},
{"type":"Feature","geometry":{"type":"Point","coordinates":[6.982594,47.9836283]},"properties":{"amenity":"shelter","capacity":"5","drinking_water":"no","ele":"1223","fireplace":"yes","mattress":"no","name":"Abri du Neurod","ref:refuges.info":"2643","shelter_type":"weather_shelter","tourism":"wilderness_hut"}},
{"type":"Feature","geometry":{"type":"Point","coordinates":[6.9806331,47.9938927]},"properties":{"ele":"1311","name":"Batteriekopf","natural":"peak","ref:refuges.info":"5987","summit:cross":"no","summit:register":"no","wikidata":"Q1877318"}},
{"type":"Feature","geometry":{"type":"Point","coordinates":[6.9809965,48.0007431]},"properties":{"ele":"1316","name":"Rothenbachkopf","natural":"peak","ref:refuges.info":"5986","summit:cross":"no","summit:register":"no","wikidata":"Q3442970"}},
{"type":"Feature","geometry":{"type":"Point","coordinates":[6.9799948,48.0054266]},"properties":{"ele":"1205","hiking":"yes","information":"guidepost","name":"Col du Rothenbach","natural":"saddle","operator":"Club Vosgien","tourism":"information"}},
{"type":"Feature","geometry":{"type":"Point","coordinates":[6.9827593,48.009745]},"properties":{"direction":"0-360","ele":"1305","name":"Rainkopf","natural":"peak","ref:refuges.info":"5976","summit:cross":"no","summit:register":"no","tourism":"viewpoint","wikidata":"Q8158932"}},
{"type":"Feature","geometry":{"type":"Point","coordinates":[6.9856581,48.0150077]},"properties":{"ele":"1192","hiking":"yes","information":"guidepost","name":"Collet du Rainkopf","natural":"saddle","operator":"Club Vosgien","tourism":"information"}},
{"type":"Feature","geometry":{"type":"Point","coordinates":[6.9933313,48.0206797]},"properties":{"hiking":"yes","information":"guidepost","operator":"Club Vosgien","tourism":"information"}},
{"type":"Feature","geometry":{"type":"Point","coordinates":[7.0025423,48.0176705]},"properties":{"hiking":"yes","information":"guidepost","operator":"Club Vosgien","tourism":"information"}},
{"type":"Feature","geometry":{"type":"Point","coordinates":[6.9108173,48.0842429]},"properties":{"source":"knowledge","tourism":"picnic_site"}},
{"type":"Feature","geometry":{"type":"Point","coordinates":[6.9965002,48.018609]},"properties":{"natural":"water"}},
{"type":"Feature","geometry":{"type":"Point","coordinates":[6.9849652,47.9797498]},"properties":{"ele":"1191","mountain_pass":"yes","name":"Col du Herrenberg","natural":"saddle"}},
{"type":"Feature","geometry":{"type":"Point","coordinates":[6.9093854,48.0847261]},"properties":{"check_date":"2024-05-29","hiking":"yes","information":"map","map_size":"site","map_type":"scheme","name":"Sentier Touristique des Perles de Vologne","operator":"Office National des Forêts","tourism":"information"}},
{"type":"Feature","geometry":{"type":"Point","coordinates":[6.9467143,48.0330654]},"properties":{"name":"Les Champis","tourism":"viewpoint"}},
{"type":"Feature","geometry":{"type":"Point","coordinates":[6.9597614,48.0536261]},"properties":{"height":"4","name":"Boule du Diable","natural":"stone","width":"4"}},
{"type":"Feature","geometry":{"type":"Point","coordinates":[6.996984,48.0829822]},"properties":{"ele":"1060","historic":"memorial","name":"Ancienne fontaine des ducs de Balvreuche","source":"survey"}},
{"type":"Feature","geometry":{"type":"Point","coordinates":[6.9668949,48.0037968]},"properties":{"name":"Col de l’Étang","natural":"saddle"}},
{"type":"Feature","geometry":{"type":"Point","coordinates":[6.8937234,48.0786951]},"properties":{"tourism":"picnic_site"}},
{"type":"Feature","geometry":{"type":"Point","coordinates":[6.9056273,48.0838611]},"properties":{"tourism":"picnic_site"}},
{"type":"Feature","geometry":{"type":"Point","coordinates":[6.9096034,48.0839528]},"properties":{"tourism":"picnic_site"}},
{"type":"Feature","geometry":{"type":"Point","coordinates":[6.9143895,48.063258]},"properties":{"tourism":"picnic_site"}},
{"type":"Feature","geometry":{"type":"Point","coordinates":[6.9107277,48.0640894]},"properties":{"tourism":"picnic_site"}},
{"type":"Feature","geometry":{"type":"Point","coordinates":[6.9202611,48.0499591]},"properties":{"source":"knowledge","tourism":"picnic_site"}},
{"type":"Feature","geometry":{"type":"Point","coordinates":[6.9058606,48.0535856]},"properties":{"tourism":"picnic_site"}},
{"type":"Feature","geometry":{"type":"Point","coordinates":[6.9092075,48.0839711]},"properties":{"check_date":"2022-03-15","information":"map","tourism":"information"}},
{"type":"Feature","geometry":{"type":"Point","coordinates":[6.916688,48.0467855]},"properties":{"ele":"1137","name":"Tête de Grouvelin","natural":"peak","tourism":"viewpoint","wikidata":"Q17640220"}},
{"type":"Feature","geometry":{"type":"Point","coordinates":[6.8971483,48.0611998]},"properties":{"aerialway":"station","name":"Pré Lynx 2","source":"BDOrtho IGN 2016"}},
{"type":"Feature","geometry":{"type":"Point","coordinates":[6.9113333,48.055897]},"properties":{"information":"map","ski":"yes","tourism":"information"}},
{"type":"Feature","geometry":{"type":"Point","coordinates":[6.9051326,48.0688829]},"properties":{"information":"map","map":"ski","tourism":"information"}},
{"type":"Feature","geometry":{"type":"Point","coordinates":[6.9003523,48.0645389]},"properties":{"tourism":"viewpoint"}},
{"type":"Feature","geometry":{"type":"Point","coordinates":[6.9124047,48.0418838]},"properties":{"addr:city":"Gérardmer","addr:country":"FR","addr:postcode":"88400","amenity":"restaurant","cuisine":"regional","fax":"+33 3 29 25 65 06","name":"Auberge de Grouvelin","outdoor_seating":"yes","phone":"+33 3 29 25 62 22","source":"cadastre-dgi-fr source : Direction Générale des Impôts - Cadastre. Mise à jour : 2011","tourism":"hotel","website":"www.grouvelin.fr"}},
{"type":"Feature","geometry":{"type":"Point","coordinates":[6.8964074,48.0726193]},"properties":{"name":"Point de vue des Rochires","source":"cadastre-dgi-fr source : Direction Générale des Impôts - Cadastre. Mise à jour : 2012","tourism":"viewpoint"}},
{"type":"Feature","geometry":{"type":"Point","coordinates":[6.9272873,47.9906216]},"properties":{"ele":"1067","mountain_pass":"yes","name":"Col de la Vierge","natural":"saddle"}},
{"type":"Feature","geometry":{"type":"Point","coordinates":[6.945402,48.0004914]},"properties":{"ele":"956","mountain_pass":"yes","name":"Col de Bramont","natural":"saddle","wikidata":"Q2982017","wikipedia":"fr:Col de Bramont"}},
{"type":"Feature","geometry":{"type":"Point","coordinates":[6.9749483,48.0677885]},"properties":{"ele":"1089","mountain_pass":"yes","name":"Col des Harengs Marinés","natural":"saddle","source":"survey"}},
{"type":"Feature","geometry":{"type":"Point","coordinates":[6.9952934,48.0652745]},"properties":{"addr:city":"Xonrupt Longemer","addr:country":"FR","addr:postcode":"88400","contact:phone":"+33 3 29 63 26 02","name":"Hôtel Restaurant Balveurche","source":"cadastre-dgi-fr source : Direction Générale des Impôts - Cadastre. Mise à jour : 2011","tourism":"hotel"}},
{"type":"Feature","geometry":{"type":"Point","coordinates":[6.9476192,48.0827688]},"properties":{"addr:city":"Xonrupt Longemer","addr:country":"FR","addr:housenumber":"2887","addr:postcode":"88400","addr:street":"Route de Colmar","amenity":"restaurant","contact:phone":"+33 3 29 63 37 21","cuisine":"regional","name":"Auberge du Lac","source":"cadastre-dgi-fr source : Direction Générale des Impôts - Cadastre. Mise à jour : 2011","tourism":"hotel"}},
{"type":"Feature","geometry":{"type":"Point","coordinates":[6.9255004,48.0811616]},"properties":{"addr:city":"Xonrupt Longemer","addr:country":"FR","addr:housenumber":"3","addr:postcode":"88400","addr:street":"Place du 22 Octobre 1919","contact:phone":"+33 3 29 63 15 16","contact:website":"www.gerardmer.net","information":"office","name":"Office de Tourisme de Gérardmer-Xonrupt","tourism":"information"}},
{"type":"Feature","geometry":{"type":"Point","coordinates":[6.9857868,47.9940505]},"properties":{"addr:city":"Metzeral","addr:country":"FR","addr:postcode":"68380","addr:street":"Route des Crêtes","amenity":"restaurant","cuisine":"regional","ele":"1139","name":"Auberge du Steinwasen","phone":"+33 3 89 77 62 68","tourism":"guest_house","website":"http://steinwasen.free.fr/"}},
{"type":"Feature","geometry":{"type":"Point","coordinates":[6.9081097,48.0396008]},"properties":{"bicycle":"no","information":"map","mtb":"yes","ski":"yes","tourism":"information"}},
{"type":"Feature","geometry":{"type":"Point","coordinates":[6.9075765,48.0339253]},"properties":{"information":"map","ski":"yes","tourism":"information"}},
{"type":"Feature","geometry":{"type":"Point","coordinates":[6.8984465,48.034772]},"properties":{"information":"board","ski":"yes","tourism":"information"}},
{"type":"Feature","geometry":{"type":"Point","coordinates":[6.8977074,48.0363844]},"properties":{"information":"map","ski":"yes","tourism":"information"}},
{"type":"Feature","geometry":{"type":"Point","coordinates":[6.8931673,48.0448746]},"properties":{"information":"map","ski":"yes","tourism":"information"}},
{"type":"Feature","geometry":{"type":"Point","coordinates":[6.8934039,48.0451771]},"properties":{"tourism":"picnic_site"}},
{"type":"Feature","geometry":{"type":"Point","coordinates":[6.8934181,48.0448567]},"properties":{"tourism":"picnic_site"}},
{"type":"Feature","geometry":{"type":"Point","coordinates":[6.9215798,48.0477573]},"properties":{"board_type":"sport","information":"board","ski":"yes","tourism":"information"}},
{"type":"Feature","geometry":{"type":"Point","coordinates":[6.9070344,48.0531937]},"properties":{"information":"map","ski":"yes","tourism":"information"}},
{"type":"Feature","geometry":{"type":"Point","coordinates":[6.9114342,48.055352]},"properties":{"information":"map","mtb":"yes","tourism":"information"}},
{"type":"Feature","geometry":{"type":"Point","coordinates":[6.9137206,48.0634248]},"properties":{"information":"map","ski":"yes","tourism":"information"}},
{"type":"Feature","geometry":{"type":"Point","coordinates":[6.9070734,48.0531775]},"properties":{"information":"guidepost","ski":"yes","tourism":"information"}},
{"type":"Feature","geometry":{"type":"Point","coordinates":[6.9068662,48.0534469]},"properties":{"information":"guidepost","ski":"yes","tourism":"information"}},
{"type":"Feature","geometry":{"type":"Point","coordinates":[6.892857,48.0455329]},"properties":{"information":"guidepost","ski":"yes","tourism":"information"}},
{"type":"Feature","geometry":{"type":"Point","coordinates":[7.001028,48.021375]},"properties":{"ele":"1350","name":"Kastelberg","natural":"peak","ref:refuges.info":"5984","wikidata":"Q2485743","wikipedia":"fr:Kastelberg"}},
{"type":"Feature","geometry":{"type":"Point","coordinates":[6.9935345,48.0211394]},"properties":{"hiking":"yes","information":"guidepost","operator":"Club Vosgien","tourism":"information"}},
{"type":"Feature","geometry":{"type":"Point","coordinates":[6.9127111,48.0418551]},"properties":{"information":"map","mtb":"yes","tourism":"information"}},
{"type":"Feature","geometry":{"type":"Point","coordinates":[6.9047426,48.0560006]},"properties":{"information":"guidepost","ski":"yes","tourism":"information"}},
{"type":"Feature","geometry":{"type":"Point","coordinates":[6.9168342,48.0466322]},"properties":{"information":"map","ski":"yes","tourism":"information"}},
{"type":"Feature","geometry":{"type":"Point","coordinates":[6.9093558,48.0839147]},"properties":{"check_date":"2024-05-29","hiking":"yes","information":"map","tourism":"information"}},
{"type":"Feature","geometry":{"type":"Point","coordinates":[6.8932665,48.0448176]},"properties":{"information":"guidepost","ski":"yes","tourism":"information"}},
{"type":"Feature","geometry":{"type":"Point","coordinates":[6.9058197,48.0836641]},"properties":{"name":"La Pierre Charlemagne","natural":"stone","source":"Bing + knowledge","tourism":"attraction","wheelchair":"no"}},
{"type":"Feature","geometry":{"type":"Point","coordinates":[6.9126219,48.0417457]},"properties":{"information":"map","ski":"yes","tourism":"information"}},
{"type":"Feature","geometry":{"type":"Point","coordinates":[6.9140835,48.0633425]},"properties":{"tourism":"picnic_site"}},
{"type":"Feature","geometry":{"type":"Point","coordinates":[6.9126327,48.0698129]},"properties":{"information":"map","mtb":"yes","ski":"yes","tourism":"information"}},
{"type":"Feature","geometry":{"type":"Point","coordinates":[6.9588545,48.0633078]},"properties":{"contact:city":"Xonrupt-Longemer","contact:email":"oreedubois4@wanadoo.fr","contact:fax":"+33 3 29 60 87 35","contact:housenumber":"3582","contact:phone":"+33 3 29 63 29 82","contact:postcode":"88400","contact:street":"Route du Lac","contact:website":"http://hotel.oreedubois.free.fr/","name":"Hôtel Restaurant L'Orée Du Bois","tourism":"hotel"}},
{"type":"Feature","geometry":{"type":"Point","coordinates":[6.9308546,48.0026748]},"properties":{"historic":"wayside_cross","wikidata":"Q111134883"}},
{"type":"Feature","geometry":{"type":"Point","coordinates":[6.9505623,48.0211611]},"properties":{"historic":"wayside_cross","wikidata":"Q111134892"}},
{"type":"Feature","geometry":{"type":"Point","coordinates":[6.9466685,48.0325978]},"properties":{"historic":"memorial","name":"Dany Claudel"}},
{"type":"Feature","geometry":{"type":"Point","coordinates":[6.985574,47.9787935]},"properties":{"hiking":"yes","information":"guidepost","operator":"Club Vosgien","tourism":"information"}},
{"type":"Feature","geometry":{"type":"Point","coordinates":[6.9220781,47.9965878]},"properties":{"aerialway":"station","aerialway:access":"entry"}},
{"type":"Feature","geometry":{"type":"Point","coordinates":[6.9071174,48.0026468]},"properties":{"aerialway":"pylon"}},
{"type":"Feature","geometry":{"type":"Point","coordinates":[6.9821066,48.0633072]},"properties":{"historic":"memorial"}},
{"type":"Feature","geometry":{"type":"Point","coordinates":[6.9106715,47.9933161]},"properties":{"tourism":"picnic_site"}},
{"type":"Feature","geometry":{"type":"Point","coordinates":[6.9275026,47.9905192]},"properties":{"historic":"memorial","inscription":"Ici le 9 Novembre 1944 fut obtenu le changement de destin de 800 femmes, enfants et vieillards bressands.","material":"granite","memorial":"war_memorial","ref:FR:MemorialGenWeb":"201537"}},
{"type":"Feature","geometry":{"type":"Point","coordinates":[6.9271702,47.9905229]},"properties":{"hiking":"yes","information":"map","map_size":"region","map_type":"topo","operator":"Club vosgien","tourism":"information"}},
{"type":"Feature","geometry":{"type":"Point","coordinates":[6.9270937,47.9906084]},"properties":{"tourism":"picnic_site"}},
{"type":"Feature","geometry":{"type":"Point","coordinates":[6.9079674,48.0023008]},"properties":{"aerialway":"station","aerialway:access":"exit"}},
{"type":"Feature","geometry":{"type":"Point","coordinates":[6.906928,48.0027269]},"properties":{"aerialway":"pylon"}},
{"type":"Feature","geometry":{"type":"Point","coordinates":[6.9893956,48.0183886]},"properties":{"hiking":"yes","information":"guidepost","operator":"Club Vosgien","tourism":"information"}},
{"type":"Feature","geometry":{"type":"Point","coordinates":[6.9266024,48.0838854]},"properties":{"information":"board","source":"knowledge","tourism":"information"}},
{"type":"Feature","geometry":{"type":"Point","coordinates":[6.9809319,48.0268861]},"properties":{"information":"guidepost","ski":"yes","tourism":"information"}},
{"type":"Feature","geometry":{"type":"Point","coordinates":[6.9297279,48.0167204]},"properties":{"ele":"1098","name":"Collet de l’Étang de la Cuve","natural":"saddle"}},
{"type":"Feature","geometry":{"type":"Point","coordinates":[6.9124322,48.0824541]},"properties":{"historic":"wayside_cross","source":"knowledge","wikidata":"Q111145674"}},
{"type":"Feature","geometry":{"type":"Point","coordinates":[6.9107572,48.0818757]},"properties":{"addr:city":"Xonrupt Longemer","addr:country":"FR","addr:housenumber":"1111","addr:postcode":"88400","addr:street":"Route du Saut des Cuves","amenity":"restaurant","contact:phone":"+33 3 29 63 46 58","name":"Auberge du Saut des Cuves","source":"cadastre-dgi-fr source : Direction Générale des Impôts - Cadastre. Mise à jour : 2012","tourism":"hotel"}},
{"type":"Feature","geometry":{"type":"Point","coordinates":[6.9820802,48.0579594]},"properties":{"name":"Cascade de Retournemer","source":"knowledge","tourism":"attraction","waterway":"waterfall","wikidata":"Q20083904"}},
{"type":"Feature","geometry":{"type":"Point","coordinates":[6.9473775,48.0830786]},"properties":{"addr:housenumber":"2845","check_date":"2024-05-23","name":"Les Myrtilles","tourism":"hotel"}},
{"type":"Feature","geometry":{"type":"Point","coordinates":[6.9741877,48.0399754]},"properties":{"description":"Espace Nordique Haute-Vosges.\nEspace VTT-FFCHautes Vosges","information":"map","mtb":"yes","ski":"designated","tourism":"information"}},
{"type":"Feature","geometry":{"type":"Point","coordinates":[6.9996608,48.0527105]},"properties":{"tourism":"picnic_site"}},
{"type":"Feature","geometry":{"type":"Point","coordinates":[6.9022834,47.9867999]},"properties":{"description":"Point de vue du lac des corbeaux","tourism":"viewpoint"}},
{"type":"Feature","geometry":{"type":"Point","coordinates":[6.9102804,48.06398]},"properties":{"information":"board","name":"Forêt Communale de Gérardmer","source":"knowledge","tourism":"information"}},
{"type":"Feature","geometry":{"type":"Point","coordinates":[6.9184398,48.0836838]},"properties":{"addr:city":"Xonrupt-Longemer","addr:country":"FR","addr:housenumber":"627","addr:postcode":"88400","addr:street":"Route de Colmar","name":"Musée Faune Lorraine","phone":"+33 3 29 63 39 50","source":"knowledge","tourism":"museum","website":"http://www.museefaunelorraine.com/"}},
{"type":"Feature","geometry":{"type":"Point","coordinates":[6.9109502,48.0843645]},"properties":{"board_type":"plants","information":"board","name":"Bouleau Verruqueux","source":"survey","tourism":"information"}},
{"type":"Feature","geometry":{"type":"Point","coordinates":[6.9095586,48.0841918]},"properties":{"information":"guidepost","name":"Départ Sentier des Perles de Vologne","source":"knowledge","tourism":"information"}},
{"type":"Feature","geometry":{"type":"Point","coordinates":[6.9114803,48.084373]},"properties":{"board_type":"plants","check_date":"2024-05-22","information":"board","name":"Hêtre","source":"survey","tourism":"information"}},
{"type":"Feature","geometry":{"type":"Point","coordinates":[6.9107053,48.0843012]},"properties":{"board_type":"plants","information":"board","name":"Thuya Géant","source":"survey","tourism":"information"}},
{"type":"Feature","geometry":{"type":"Point","coordinates":[6.9112977,48.0842077]},"properties":{"source":"knowledge","tourism":"picnic_site"}},
{"type":"Feature","geometry":{"type":"Point","coordinates":[6.9110518,48.0842251]},"properties":{"source":"knowledge","tourism":"picnic_site"}},
{"type":"Feature","geometry":{"type":"Point","coordinates":[6.9100818,48.0842436]},"properties":{"information":"board","source":"knowledge","tourism":"information"}},
{"type":"Feature","geometry":{"type":"Point","coordinates":[6.9106729,48.0844455]},"properties":{"name":"Saut des Cuves","source":"knowledge","tourism":"attraction","waterway":"waterfall","wikidata":"Q18005532"}},
{"type":"Feature","geometry":{"type":"Point","coordinates":[6.9118342,48.0836783]},"properties":{"board_type":"plants","check_date":"2024-05-22","information":"board","name":"Érable Sycomore","source":"survey","tourism":"information"}},
{"type":"Feature","geometry":{"type":"Point","coordinates":[6.9901194,48.0528826]},"properties":{"name":"Cascade Charlemagne","source":"knowledge","tourism":"attraction","waterway":"waterfall"}},
{"type":"Feature","geometry":{"type":"Point","coordinates":[6.9908245,48.0530347]},"properties":{"name":"Cascade Charlemagne","source":"knowledge","tourism":"attraction","waterway":"waterfall"}},
{"type":"Feature","geometry":{"type":"Point","coordinates":[7.0077674,48.0307521]},"properties":{"alt_name":"Source de la Moselotte","ele":"1280","name":"Fontaine de la Duchesse","natural":"spring"}},
{"type":"Feature","geometry":{"type":"Point","coordinates":[6.9445543,48.0324437]},"properties":{"natural":"tree"}},
{"type":"Feature","geometry":{"type":"Point","coordinates":[6.9449727,48.0325298]},"properties":{"natural":"tree"}},
{"type":"Feature","geometry":{"type":"Point","coordinates":[6.9442045,48.0334399]},"properties":{"natural":"tree"}},
{"type":"Feature","geometry":{"type":"Point","coordinates":[6.9459163,48.0335482]},"properties":{"natural":"tree"}},
{"type":"Feature","geometry":{"type":"Point","coordinates":[6.944233,48.0338622]},"properties":{"natural":"tree"}},
{"type":"Feature","geometry":{"type":"Point","coordinates":[6.9464397,48.0349101]},"properties":{"natural":"tree"}},
{"type":"Feature","geometry":{"type":"Point","coordinates":[6.9462105,48.036031]},"properties":{"natural":"tree"}},
{"type":"Feature","geometry":{"type":"Point","coordinates":[6.9459882,48.0362384]},"properties":{"natural":"tree"}},
{"type":"Feature","geometry":{"type":"Point","coordinates":[6.9446964,48.0365272]},"properties":{"natural":"tree"}},
{"type":"Feature","geometry":{"type":"Point","coordinates":[6.9464068,48.0366225]},"properties":{"natural":"tree"}},
{"type":"Feature","geometry":{"type":"Point","coordinates":[6.9447487,48.0367532]},"properties":{"natural":"tree"}},
{"type":"Feature","geometry":{"type":"Point","coordinates":[6.8927716,48.0592895]},"properties":{"information":"map","map_size":"site","map_type":"topo","mtb":"yes","source":"knowledge","tourism":"information"}},
{"type":"Feature","geometry":{"type":"Point","coordinates":[6.9030322,48.0344274]},"properties":{"ele":"1091","name":"Roche des Bioquets","natural":"peak","source":"survey"}},
{"type":"Feature","geometry":{"type":"Point","coordinates":[6.8942906,48.032542]},"properties":{"ele":"1063","name":"La Gesse","natural":"peak"}},
{"type":"Feature","geometry":{"type":"Point","coordinates":[6.9035594,48.0338213]},"properties":{"tourism":"viewpoint"}},
{"type":"Feature","geometry":{"type":"Point","coordinates":[6.903324,48.034002]},"properties":{"name":"Roche des Bioquets","tourism":"viewpoint"}},
{"type":"Feature","geometry":{"type":"Point","coordinates":[6.997864,48.0110125]},"properties":{"drinking_water":"yes","natural":"spring"}},
{"type":"Feature","geometry":{"type":"Point","coordinates":[6.9750069,48.0077634]},"properties":{"ele":"1195","name":"Source de la Thur","natural":"spring","ref:refuges.info":"6683"}},
{"type":"Feature","geometry":{"type":"Point","coordinates":[6.9445777,48.0359858]},"properties":{"description:fr":"petite fontaine avec deux bacs taillés dans un tronc d'arbre - vue sèche le 15/09/2020","drinking_water":"yes","intermittent":"yes","natural":"spring","survey_date":"2020-09-15"}},
{"type":"Feature","geometry":{"type":"Point","coordinates":[6.913541,48.073967]},"properties":{"leisure":"sports_centre","name":"Domaine Skiable du Poli"}},
{"type":"Feature","geometry":{"type":"Point","coordinates":[6.892356,48.0588665]},"properties":{"leisure":"sports_centre","name":"Ski Gerardmer"}},
{"type":"Feature","geometry":{"type":"Point","coordinates":[6.9440858,48.0514779]},"properties":{"leisure":"sports_centre","name":"Domaine skiable de Lispach"}},
{"type":"Feature","geometry":{"type":"Point","coordinates":[6.9471393,48.0833138]},"properties":{"addr:housenumber":"2817","check_date":"2024-05-23","name":"La Vallée","tourism":"hotel"}},
{"type":"Feature","geometry":{"type":"Point","coordinates":[6.926226,48.0845373]},"properties":{"addr:housenumber":"103","email":"couleurs.bois.et.spa@orange.fr","name":"Couleurs Bois & Spa","phone":"+33 6 37 98 64 93","source":"cadastre-dgi-fr source : Direction Générale des Finances Publiques - Cadastre. Mise à jour : 2014","tourism":"guest_house","website":"http://www.couleursboisetspa.com/"}},
{"type":"Feature","geometry":{"type":"Point","coordinates":[6.9256997,48.0811169]},"properties":{"historic":"memorial","inscription":"1914 1918 Xonrupt a ses enfants morts pour la patrie","material":"stone","memorial":"war_memorial","name":"Monument aux Morts","source":"knowledge"}},
{"type":"Feature","geometry":{"type":"Point","coordinates":[6.925883,48.0812492]},"properties":{"historic":"monument","inscription":"1939 1945 A nos martyrs","material":"stone","memorial":"war_memorial"}},
{"type":"Feature","geometry":{"type":"Point","coordinates":[6.9264105,48.0818354]},"properties":{"information":"map","map_type":"scheme","source":"knowledge","tourism":"information"}},
{"type":"Feature","geometry":{"type":"Point","coordinates":[6.9259589,48.0845301]},"properties":{"natural":"tree","source":"Bing"}},
{"type":"Feature","geometry":{"type":"Point","coordinates":[6.9262319,48.0845978]},"properties":{"natural":"tree","source":"Bing"}},
{"type":"Feature","geometry":{"type":"Point","coordinates":[6.9288722,47.9984586]},"properties":{"tourism":"viewpoint"}},
{"type":"Feature","geometry":{"type":"Point","coordinates":[6.9254492,48.0811506]},"properties":{"addr:city":"Xonrupt Longemer","addr:postcode":"88400","addr:street":"Place du 22 Octobre 1919","check_date":"2024-05-23","information":"board","name":"Office de Tourisme Gérardmer-Xonrupt","tourism":"information","website":"http://xonrupt.fr/fr/tourisme/services.aspx"}},
{"type":"Feature","geometry":{"type":"Point","coordinates":[6.9305473,48.0853205]},"properties":{"addr:city":"Xonrupt-Longemer","addr:housenumber":"161","addr:postcode":"88400","addr:street":"Route de la Roche du Page","ele":"760","name":"Gîte de la Roche du Page","tourism":"apartment","website":"https://www.larochedupage.com/"}},
{"type":"Feature","geometry":{"type":"Point","coordinates":[6.9909039,48.053107]},"properties":{"tourism":"viewpoint"}},
{"type":"Feature","geometry":{"type":"Point","coordinates":[6.985562,48.0128464]},"properties":{"historic":"memorial","inscription":"Place Emile KIENZLER\nPrésident du Club Vosgien de Mulhouse\nde 1945 à 1960","material":"metal","memorial":"plaque","name":"Place Emile Kienzler"}},
{"type":"Feature","geometry":{"type":"Point","coordinates":[6.9784089,48.0342366]},"properties":{"ele":"1034","hiking":"yes","information":"guidepost","mtb":"yes","name":"Lac de la Lande","tourism":"information"}},
{"type":"Feature","geometry":{"type":"Point","coordinates":[6.9991149,48.0413051]},"properties":{"ele":"1110","hiking":"yes","information":"guidepost","mtb":"yes","name":"Col de Thiaville","operator":"Club Vosgien","tourism":"information"}},
{"type":"Feature","geometry":{"type":"Point","coordinates":[6.957641,47.9742464]},"properties":{"name":"Vue sur le Lac de Kruth-Wildenstein","tourism":"viewpoint"}},
{"type":"Feature","geometry":{"type":"Point","coordinates":[6.9632075,47.9830632]},"properties":{"height":"23","name":"Cascade du Heidenbad","waterway":"waterfall","wikidata":"Q21027209"}},
{"type":"Feature","geometry":{"type":"Point","coordinates":[6.9649033,47.9850319]},"properties":{"description":"Parking sortie village vers Bramont","information":"map","map_size":"area","map_type":"yes","tourism":"information"}},
{"type":"Feature","geometry":{"type":"Point","coordinates":[6.9713844,48.0380874]},"properties":{"addr:housenumber":"88","addr:street":"Route de Vologne","name":"Odalys Résidence les Grandes Feignes","source":"cadastre-dgi-fr source : Direction Générale des Finances Publiques - Cadastre. Mise à jour : 2014","tourism":"apartment"}},
{"type":"Feature","geometry":{"type":"Point","coordinates":[6.9079519,48.0027542]},"properties":{"addr:housenumber":"76","addr:street":"Rue du Hohneck","source":"cadastre-dgi-fr source : Direction Générale des Finances Publiques - Cadastre. Mise à jour : 2014"}},
{"type":"Feature","geometry":{"type":"Point","coordinates":[6.9816903,48.0683558]},"properties":{"ele":"1072","mountain_pass":"yes","name":"Col de Malakoff","natural":"saddle","source":"survey"}},
{"type":"Feature","geometry":{"type":"Point","coordinates":[6.9694724,48.0718693]},"properties":{"ele":"1036","name":"Col de la Brande","natural":"saddle"}},
{"type":"Feature","geometry":{"type":"Point","coordinates":[6.9735956,48.0147278]},"properties":{"board_type":"nature","information":"board","name":"Natura 2000","source":"survey","tourism":"information"}},
{"type":"Feature","geometry":{"type":"Point","coordinates":[6.9471628,48.0530815]},"properties":{"bench":"yes","covered":"yes","leisure":"picnic_table","material":"wood","source":"survey"}},
{"type":"Feature","geometry":{"type":"Point","coordinates":[6.948179,48.0531183]},"properties":{"source":"survey","tourism":"picnic_site"}},
{"type":"Feature","geometry":{"type":"Point","coordinates":[6.9174458,47.9917114]},"properties":{"tourism":"picnic_site"}},
{"type":"Feature","geometry":{"type":"Point","coordinates":[6.9052963,47.9933698]},"properties":{"tourism":"picnic_site"}},
{"type":"Feature","geometry":{"type":"Point","coordinates":[6.9143405,47.9944184]},"properties":{"tourism":"viewpoint"}},
{"type":"Feature","geometry":{"type":"Point","coordinates":[6.9401684,48.0068852]},"properties":{"addr:housenumber":"1","addr:street":"Chemin Marcel Mauffrey","name":"Gîte Arnould","phone":"+33 3 29 25 41 74","tourism":"chalet","website":"https://www.gite-arnould.fr/presentation/"}},
{"type":"Feature","geometry":{"type":"Point","coordinates":[6.9794698,48.0176707]},"properties":{"leisure":"picnic_table","material":"wood","source":"survey; Mapbox Satellite"}},
{"type":"Feature","geometry":{"type":"Point","coordinates":[6.9783637,48.0179012]},"properties":{"covered":"no","leisure":"picnic_table","material":"wood","source":"survey; Mapbox Satellite"}},
{"type":"Feature","geometry":{"type":"Point","coordinates":[6.9752344,48.0187427]},"properties":{"leisure":"picnic_table","material":"wood","source":"survey; Mapbox Satellite"}},
{"type":"Feature","geometry":{"type":"Point","coordinates":[6.9752715,48.0187527]},"properties":{"leisure":"picnic_table","material":"wood","source":"survey; Mapbox Satellite"}},
{"type":"Feature","geometry":{"type":"Point","coordinates":[6.9793791,48.0165443]},"properties":{"hiking":"yes","information":"guidepost","source":"survey; Mapbox Satellite","tourism":"information"}},
{"type":"Feature","geometry":{"type":"Point","coordinates":[6.9783826,48.0181289]},"properties":{"hiking":"yes","information":"guidepost","source":"survey; Mapbox Satellite","tourism":"information"}},
{"type":"Feature","geometry":{"type":"Point","coordinates":[6.9748671,48.0184989]},"properties":{"information":"board","source":"survey; Mapbox Satellite","tourism":"information"}},
{"type":"Feature","geometry":{"type":"Point","coordinates":[6.9751137,48.0186794]},"properties":{"information":"board","source":"survey; Mapbox Satellite","tourism":"information"}},
{"type":"Feature","geometry":{"type":"Point","coordinates":[6.9612565,47.9978377]},"properties":{"description":"Vue sur le lac de Kruth","tourism":"viewpoint"}},
{"type":"Feature","geometry":{"type":"Point","coordinates":[6.9865412,48.0161825]},"properties":{"drinking_water":"conditional","natural":"spring","ref:refuges.info":"4208"}},
{"type":"Feature","geometry":{"type":"Point","coordinates":[6.9541134,48.0252475]},"properties":{"information":"board","tourism":"information"}},
{"type":"Feature","geometry":{"type":"Point","coordinates":[6.895268,48.0578995]},"properties":{"leisure":"pitch","name":"Station de trail","sport":"trail_running","website":"https://stationdetrail.com/fr/stations/vosges-gerardmer-vallee-de-munster"}},
{"type":"Feature","geometry":{"type":"Point","coordinates":[6.8930747,48.0806447]},"properties":{"leisure":"playground"}},
{"type":"Feature","geometry":{"type":"Point","coordinates":[6.9761409,48.0839251]},"properties":{"leisure":"picnic_table","source":"survey"}},
{"type":"Feature","geometry":{"type":"Point","coordinates":[6.920653,48.050135]},"properties":{"description":"Direction de l'itinéraire raquette n°1","hiking":"yes","information":"route_marker","ref":"1","source":"survey","support":"tree","symbol":"pair of snowshoes","tourism":"information"}},
{"type":"Feature","geometry":{"type":"Point","coordinates":[6.9173551,48.0539303]},"properties":{"description":"Direction de l'itinéraire raquette n°1","hiking":"yes","information":"route_marker","ref":"1","source":"survey","support":"tree","symbol":"pair of snowshoes","tourism":"information"}},
{"type":"Feature","geometry":{"type":"Point","coordinates":[6.9158596,48.0540893]},"properties":{"description":"Direction de l'itinéraire raquette n°1","hiking":"yes","information":"route_marker","ref":"1","source":"survey","support":"tree","symbol":"pair of snowshoes","tourism":"information"}},
{"type":"Feature","geometry":{"type":"Point","coordinates":[6.9153264,48.0541475]},"properties":{"description":"Direction de l'itinéraire raquette n°1","hiking":"yes","information":"route_marker","ref":"1","source":"survey","support":"tree","symbol":"pair of snowshoes","tourism":"information"}},
{"type":"Feature","geometry":{"type":"Point","coordinates":[6.9181851,48.0546272]},"properties":{"description":"Direction de l'itinéraire raquette n°1","hiking":"yes","information":"route_marker","ref":"1","source":"survey","support":"tree","symbol":"pair of snowshoes","tourism":"information"}},
{"type":"Feature","geometry":{"type":"Point","coordinates":[6.9183895,48.0549414]},"properties":{"description":"Direction de l'itinéraire raquette n°1","hiking":"yes","information":"route_marker","ref":"1","source":"survey","support":"tree","symbol":"pair of snowshoes","tourism":"information"}},
{"type":"Feature","geometry":{"type":"Point","coordinates":[6.9230516,48.0549773]},"properties":{"description":"Direction de l'itinéraire raquette n°1","hiking":"yes","information":"route_marker","ref":"1","source":"survey","support":"tree","symbol":"pair of snowshoes","tourism":"information"}},
{"type":"Feature","geometry":{"type":"Point","coordinates":[6.9188203,48.0553663]},"properties":{"description":"Direction de l'itinéraire raquette n°1","hiking":"yes","information":"route_marker","ref":"1","source":"survey","support":"tree","symbol":"pair of snowshoes","tourism":"information"}},
{"type":"Feature","geometry":{"type":"Point","coordinates":[6.9222661,48.0555353]},"properties":{"description":"Direction de l'itinéraire raquette n°1","hiking":"yes","information":"route_marker","ref":"1","source":"survey","support":"tree","symbol":"pair of snowshoes","tourism":"information"}},
{"type":"Feature","geometry":{"type":"Point","coordinates":[6.9187763,48.0555769]},"properties":{"description":"Direction de l'itinéraire raquette n°1","hiking":"yes","information":"route_marker","ref":"1","source":"survey","support":"tree","symbol":"pair of snowshoes","tourism":"information"}},
{"type":"Feature","geometry":{"type":"Point","coordinates":[6.9122871,48.0556218]},"properties":{"description":"Direction de l'itinéraire raquette n°1","hiking":"yes","information":"route_marker","ref":"1","source":"survey","support":"tree","symbol":"pair of snowshoes","tourism":"information"}},
{"type":"Feature","geometry":{"type":"Point","coordinates":[6.9194945,48.0557652]},"properties":{"description":"Direction de l'itinéraire raquette n°1","hiking":"yes","information":"route_marker","ref":"1","source":"survey","support":"tree","symbol":"pair of snowshoes","tourism":"information"}},
{"type":"Feature","geometry":{"type":"Point","coordinates":[6.9192276,48.0557698]},"properties":{"description":"Direction de l'itinéraire raquette n°1","hiking":"yes","information":"route_marker","ref":"1","source":"survey","support":"tree","symbol":"pair of snowshoes","tourism":"information"}},
{"type":"Feature","geometry":{"type":"Point","coordinates":[6.9129573,48.0558369]},"properties":{"description":"Direction de l'itinéraire raquette n°1","hiking":"yes","information":"route_marker","ref":"1","source":"survey","support":"tree","symbol":"pair of snowshoes","tourism":"information"}},
{"type":"Feature","geometry":{"type":"Point","coordinates":[6.9113531,48.0559104]},"properties":{"description":"Direction de l'itinéraire raquette n°1","hiking":"yes","information":"route_marker","ref":"1","source":"survey","support":"tree","symbol":"pair of snowshoes","tourism":"information"}},
{"type":"Feature","geometry":{"type":"Point","coordinates":[6.9101216,48.0559229]},"properties":{"description":"Direction de l'itinéraire raquette n°1","hiking":"yes","information":"route_marker","ref":"1","source":"survey","support":"tree","symbol":"pair of snowshoes","tourism":"information"}},
{"type":"Feature","geometry":{"type":"Point","coordinates":[6.9104383,48.0559364]},"properties":{"description":"Direction de l'itinéraire raquette n°1","hiking":"yes","information":"route_marker","ref":"1","source":"survey","support":"tree","symbol":"pair of snowshoes","tourism":"information"}},
{"type":"Feature","geometry":{"type":"Point","coordinates":[6.9111716,48.0559471]},"properties":{"description":"Direction de l'itinéraire raquette n°1","hiking":"yes","information":"route_marker","ref":"1","source":"survey","support":"tree","symbol":"pair of snowshoes","tourism":"information"}},
{"type":"Feature","geometry":{"type":"Point","coordinates":[6.9117454,48.0561027]},"properties":{"description":"Direction de l'itinéraire raquette n°1","hiking":"yes","information":"route_marker","ref":"1","source":"survey","support":"tree","symbol":"pair of snowshoes","tourism":"information"}},
{"type":"Feature","geometry":{"type":"Point","coordinates":[6.9199335,48.0561152]},"properties":{"description":"Direction de l'itinéraire raquette n°1","hiking":"yes","information":"route_marker","ref":"1","source":"survey","support":"tree","symbol":"pair of snowshoes","tourism":"information"}},
{"type":"Feature","geometry":{"type":"Point","coordinates":[6.9094236,48.056329]},"properties":{"description":"Direction de l'itinéraire raquette n°1","hiking":"yes","information":"route_marker","ref":"1","source":"survey","support":"tree","symbol":"pair of snowshoes","tourism":"information"}},
{"type":"Feature","geometry":{"type":"Point","coordinates":[6.9083201,48.0574605]},"properties":{"description":"Direction de l'itinéraire raquette n°1","hiking":"yes","information":"route_marker","ref":"1","source":"survey","support":"tree","symbol":"pair of snowshoes","tourism":"information"}},
{"type":"Feature","geometry":{"type":"Point","coordinates":[6.9027235,48.0580777]},"properties":{"description":"Direction de l'itinéraire raquette n°1","hiking":"yes","information":"route_marker","ref":"1","source":"survey","support":"tree","symbol":"pair of snowshoes","tourism":"information"}},
{"type":"Feature","geometry":{"type":"Point","coordinates":[6.9033794,48.0580865]},"properties":{"description":"Direction de l'itinéraire raquette n°1","hiking":"yes","information":"route_marker","ref":"1","source":"survey","support":"tree","symbol":"pair of snowshoes","tourism":"information"}},
{"type":"Feature","geometry":{"type":"Point","coordinates":[6.9024634,48.0581835]},"properties":{"description":"Direction de l'itinéraire raquette n°1","hiking":"yes","information":"route_marker","ref":"1","source":"survey","support":"tree","symbol":"pair of snowshoes","tourism":"information"}},
{"type":"Feature","geometry":{"type":"Point","coordinates":[6.9000753,48.0587643]},"properties":{"description":"Direction de l'itinéraire raquette n°1","hiking":"yes","information":"route_marker","ref":"1","source":"survey","support":"tree","symbol":"pair of snowshoes","tourism":"information"}},
{"type":"Feature","geometry":{"type":"Point","coordinates":[6.9080934,48.0700943]},"properties":{"information":"board","name":"Forêt Communale de Gérardmer","source":"knowledge","tourism":"information"}},
{"type":"Feature","geometry":{"type":"Point","coordinates":[6.9472803,48.053028]},"properties":{"board_type":"sport","information":"board","tourism":"information"}},
{"type":"Feature","geometry":{"type":"Point","coordinates":[6.933982,48.04778]},"properties":{"information":"board","tourism":"information"}},
{"type":"Feature","geometry":{"type":"Point","coordinates":[6.9325893,48.045024]},"properties":{"information":"board","tourism":"information"}},
{"type":"Feature","geometry":{"type":"Point","coordinates":[6.9331926,48.0446102]},"properties":{"information":"board","tourism":"information"}},
{"type":"Feature","geometry":{"type":"Point","coordinates":[6.9374196,48.0476003]},"properties":{"information":"board","tourism":"information"}},
{"type":"Feature","geometry":{"type":"Point","coordinates":[6.912498,48.0831045]},"properties":{"information":"route_marker","operator":"Station de Trail Vosges Gérardmer","ref":"7","running":"yes","source":"survey","support":"tree","tourism":"information"}},
{"type":"Feature","geometry":{"type":"Point","coordinates":[6.9101354,48.0833192]},"properties":{"information":"route_marker","operator":"Station de Trail Vosges Gérardmer","ref":"7","running":"yes","source":"survey","support":"tree","tourism":"information"}},
{"type":"Feature","geometry":{"type":"Point","coordinates":[6.9121591,48.0833433]},"properties":{"information":"route_marker","operator":"Station de Trail Vosges Gérardmer","ref":"7","running":"yes","source":"survey","support":"tree","tourism":"information"}},
{"type":"Feature","geometry":{"type":"Point","coordinates":[6.9113501,48.0835376]},"properties":{"information":"route_marker","operator":"Station de Trail Vosges Gérardmer","ref":"7","running":"yes","source":"survey","support":"tree","tourism":"information"}},
{"type":"Feature","geometry":{"type":"Point","coordinates":[6.9109584,48.0835568]},"properties":{"information":"route_marker","operator":"Station de Trail Vosges Gérardmer","ref":"7","running":"yes","source":"survey","support":"tree","tourism":"information"}},
{"type":"Feature","geometry":{"type":"Point","coordinates":[6.9115978,48.0842944]},"properties":{"information":"route_marker","operator":"Station de Trail Vosges Gérardmer","ref":"7","running":"yes","source":"survey","support":"tree","tourism":"information"}},
{"type":"Feature","geometry":{"type":"Point","coordinates":[6.9117328,48.0846648]},"properties":{"information":"route_marker","operator":"Station de Trail Vosges Gérardmer","ref":"7","running":"yes","source":"survey","support":"tree","tourism":"information"}},
{"type":"Feature","geometry":{"type":"Point","coordinates":[6.9452157,47.9880132]},"properties":{"ele":"1092","mountain_pass":"yes","name":"Col de Pourri Faing","natural":"saddle"}},
{"type":"Feature","geometry":{"type":"Point","coordinates":[6.8973531,47.9886618]},"properties":{"ele":"1055","name":"Collet Mansuy","natural":"saddle"}},
{"type":"Feature","geometry":{"type":"Point","coordinates":[6.9386545,48.0515318]},"properties":{"information":"board","name":"Sentier pédagogique","tourism":"information"}},
{"type":"Feature","geometry":{"type":"Point","coordinates":[7.004856,48.0264898]},"properties":{"natural":"rock","source":"Bing"}},
{"type":"Feature","geometry":{"type":"Point","coordinates":[7.0051185,48.0301311]},"properties":{"covered":"no","leisure":"picnic_table"}},
{"type":"Feature","geometry":{"type":"Point","coordinates":[7.004943,48.0302247]},"properties":{"covered":"no","leisure":"picnic_table"}},
{"type":"Feature","geometry":{"type":"Point","coordinates":[6.9990061,48.0326886]},"properties":{"information":"map","source":"Bing","tourism":"information"}},
{"type":"Feature","geometry":{"type":"Point","coordinates":[6.9694129,48.0088139]},"properties":{"name":"Tourbière de Machais","name:fr":"Tourbière de Machais","tourism":"information"}},
{"type":"Feature","geometry":{"type":"Point","coordinates":[6.9002509,48.0646576]},"properties":{"leisure":"picnic_table","source":"survey"}},
{"type":"Feature","geometry":{"type":"Point","coordinates":[6.9476253,48.0308786]},"properties":{"natural":"spring"}},
{"type":"Feature","geometry":{"type":"Point","coordinates":[6.9689786,48.0130881]},"properties":{"board_type":"nature","information":"board","name":"Natura 2000","source":"survey","tourism":"information"}},
{"type":"Feature","geometry":{"type":"Point","coordinates":[6.9744272,48.0656495]},"properties":{"name":"Belle Roche","tourism":"viewpoint"}},
{"type":"Feature","geometry":{"type":"Point","coordinates":[6.9830446,48.0619638]},"properties":{"name":"La Roche du Diable","tourism":"viewpoint"}},
{"type":"Feature","geometry":{"type":"Point","coordinates":[6.8974185,47.9886552]},"properties":{"ele":"1055","hiking":"yes","information":"guidepost","name":"Collet Mansuy","operator":"Club Vosgien","source":"gps","tourism":"information"}},
{"type":"Feature","geometry":{"type":"Point","coordinates":[6.9414997,48.0518072]},"properties":{"information":"board","name":"Une réserve d'eau","source":"gps","tourism":"information"}},
{"type":"Feature","geometry":{"type":"Point","coordinates":[6.9419817,48.0530238]},"properties":{"board_type":"nature","information":"board","name":"Le peuple des eaux","source":"gps","tourism":"information"}},
{"type":"Feature","geometry":{"type":"Point","coordinates":[6.9429253,48.0561236]},"properties":{"board_type":"nature","information":"board","name":"A fleur d'eau","source":"gps","tourism":"information"}},
{"type":"Feature","geometry":{"type":"Point","coordinates":[6.9461899,48.0548603]},"properties":{"board_type":"geology","check_date":"2022-03-14","information":"board","name":"Aux origines des tourbières","tourism":"information"}},
{"type":"Feature","geometry":{"type":"Point","coordinates":[6.9460318,48.0529182]},"properties":{"board_type":"nature","information":"board","tourism":"information"}},
{"type":"Feature","geometry":{"type":"Point","coordinates":[6.8950705,48.0270014]},"properties":{"tourism":"picnic_site"}},
{"type":"Feature","geometry":{"type":"Point","coordinates":[6.8964988,48.022339]},"properties":{"name":"Les chantenées","tourism":"chalet"}},
{"type":"Feature","geometry":{"type":"Point","coordinates":[6.998521,48.0411857]},"properties":{"natural":"rock","source":"BDOrtho IGN 2017;local_knowledge"}},
{"type":"Feature","geometry":{"type":"Point","coordinates":[6.9043578,48.0010609]},"properties":{"bench":"yes","covered":"yes","leisure":"picnic_table","material":"wood"}},
{"type":"Feature","geometry":{"type":"Point","coordinates":[6.9143268,48.0737891]},"properties":{"name":"Les Balcons de Juliette","tourism":"chalet"}},
{"type":"Feature","geometry":{"type":"Point","coordinates":[6.8965508,47.99575]},"properties":{"tourism":"chalet"}},
{"type":"Feature","geometry":{"type":"Point","coordinates":[6.8973119,47.9887625]},"properties":{"historic":"memorial","inscription":"À la mémoire de Jean Claude Abel, décédé accidentellement le 15 novembre 1978 à l’âge de 21 ans","memorial":"stele"}},
{"type":"Feature","geometry":{"type":"Point","coordinates":[6.916695,48.0467853]},"properties":{"information":"toposcope","tourism":"information"}},
{"type":"Feature","geometry":{"type":"Point","coordinates":[6.9875156,47.9694643]},"properties":{"drinking_water":"yes","natural":"spring"}},
{"type":"Feature","geometry":{"type":"Point","coordinates":[6.9025313,47.9893747]},"properties":{"covered":"no","leisure":"picnic_table"}},
{"type":"Feature","geometry":{"type":"Point","coordinates":[6.9053893,47.9894802]},"properties":{"amenity":"bench","backrest":"yes","material":"wood","seats":"4"}},
{"type":"Feature","geometry":{"type":"Point","coordinates":[6.9044056,47.9885237]},"properties":{"covered":"no","leisure":"picnic_table"}},
{"type":"Feature","geometry":{"type":"Point","coordinates":[6.9083431,47.9835379]},"properties":{"historic":"memorial","inscription":"A la memoire de Louis Lemaire, mort par accident 6-9-1866","memorial":"stone","name":"Croix Louis"}},
{"type":"Feature","geometry":{"type":"Point","coordinates":[6.9426501,47.9697961]},"properties":{"leisure":"picnic_table"}},
{"type":"Feature","geometry":{"type":"Point","coordinates":[6.9478922,48.0554281]},"properties":{"access":"yes","ele":"950","fee":"no","historic":"mine","man_made":"adit","mineral":"copper","name":"Ancienne Mine de Cuivre","natural":"cave_entrance","wheelchair":"no"}},
{"type":"Feature","geometry":{"type":"Point","coordinates":[6.9423737,47.9696546]},"properties":{"information":"board","tourism":"information"}},
{"type":"Feature","geometry":{"type":"Point","coordinates":[6.9238181,48.0828034]},"properties":{"internet_access":"wlan","internet_access:fee":"no","name":"Hôtel Interlaken","note":"Restaurant réservé à la clientèle de l'hôtel","phone":"+33 329 271 080","rooms":"19","tourism":"hotel","website":"https://www.hotel-interlaken.fr/"}},
{"type":"Feature","geometry":{"type":"Point","coordinates":[6.9273882,47.990707]},"properties":{"historic":"wayside_shrine","natural":"tree","note":"The shrine is part of the tree, hence the single node for both the tree and the shrine"}},
{"type":"Feature","geometry":{"type":"Point","coordinates":[6.8909316,47.9896169]},"properties":{"covered":"no","leisure":"picnic_table"}},
{"type":"Feature","geometry":{"type":"Point","coordinates":[6.9253369,47.9918415]},"properties":{"amenity":"fountain","ele":"1028","name":"Fontaine André","natural":"spring"}},
{"type":"Feature","geometry":{"type":"Point","coordinates":[6.9170858,47.9974982]},"properties":{"access":"private","natural":"spring","refitted":"yes"}},
{"type":"Feature","geometry":{"type":"Point","coordinates":[6.9171287,47.9966887]},"properties":{"access":"private","natural":"spring","refitted":"yes"}},
{"type":"Feature","geometry":{"type":"Point","coordinates":[6.9575188,48.0643794]},"properties":{"bench":"yes","leisure":"picnic_table","material":"wood"}},
{"type":"Feature","geometry":{"type":"Point","coordinates":[6.9573199,48.0639287]},"properties":{"tourism":"picnic_site"}},
{"type":"Feature","geometry":{"type":"Point","coordinates":[6.8939343,48.0073832]},"properties":{"natural":"spring"}},
{"type":"Feature","geometry":{"type":"Point","coordinates":[6.9251025,48.007706]},"properties":{"artwork_type":"sculpture","material":"wood","tourism":"artwork"}},
{"type":"Feature","geometry":{"type":"Point","coordinates":[6.8987945,48.0092333]},"properties":{"tourism":"viewpoint"}},
{"type":"Feature","geometry":{"type":"Point","coordinates":[6.9249417,48.0363401]},"properties":{"addr:city":"La Bresse","addr:housenumber":"21","addr:postcode":"88250","addr:street":"Route de la Courbe","internet_access":"wlan","internet_access:fee":"no","name":"Centre de vacances Le Pont du Metty","operator":"Odcvl","phone":"+33 329254320","tourism":"chalet","website":"http://metty.odcvl.org","wheelchair":"yes"}},
{"type":"Feature","geometry":{"type":"Point","coordinates":[6.9165587,47.999083]},"properties":{"contact:email":"contact@bol-d-air.fr","contact:fax":"+33 329 256 419","contact:phone":"+33 329 256 262","internet_access":"wlan","internet_access:fee":"no","name":"L'Escargot Géant","operator":"Bol d'Air Évasion","tourism":"chalet"}},
{"type":"Feature","geometry":{"type":"Point","coordinates":[6.9065045,48.0030081]},"properties":{"contact:email":"contact@bol-d-air.fr","contact:fax":"+33 329 256 419","contact:phone":"+33 329 256 262","contact:website":"https://www.bol-d-air.fr/gite-4-epis-vosges-la-ferme-de-ma-grand-mere-vosges_60_79","internet_access":"wlan","internet_access:fee":"no","name":"La Ferme de ma Grand Mère","operator":"Bol d'Air Évasion","rooms":"10","stars":"4","tourism":"chalet"}},
{"type":"Feature","geometry":{"type":"Point","coordinates":[6.9086742,48.002194]},"properties":{"beds":"22","contact:email":"contact@bol-d-air.fr","contact:fax":"+33 329 256 419","contact:phone":"+33 329 256 262","contact:website":"https://www.bol-d-air.fr/gite-vosges-gite-groupe-vosges_58_106","internet_access":"wlan","internet_access:fee":"no","name":"Gîte : Ti-Marmaille","operator":"Bol d'Air Évasion","rooms":"3","tourism":"chalet"}},
{"type":"Feature","geometry":{"type":"Point","coordinates":[6.9088528,48.0021341]},"properties":{"contact:email":"contact@bol-d-air.fr","contact:fax":"+33 329 256 419","contact:phone":"+33 329 256 262","internet_access":"wlan","internet_access:fee":"no","name":"Chalet du Rêve d'Icare","operator":"Bol d'Air Évasion","tourism":"chalet"}},
{"type":"Feature","geometry":{"type":"Point","coordinates":[6.9079716,48.0026743]},"properties":{"contact:email":"contact@bol-d-air.fr","contact:fax":"+33 329 256 419","contact:phone":"+33 329 256 262","internet_access":"wlan","internet_access:fee":"no","name":"Chalet de La Moselotte","operator":"Bol d'Air Évasion","rooms":"7","stars":"2","tourism":"hotel"}},
{"type":"Feature","geometry":{"type":"Point","coordinates":[6.9162422,47.9996035]},"properties":{"beds":"4","contact:email":"contact@bol-d-air.fr","contact:fax":"+33 329 256 419","contact:phone":"+33 329 256 262","contact:website":"https://www.bol-d-air.fr/cabanes-dans-les-arbres-la-cabane-du-pecheur_192_350","internet_access":"wlan","internet_access:fee":"no","name":"Cabane du Pêcheur","operator":"Bol d'Air Évasion","pets":"no","tourism":"chalet"}},
{"type":"Feature","geometry":{"type":"Point","coordinates":[6.9165426,47.9993262]},"properties":{"beds":"3","contact:email":"contact@bol-d-air.fr","contact:fax":"+33 329 256 419","contact:phone":"+33 329 256 262","contact:website":"http://la-clairiere-aux-cabanes.fr/cabanes-dans-les-arbres-vosges-baraque-du-don-suisse","internet_access":"wlan","internet_access:fee":"no","name":"La Baraque du Don Suisse","operator":"Bol d'Air Évasion","pets":"no","rooms":"2","tourism":"chalet"}},
{"type":"Feature","geometry":{"type":"Point","coordinates":[6.9145987,47.9998786]},"properties":{"contact:email":"contact@bol-d-air.fr","contact:fax":"+33 329 256 419","contact:phone":"+33 329 256 262","internet_access":"wlan","internet_access:fee":"no","name":"Rêve de Gosses","operator":"Bol d'Air Évasion","tourism":"chalet"}},
{"type":"Feature","geometry":{"type":"Point","coordinates":[6.9160384,47.9988829]},"properties":{"beds":"3","contact:email":"contact@bol-d-air.fr","contact:fax":"+33 329 256 419","contact:phone":"+33 329 256 262","contact:website":"http://la-clairiere-aux-cabanes.fr/cabane-d-exception-amour-de-chalet","internet_access":"wlan","internet_access:fee":"no","name":"Un Amour de Chalet","operator":"Bol d'Air Évasion","pets":"no","tourism":"chalet"}},
{"type":"Feature","geometry":{"type":"Point","coordinates":[6.9156428,47.9988973]},"properties":{"beds":"3","contact:email":"contact@bol-d-air.fr","contact:fax":"+33 329 256 419","contact:phone":"+33 329 256 262","internet_access":"wlan","internet_access:fee":"no","name":"La Maison du Hobbit","operator":"Bol d'Air Évasion","pets":"no","tourism":"chalet"}},
{"type":"Feature","geometry":{"type":"Point","coordinates":[6.9152847,47.9988946]},"properties":{"beds":"3","contact:email":"contact@bol-d-air.fr","contact:fax":"+33 329 256 419","contact:phone":"+33 329 256 262","contact:website":"http://la-clairiere-aux-cabanes.fr/cabane-d-exception-fuste-du-trappeur","internet_access":"wlan","internet_access:fee":"no","name":"La Fuste du Trappeur","operator":"Bol d'Air Évasion","pets":"no","tourism":"chalet"}},
{"type":"Feature","geometry":{"type":"Point","coordinates":[6.9149769,47.9990961]},"properties":{"beds":"5","contact:email":"contact@bol-d-air.fr","contact:fax":"+33 329 256 419","contact:phone":"+33 329 256 262","contact:website":"http://la-clairiere-aux-cabanes.fr/cabane-d-exception-refuge-improbable","internet_access":"wlan","internet_access:fee":"no","name":"Refuge Improbable","operator":"Bol d'Air Évasion","pets":"no","tourism":"chalet"}},
{"type":"Feature","geometry":{"type":"Point","coordinates":[6.9154134,47.9993711]},"properties":{"beds":"8","contact:email":"contact@bol-d-air.fr","contact:fax":"+33 329 256 419","contact:phone":"+33 329 256 262","contact:website":"http://la-clairiere-aux-cabanes.fr/cabanes-dans-les-arbres-la-tribu-perchee","internet_access":"wlan","internet_access:fee":"no","name":"La Tribu Perchée","operator":"Bol d'Air Évasion","pets":"no","tourism":"chalet"}},
{"type":"Feature","geometry":{"type":"Point","coordinates":[6.9814994,48.0050716]},"properties":{"tourism":"viewpoint"}},
{"type":"Feature","geometry":{"type":"Point","coordinates":[6.9769842,48.0062346]},"properties":{"tourism":"picnic_site"}},
{"type":"Feature","geometry":{"type":"Point","coordinates":[6.9840911,47.9790546]},"properties":{"information":"board","tourism":"information"}},
{"type":"Feature","geometry":{"type":"Point","coordinates":[6.9515224,48.0216742]},"properties":{"addr:city":"La Bresse","addr:housenumber":"83","addr:postcode":"88250","addr:street":"Route de Vologne","name":"Le Couarôge","phone":"+33 3 29 25 41 60","tourism":"apartment"}},
{"type":"Feature","geometry":{"type":"Point","coordinates":[6.9871516,48.0554406]},"properties":{"tourism":"picnic_site"}},
{"type":"Feature","geometry":{"type":"Point","coordinates":[6.9872039,48.0555187]},"properties":{"information":"map","tourism":"information"}},
{"type":"Feature","geometry":{"type":"Point","coordinates":[6.8962256,47.9737413]},"properties":{"leisure":"picnic_table"}},
{"type":"Feature","geometry":{"type":"Point","coordinates":[6.9604404,47.9766724]},"properties":{"historic":"memorial","memorial":"war_memorial"}},
{"type":"Feature","geometry":{"type":"Point","coordinates":[6.9717736,48.0073594]},"properties":{"board_type":"nature","description":"Réserve Naturelle Régionale\nHautes-Chaumes du Rothenbach","information":"board","tourism":"information"}},
{"type":"Feature","geometry":{"type":"Point","coordinates":[6.9743311,48.0086169]},"properties":{"board_type":"nature","description":"Réserve Naturelle Régionale\nHautes-Chaumes du Rothenbach","information":"board","tourism":"information"}},
{"type":"Feature","geometry":{"type":"Point","coordinates":[6.9565275,48.0105107]},"properties":{"information":"board","tourism":"information"}},
{"type":"Feature","geometry":{"type":"Point","coordinates":[6.9545087,48.0098061]},"properties":{"board_type":"nature","description":"Panneau d'information sur la tourbière de Machais","information":"board","tourism":"information"}},
{"type":"Feature","geometry":{"type":"Point","coordinates":[6.9456206,48.0005101]},"properties":{"board_type":"nature","information":"board","tourism":"information"}},
{"type":"Feature","geometry":{"type":"Point","coordinates":[6.994974,48.0150531]},"properties":{"tourism":"viewpoint"}},
{"type":"Feature","geometry":{"type":"Point","coordinates":[7.0067143,48.0182123]},"properties":{"natural":"spring"}},
{"type":"Feature","geometry":{"type":"Point","coordinates":[6.9475202,48.0316174]},"properties":{"tourism":"viewpoint"}},
{"type":"Feature","geometry":{"type":"Point","coordinates":[7.006176,48.0234049]},"properties":{"natural":"spring"}},
{"type":"Feature","geometry":{"type":"Point","coordinates":[6.9319922,47.9696833]},"properties":{"tourism":"viewpoint"}},
{"type":"Feature","geometry":{"type":"Point","coordinates":[6.903268,47.9887499]},"properties":{"covered":"no","leisure":"picnic_table"}},
{"type":"Feature","geometry":{"type":"Point","coordinates":[6.9463802,48.0653053]},"properties":{"circumference":"4.89","denotation":"natural_monument","height":"51.4","leaf_cycle":"evergreen","leaf_type":"needleleaved","name":"Sapin géant de la basse de la mine","natural":"tree"}},
{"type":"Feature","geometry":{"type":"Point","coordinates":[7.0056296,48.0799612]},"properties":{"bench":"yes","leisure":"picnic_table","lit":"no","material":"wood","source":"survey;gps","status":"good","survey_date":"2020-09-15"}},
{"type":"Feature","geometry":{"type":"Point","coordinates":[6.9672015,48.0054595]},"properties":{"direction":"W","name":"Tourbière de Machais","tourism":"viewpoint"}},
{"type":"Feature","geometry":{"type":"Point","coordinates":[6.9592407,48.0094962]},"properties":{"board_type":"nature","information":"board","name":"Tourbière de Machais","tourism":"information"}},
{"type":"Feature","geometry":{"type":"Point","coordinates":[6.9832905,47.9771299]},"properties":{"hiking":"yes","information":"guidepost","operator":"Club Vosgien","tourism":"information"}},
{"type":"Feature","geometry":{"type":"Point","coordinates":[6.9807411,48.0012197]},"properties":{"historic":"memorial","inscription":"Zum Gedächtnis der am 28.12.1965 im Schturm verunglückten Jürgen Kübler * 30.7.1945, Thomas Retter *20.5.1943 aus Stuttgart - Birkach.","material":"wood","memorial":"cross"}},
{"type":"Feature","geometry":{"type":"Point","coordinates":[6.8926169,48.0768291]},"properties":{"natural":"spring"}},
{"type":"Feature","geometry":{"type":"Point","coordinates":[6.971234,48.0851346]},"properties":{"ele":"800","hiking":"yes","information":"guidepost","name":"Belbriette","operator":"Fédération Française de Randonnée","tourism":"information"}},
{"type":"Feature","geometry":{"type":"Point","coordinates":[6.9478829,48.0553761]},"properties":{"board_type":"history","information":"board","name":"Ancienne Mine de Cuivre","tourism":"information"}},
{"type":"Feature","geometry":{"type":"Point","coordinates":[6.9478872,48.0678633]},"properties":{"historic":"wayside_cross","source":"IGN - 09/2020","wikidata":"Q111142441"}},
{"type":"Feature","geometry":{"type":"Point","coordinates":[6.9572532,48.064023]},"properties":{"natural":"tree"}},
{"type":"Feature","geometry":{"type":"Point","coordinates":[6.9571902,48.0639558]},"properties":{"natural":"tree"}},
{"type":"Feature","geometry":{"type":"Point","coordinates":[6.957154,48.0637407]},"properties":{"natural":"tree"}},
{"type":"Feature","geometry":{"type":"Point","coordinates":[6.9573149,48.0637246]},"properties":{"natural":"tree"}},
{"type":"Feature","geometry":{"type":"Point","coordinates":[6.9572076,48.0636538]},"properties":{"natural":"tree"}},
{"type":"Feature","geometry":{"type":"Point","coordinates":[6.9573162,48.0635615]},"properties":{"natural":"tree"}},
{"type":"Feature","geometry":{"type":"Point","coordinates":[6.9568911,48.0634342]},"properties":{"natural":"tree"}},
{"type":"Feature","geometry":{"type":"Point","coordinates":[6.9570816,48.0638241]},"properties":{"natural":"tree"}},
{"type":"Feature","geometry":{"type":"Point","coordinates":[6.9569716,48.0637488]},"properties":{"natural":"tree"}},
{"type":"Feature","geometry":{"type":"Point","coordinates":[6.9568737,48.0637075]},"properties":{"natural":"tree"}},
{"type":"Feature","geometry":{"type":"Point","coordinates":[6.9589913,48.0637434]},"properties":{"natural":"tree"}},
{"type":"Feature","geometry":{"type":"Point","coordinates":[6.9589336,48.06373]},"properties":{"natural":"tree"}},
{"type":"Feature","geometry":{"type":"Point","coordinates":[6.958766,48.0637371]},"properties":{"natural":"tree"}},
{"type":"Feature","geometry":{"type":"Point","coordinates":[6.9586976,48.0638294]},"properties":{"natural":"tree"}},
{"type":"Feature","geometry":{"type":"Point","coordinates":[6.9584857,48.0638698]},"properties":{"natural":"tree"}},
{"type":"Feature","geometry":{"type":"Point","coordinates":[6.9581974,48.0638232]},"properties":{"natural":"tree"}},
{"type":"Feature","geometry":{"type":"Point","coordinates":[6.9580472,48.063859]},"properties":{"natural":"tree"}},
{"type":"Feature","geometry":{"type":"Point","coordinates":[6.9596417,48.0639343]},"properties":{"natural":"tree"}},
{"type":"Feature","geometry":{"type":"Point","coordinates":[6.9598523,48.0637613]},"properties":{"natural":"tree"}},
{"type":"Feature","geometry":{"type":"Point","coordinates":[6.959698,48.0638043]},"properties":{"natural":"tree"}},
{"type":"Feature","geometry":{"type":"Point","coordinates":[6.9597316,48.0637434]},"properties":{"natural":"tree"}},
{"type":"Feature","geometry":{"type":"Point","coordinates":[6.9600937,48.0634512]},"properties":{"natural":"tree"}},
{"type":"Feature","geometry":{"type":"Point","coordinates":[6.9599837,48.0634853]},"properties":{"natural":"tree"}},
{"type":"Feature","geometry":{"type":"Point","coordinates":[6.9598643,48.0635328]},"properties":{"natural":"tree"}},
{"type":"Feature","geometry":{"type":"Point","coordinates":[6.9592139,48.0638671]},"properties":{"natural":"tree"}},
{"type":"Feature","geometry":{"type":"Point","coordinates":[6.9590677,48.0640042]},"properties":{"natural":"tree"}},
{"type":"Feature","geometry":{"type":"Point","coordinates":[6.9589537,48.0639558]},"properties":{"natural":"tree"}},
{"type":"Feature","geometry":{"type":"Point","coordinates":[6.9591495,48.0641377]},"properties":{"natural":"tree"}},
{"type":"Feature","geometry":{"type":"Point","coordinates":[6.9588719,48.0641664]},"properties":{"natural":"tree"}},
{"type":"Feature","geometry":{"type":"Point","coordinates":[6.9588317,48.0642704]},"properties":{"natural":"tree"}},
{"type":"Feature","geometry":{"type":"Point","coordinates":[6.9595425,48.064291]},"properties":{"covered":"no","leisure":"picnic_table"}},
{"type":"Feature","geometry":{"type":"Point","coordinates":[6.9596431,48.0640956]},"properties":{"covered":"no","leisure":"picnic_table"}},
{"type":"Feature","geometry":{"type":"Point","coordinates":[6.959749,48.063695]},"properties":{"covered":"no","leisure":"picnic_table"}},
{"type":"Feature","geometry":{"type":"Point","coordinates":[6.9596726,48.0637147]},"properties":{"covered":"no","leisure":"picnic_table"}},
{"type":"Feature","geometry":{"type":"Point","coordinates":[6.9592692,48.0638034]},"properties":{"covered":"no","leisure":"picnic_table"}},
{"type":"Feature","geometry":{"type":"Point","coordinates":[6.9591616,48.0638151]},"properties":{"covered":"no","leisure":"picnic_table"}},
{"type":"Feature","geometry":{"type":"Point","coordinates":[6.9587727,48.0636833]},"properties":{"information":"map","tourism":"information"}},
{"type":"Feature","geometry":{"type":"Point","coordinates":[6.9586319,48.0627423]},"properties":{"addr:housenumber":"3592","addr:street":"Route du Lac","caravans":"yes","name":"L'Orée du Bois","phone":"+33 3 29 63 30 94","tents":"40","tourism":"camp_site"}},
{"type":"Feature","geometry":{"type":"Point","coordinates":[6.9582805,48.0637533]},"properties":{"covered":"no","leisure":"picnic_table"}},
{"type":"Feature","geometry":{"type":"Point","coordinates":[6.9580954,48.0637837]},"properties":{"covered":"no","leisure":"picnic_table"}},
{"type":"Feature","geometry":{"type":"Point","coordinates":[6.9579647,48.0638084]},"properties":{"covered":"no","leisure":"picnic_table"}},
{"type":"Feature","geometry":{"type":"Point","coordinates":[7.0020749,48.0013013]},"properties":{"leaf_type":"needleleaved","name":"Sapin de Kolben","natural":"tree"}},
{"type":"Feature","geometry":{"type":"Point","coordinates":[6.9460624,48.0775753]},"properties":{"tourism":"picnic_site"}},
{"type":"Feature","geometry":{"type":"Point","coordinates":[6.9455776,48.0775673]},"properties":{"covered":"no","leisure":"picnic_table"}},
{"type":"Feature","geometry":{"type":"Point","coordinates":[6.9464922,48.0789427]},"properties":{"covered":"no","leisure":"picnic_table"}},
{"type":"Feature","geometry":{"type":"Point","coordinates":[6.9464211,48.0790475]},"properties":{"covered":"no","leisure":"picnic_table"}},
{"type":"Feature","geometry":{"type":"Point","coordinates":[6.9461837,48.0791622]},"properties":{"covered":"no","leisure":"picnic_table"}},
{"type":"Feature","geometry":{"type":"Point","coordinates":[6.9463326,48.079199]},"properties":{"covered":"no","leisure":"picnic_table"}},
{"type":"Feature","geometry":{"type":"Point","coordinates":[6.9464439,48.0791371]},"properties":{"covered":"no","leisure":"picnic_table"}},
{"type":"Feature","geometry":{"type":"Point","coordinates":[6.9466867,48.0791192]},"properties":{"covered":"no","leisure":"picnic_table"}},
{"type":"Feature","geometry":{"type":"Point","coordinates":[6.9473693,48.0790332]},"properties":{"covered":"no","leisure":"picnic_table"}},
{"type":"Feature","geometry":{"type":"Point","coordinates":[6.9473639,48.0791282]},"properties":{"covered":"no","leisure":"picnic_table"}},
{"type":"Feature","geometry":{"type":"Point","coordinates":[6.9471185,48.0791783]},"properties":{"covered":"no","leisure":"picnic_table"}},
{"type":"Feature","geometry":{"type":"Point","coordinates":[6.9472741,48.079224]},"properties":{"covered":"no","leisure":"picnic_table"}},
{"type":"Feature","geometry":{"type":"Point","coordinates":[6.9873476,48.0649596]},"properties":{"ele":"1129","natural":"peak"}},
{"type":"Feature","geometry":{"type":"Point","coordinates":[6.9780242,48.0689316]},"properties":{"ele":"1125","natural":"peak"}},
{"type":"Feature","geometry":{"type":"Point","coordinates":[6.9734591,48.0679637]},"properties":{"natural":"peak"}},
{"type":"Feature","geometry":{"type":"Point","coordinates":[6.9082885,48.0025347]},"properties":{"aerialway":"station","aerialway:access":"exit"}},
{"type":"Feature","geometry":{"type":"Point","coordinates":[6.9261285,48.0807728]},"properties":{"access":"yes","leisure":"playground"}},
{"type":"Feature","geometry":{"type":"Point","coordinates":[6.9255254,48.0810892]},"properties":{"bicycle":"yes","information":"map","tourism":"information"}},
{"type":"Feature","geometry":{"type":"Point","coordinates":[6.9149575,48.0629287]},"properties":{"leisure":"picnic_table","material":"wood"}},
{"type":"Feature","geometry":{"type":"Point","coordinates":[6.9985907,47.9728385]},"properties":{"historic":"ruins"}},
{"type":"Feature","geometry":{"type":"Point","coordinates":[6.9998393,48.0184883]},"properties":{"natural":"spring"}},
{"type":"Feature","geometry":{"type":"Point","coordinates":[6.9798228,48.0264369]},"properties":{"ele":"1232","name":"Grand Artimont","natural":"peak"}},
{"type":"Feature","geometry":{"type":"Point","coordinates":[6.9610411,48.0005083]},"properties":{"ele":"1160","name":"Ronde Tête","natural":"peak"}},
{"type":"Feature","geometry":{"type":"Point","coordinates":[6.9402206,47.9740771]},"properties":{"ele":"1137","name":"Rothenkopf","natural":"peak"}},
{"type":"Feature","geometry":{"type":"Point","coordinates":[6.952816,48.0419408]},"properties":{"ele":"1177","name":"Tête des Cerfs","natural":"peak"}},
{"type":"Feature","geometry":{"type":"Point","coordinates":[6.9731205,48.0519783]},"properties":{"ele":"1125","natural":"peak"}},
{"type":"Feature","geometry":{"type":"Point","coordinates":[6.9326909,48.0716147]},"properties":{"name":"Roche Toussaint","tourism":"viewpoint"}},
{"type":"Feature","geometry":{"type":"Point","coordinates":[6.9095119,48.0838663]},"properties":{"check_date":"2024-05-29","covered":"no","leisure":"picnic_table"}},
{"type":"Feature","geometry":{"type":"Point","coordinates":[6.9836775,47.9795444]},"properties":{"hiking":"yes","information":"guidepost","operator":"Club Vosgien","tourism":"information"}},
{"type":"Feature","geometry":{"type":"Point","coordinates":[6.9843709,47.9754948]},"properties":{"hiking":"yes","information":"guidepost","operator":"Club Vosgien","tourism":"information"}},
{"type":"Feature","geometry":{"type":"Point","coordinates":[6.9725295,47.9725619]},"properties":{"hiking":"yes","information":"guidepost","operator":"Club Vosgien","tourism":"information"}},
{"type":"Feature","geometry":{"type":"Point","coordinates":[6.9755297,47.9746999]},"properties":{"hiking":"yes","information":"guidepost","operator":"Club Vosgien","tourism":"information"}},
{"type":"Feature","geometry":{"type":"Point","coordinates":[6.9691188,47.9723972]},"properties":{"ele":"765","hiking":"yes","information":"guidepost","name":"Neufeld ferme","operator":"Club Vosgien","tourism":"information"}},
{"type":"Feature","geometry":{"type":"Point","coordinates":[6.96935,47.9737488]},"properties":{"hiking":"yes","information":"guidepost","operator":"Club Vosgien","tourism":"information"}},
{"type":"Feature","geometry":{"type":"Point","coordinates":[6.9800213,47.9867758]},"properties":{"natural":"rock"}},
{"type":"Feature","geometry":{"type":"Point","coordinates":[7.0011973,48.0110427]},"properties":{"hiking":"yes","information":"guidepost","operator":"Club Vosgien","tourism":"information"}},
{"type":"Feature","geometry":{"type":"Point","coordinates":[6.9997358,48.0102879]},"properties":{"hiking":"yes","information":"guidepost","operator":"Club Vosgien","tourism":"information"}},
{"type":"Feature","geometry":{"type":"Point","coordinates":[6.9979022,48.0108109]},"properties":{"hiking":"yes","information":"guidepost","operator":"Club Vosgien","tourism":"information"}},
{"type":"Feature","geometry":{"type":"Point","coordinates":[7.0011796,48.0032653]},"properties":{"hiking":"yes","information":"guidepost","operator":"Club Vosgien","tourism":"information"}},
{"type":"Feature","geometry":{"type":"Point","coordinates":[7.0021473,48.0013496]},"properties":{"hiking":"yes","information":"guidepost","operator":"Club Vosgien","tourism":"information"}},
{"type":"Feature","geometry":{"type":"Point","coordinates":[7.0021096,48.0013639]},"properties":{"information":"board","tourism":"information"}},
{"type":"Feature","geometry":{"type":"Point","coordinates":[7.0007261,48.0007693]},"properties":{"hiking":"yes","information":"guidepost","operator":"Club Vosgien","tourism":"information"}},
{"type":"Feature","geometry":{"type":"Point","coordinates":[6.9984523,48.001042]},"properties":{"information":"guidepost","name":"Vers point 48° / 7°","tourism":"information"}},
{"type":"Feature","geometry":{"type":"Point","coordinates":[6.9175514,47.9226746]},"properties":{"information":"board","tourism":"information"}},
{"type":"Feature","geometry":{"type":"Point","coordinates":[6.9825148,48.0586412]},"properties":{"board_type":"history","description":"La ligne Gérardmer - Retournemert et la ligne Retournemer - La Schlucht - Le Hohneck","information":"board","name":"Le Tramway de Retournemer","source":"survey","tourism":"information"}},
{"type":"Feature","geometry":{"type":"Point","coordinates":[6.9080223,48.0023651]},"properties":{"attraction":"bungee_jumping","operator":"Bol d'Air","tourism":"attraction"}},
{"type":"Feature","geometry":{"type":"Point","coordinates":[6.9411602,48.0508205]},"properties":{"hiking":"yes","information":"guidepost","operator":"Club Vosgien","tourism":"information"}},
{"type":"Feature","geometry":{"type":"Point","coordinates":[6.9403355,48.0501585]},"properties":{"hiking":"yes","information":"guidepost","operator":"Club Vosgien","tourism":"information"}},
{"type":"Feature","geometry":{"type":"Point","coordinates":[6.9453237,48.0501794]},"properties":{"hiking":"yes","information":"guidepost","operator":"Club Vosgien","tourism":"information"}},
{"type":"Feature","geometry":{"type":"Point","coordinates":[6.9464507,48.0493248]},"properties":{"hiking":"yes","information":"guidepost","operator":"Club Vosgien","tourism":"information"}},
{"type":"Feature","geometry":{"type":"Point","coordinates":[6.9488404,48.040364]},"properties":{"hiking":"yes","information":"guidepost","operator":"Club Vosgien","tourism":"information"}},
{"type":"Feature","geometry":{"type":"Point","coordinates":[6.9542877,48.0394256]},"properties":{"hiking":"yes","information":"guidepost","operator":"Club Vosgien","tourism":"information"}},
{"type":"Feature","geometry":{"type":"Point","coordinates":[6.9652724,48.0436738]},"properties":{"hiking":"yes","information":"guidepost","operator":"Club Vosgien","tourism":"information"}},
{"type":"Feature","geometry":{"type":"Point","coordinates":[6.9659936,48.0443528]},"properties":{"hiking":"yes","information":"guidepost","operator":"Club Vosgien","tourism":"information"}},
{"type":"Feature","geometry":{"type":"Point","coordinates":[6.9651341,48.0444131]},"properties":{"tourism":"viewpoint"}},
{"type":"Feature","geometry":{"type":"Point","coordinates":[6.9669514,48.044727]},"properties":{"hiking":"yes","information":"guidepost","operator":"Club Vosgien","tourism":"information"}},
{"type":"Feature","geometry":{"type":"Point","coordinates":[6.9645063,48.0458643]},"properties":{"hiking":"yes","information":"guidepost","operator":"Club Vosgien","tourism":"information"}},
{"type":"Feature","geometry":{"type":"Point","coordinates":[6.9637351,47.9840525]},"properties":{"description":"Fontaine","natural":"spring"}},
{"type":"Feature","geometry":{"type":"Point","coordinates":[6.9638178,47.9842704]},"properties":{"description":"Fontaine","natural":"spring"}},
{"type":"Feature","geometry":{"type":"Point","coordinates":[6.9633205,47.9833706]},"properties":{"tourism":"picnic_site"}},
{"type":"Feature","geometry":{"type":"Point","coordinates":[6.9452259,47.988255]},"properties":{"tourism":"information"}},
{"type":"Feature","geometry":{"type":"Point","coordinates":[7.0060346,48.0443264]},"properties":{"hiking":"yes","information":"guidepost","operator":"Club Vosgien","tourism":"information"}},
{"type":"Feature","geometry":{"type":"Point","coordinates":[6.9455761,48.0595671]},"properties":{"access":"yes","fee":"no","name":"La Grotte des Fées","natural":"cave_entrance","wheelchair":"no"}},
{"type":"Feature","geometry":{"type":"Point","coordinates":[6.920463,48.0011931]},"properties":{"historic":"wayside_cross","wikidata":"Q113296499"}},
{"type":"Feature","geometry":{"type":"Point","coordinates":[6.9333111,48.0054832]},"properties":{"historic":"wayside_cross","wikidata":"Q113296542"}},
{"type":"Feature","geometry":{"type":"Point","coordinates":[6.9298358,48.0039724]},"properties":{"historic":"wayside_cross","wikidata":"Q113296512"}},
{"type":"Feature","geometry":{"type":"Point","coordinates":[6.9011597,48.0039089]},"properties":{"historic":"wayside_cross","wikidata":"Q113367142"}},
{"type":"Feature","geometry":{"type":"Point","coordinates":[6.9138537,47.9894675]},"properties":{"historic":"wayside_cross"}},
{"type":"Feature","geometry":{"type":"Point","coordinates":[6.9914784,48.0203918]},"properties":{"ele":"1290","natural":"peak","source":"RGE_ALTI ign"}},
{"type":"Feature","geometry":{"type":"Point","coordinates":[6.9942535,48.0433151]},"properties":{"ele":"1168","natural":"peak","source":"RGE_ALTI ign"}},
{"type":"Feature","geometry":{"type":"Point","coordinates":[6.9887089,48.0436787]},"properties":{"ele":"1157","natural":"peak","source":"RGE_ALTI ign"}},
{"type":"Feature","geometry":{"type":"Point","coordinates":[6.9832359,48.0430166]},"properties":{"ele":"1139","natural":"peak","source":"RGE_ALTI ign"}},
{"type":"Feature","geometry":{"type":"Point","coordinates":[6.9856438,47.9943635]},"properties":{"information":"guidepost","tourism":"information"}},
{"type":"Feature","geometry":{"type":"Point","coordinates":[6.9741777,48.0085899]},"properties":{"historic":"boundary_stone","inscription":"Alt. 1205m\nLE MARKSTEIN 13\nGUEBWILLER 35\nTHANN 49\nCOL DE LA SCHLUCHT 9\nGERARDMER 24\nSte MARIE aux MINES 49","name":"Ht RHIN - VOSGES"}},
{"type":"Feature","geometry":{"type":"Point","coordinates":[6.9718161,48.0074347]},"properties":{"historic":"boundary_stone"}},
{"type":"Feature","geometry":{"type":"Point","coordinates":[6.966013,47.9874377]},"properties":{"historic":"wayside_shrine"}},
{"type":"Feature","geometry":{"type":"Point","coordinates":[6.9637346,47.9838609]},"properties":{"tourism":"picnic_site"}},
{"type":"Feature","geometry":{"type":"Point","coordinates":[6.9889773,47.9784238]},"properties":{"name":"Source du Weidenbach-Runz","natural":"spring"}},
{"type":"Feature","geometry":{"type":"Point","coordinates":[6.8909134,47.9896167]},"properties":{"drinking_water":"yes","natural":"spring","refitted":"yes"}},
{"type":"Feature","geometry":{"type":"Point","coordinates":[6.8910891,47.9895791]},"properties":{"hiking":"yes","information":"guidepost","operator":"Club Vosgien","tourism":"information"}},
{"type":"Feature","geometry":{"type":"Point","coordinates":[6.8936207,47.9821203]},"properties":{"information":"guidepost","tourism":"information"}},
{"type":"Feature","geometry":{"type":"Point","coordinates":[6.9530556,48.0382097]},"properties":{"natural":"tree","source":"BDOrtho IGN - available 2022 at the latest"}},
{"type":"Feature","geometry":{"type":"Point","coordinates":[6.9536805,48.0387073]},"properties":{"natural":"tree","source":"BDOrtho IGN - available 2022 at the latest"}},
{"type":"Feature","geometry":{"type":"Point","coordinates":[6.8913245,47.9896318]},"properties":{"natural":"tree","source":"BDOrtho IGN - available 2022 at the latest"}},
{"type":"Feature","geometry":{"type":"Point","coordinates":[6.9475369,48.0838459]},"properties":{"name":"Gite du lac","tourism":"chalet","website":"https://www.gite-du-lac.com/"}},
{"type":"Feature","geometry":{"type":"Point","coordinates":[6.9023698,48.0515544]},"properties":{"information":"map","tourism":"information"}},
{"type":"Feature","geometry":{"type":"Point","coordinates":[6.9191659,48.0395877]},"properties":{"name":"Captage d'eau","natural":"spring"}},
{"type":"Feature","geometry":{"type":"Point","coordinates":[6.9449012,48.0611817]},"properties":{"name":"Captage source","natural":"spring"}},
{"type":"Feature","geometry":{"type":"Point","coordinates":[6.9203588,48.0413829]},"properties":{"name":"Captage d'eau","natural":"spring"}},
{"type":"Feature","geometry":{"type":"Point","coordinates":[6.93177,48.05864]},"properties":{"name":"Source de Saint Jacques de Gérardmer","natural":"spring","ref:refuges.info":"6893"}},
{"type":"Feature","geometry":{"type":"Point","coordinates":[6.9618816,47.9840739]},"properties":{"hiking":"yes","information":"guidepost","operator":"Club Vosgien","tourism":"information"}},
{"type":"Feature","geometry":{"type":"Point","coordinates":[6.9607699,47.977045]},"properties":{"hiking":"yes","information":"guidepost","operator":"Club Vosgien","tourism":"information"}},
{"type":"Feature","geometry":{"type":"Point","coordinates":[6.9610066,47.9779863]},"properties":{"hiking":"yes","information":"guidepost","operator":"Club Vosgien","tourism":"information"}},
{"type":"Feature","geometry":{"type":"Point","coordinates":[6.9613149,47.9791279]},"properties":{"hiking":"yes","information":"guidepost","operator":"Club Vosgien","tourism":"information"}},
{"type":"Feature","geometry":{"type":"Point","coordinates":[6.9591946,47.9811379]},"properties":{"hiking":"yes","information":"guidepost","operator":"Club Vosgien","tourism":"information"}},
{"type":"Feature","geometry":{"type":"Point","coordinates":[6.9575757,47.9820463]},"properties":{"hiking":"yes","information":"guidepost","operator":"Club Vosgien","tourism":"information"}},
{"type":"Feature","geometry":{"type":"Point","coordinates":[6.9560411,47.9823365]},"properties":{"hiking":"yes","information":"guidepost","operator":"Club Vosgien","tourism":"information"}},
{"type":"Feature","geometry":{"type":"Point","coordinates":[6.9527604,47.9835693]},"properties":{"hiking":"yes","information":"guidepost","operator":"Club Vosgien","tourism":"information"}},
{"type":"Feature","geometry":{"type":"Point","coordinates":[6.9523593,47.9837087]},"properties":{"hiking":"yes","information":"guidepost","operator":"Club Vosgien","tourism":"information"}},
{"type":"Feature","geometry":{"type":"Point","coordinates":[6.953047,47.9960365]},"properties":{"hiking":"yes","information":"guidepost","operator":"Club Vosgien","tourism":"information"}},
{"type":"Feature","geometry":{"type":"Point","coordinates":[6.9872376,48.0052348]},"properties":{"historic":"wayside_cross","material":"metal"}},
{"type":"Feature","geometry":{"type":"Point","coordinates":[6.9485398,48.0830639]},"properties":{"addr:housenumber":"95","addr:postcode":"88400","addr:street":"Route des Berleux","name":"Le Perrus","tourism":"guest_house"}},
{"type":"Feature","geometry":{"type":"Point","coordinates":[6.9255265,48.0652573]},"properties":{"natural":"spring"}},
{"type":"Feature","geometry":{"type":"Point","coordinates":[6.9224087,48.0634945]},"properties":{"natural":"spring"}},
{"type":"Feature","geometry":{"type":"Point","coordinates":[6.9200344,48.0652428]},"properties":{"natural":"spring"}},
{"type":"Feature","geometry":{"type":"Point","coordinates":[6.9254539,48.0619599]},"properties":{"natural":"spring"}},
{"type":"Feature","geometry":{"type":"Point","coordinates":[6.9170241,48.0687847]},"properties":{"natural":"spring"}},
{"type":"Feature","geometry":{"type":"Point","coordinates":[6.9815643,48.0498879]},"properties":{"drinking_water":"no","name":"Fontaine du Skieur","natural":"spring"}},
{"type":"Feature","geometry":{"type":"Point","coordinates":[6.9818835,48.0701205]},"properties":{"name":"Souce Ferrugineuse","natural":"spring"}},
{"type":"Feature","geometry":{"type":"Point","coordinates":[6.9824226,48.0671193]},"properties":{"natural":"spring"}},
{"type":"Feature","geometry":{"type":"Point","coordinates":[6.9847289,48.0145813]},"properties":{"hiking":"yes","information":"guidepost","operator":"Club Vosgien","tourism":"information"}},
{"type":"Feature","geometry":{"type":"Point","coordinates":[6.9867035,48.0161879]},"properties":{"hiking":"yes","information":"guidepost","operator":"Club Vosgien","tourism":"information"}},
{"type":"Feature","geometry":{"type":"Point","coordinates":[6.9877918,48.0169414]},"properties":{"ele":"1215","hiking":"yes","information":"guidepost","name":"Ferschmuss (Firstmiss)","operator":"Club Vosgien","tourism":"information"}},
{"type":"Feature","geometry":{"type":"Point","coordinates":[6.991078,48.018805]},"properties":{"hiking":"yes","information":"guidepost","operator":"Club Vosgien","tourism":"information"}},
{"type":"Feature","geometry":{"type":"Point","coordinates":[7.0015113,48.0174015]},"properties":{"hiking":"yes","information":"guidepost","operator":"Club Vosgien","tourism":"information"}},
{"type":"Feature","geometry":{"type":"Point","coordinates":[6.9996565,48.0164969]},"properties":{"historic":"ruins","ruins":"house"}},
{"type":"Feature","geometry":{"type":"Point","coordinates":[6.9996422,48.015222]},"properties":{"hiking":"yes","information":"guidepost","operator":"Club Vosgien","tourism":"information"}},
{"type":"Feature","geometry":{"type":"Point","coordinates":[6.9988637,48.010215]},"properties":{"hiking":"yes","information":"guidepost","operator":"Club Vosgien","tourism":"information"}},
{"type":"Feature","geometry":{"type":"Point","coordinates":[6.9979178,48.0110538]},"properties":{"historic":"memorial","inscription":"BARRAGE DE L'ALTENWEIHER\nAltitude: 926 m NGF\nVolume de retenue\n670000 M3\nVolume du Barrage\n30000 M3\nAnnées de construction:\n1886-1893","material":"metal","memorial":"plaque"}},
{"type":"Feature","geometry":{"type":"Point","coordinates":[6.996018,48.010504]},"properties":{"hiking":"yes","information":"guidepost","operator":"Club Vosgien","tourism":"information"}},
{"type":"Feature","geometry":{"type":"Point","coordinates":[6.9931799,48.0095573]},"properties":{"hiking":"yes","information":"guidepost","operator":"Club Vosgien","tourism":"information"}},
{"type":"Feature","geometry":{"type":"Point","coordinates":[6.9910461,48.0102411]},"properties":{"tourism":"viewpoint"}},
{"type":"Feature","geometry":{"type":"Point","coordinates":[7.0055151,47.9774468]},"properties":{"hiking":"yes","information":"guidepost","operator":"Club Vosgien","tourism":"information"}},
{"type":"Feature","geometry":{"type":"Point","coordinates":[7.0035539,47.9765551]},"properties":{"hiking":"yes","information":"guidepost","operator":"Club Vosgien","tourism":"information"}},
{"type":"Feature","geometry":{"type":"Point","coordinates":[6.9648935,48.0622977]},"properties":{"leisure":"playground"}},
{"type":"Feature","geometry":{"type":"Point","coordinates":[6.9469355,48.0029133]},"properties":{"hiking":"yes","information":"guidepost","operator":"Club Vosgien","tourism":"information"}},
{"type":"Feature","geometry":{"type":"Point","coordinates":[6.9657449,48.0037132]},"properties":{"hiking":"yes","information":"guidepost","operator":"Club Vosgien","tourism":"information"}},
{"type":"Feature","geometry":{"type":"Point","coordinates":[6.9668771,48.0037451]},"properties":{"hiking":"yes","information":"guidepost","operator":"Club Vosgien","tourism":"information"}},
{"type":"Feature","geometry":{"type":"Point","coordinates":[6.9677368,48.0041663]},"properties":{"hiking":"yes","information":"guidepost","operator":"Club Vosgien","tourism":"information"}},
{"type":"Feature","geometry":{"type":"Point","coordinates":[6.9716483,48.0074112]},"properties":{"hiking":"yes","information":"guidepost","operator":"Club Vosgien","tourism":"information"}},
{"type":"Feature","geometry":{"type":"Point","coordinates":[6.9718192,48.0074618]},"properties":{"hiking":"yes","information":"guidepost","operator":"Club Vosgien","tourism":"information"}},
{"type":"Feature","geometry":{"type":"Point","coordinates":[6.9731849,48.0080317]},"properties":{"hiking":"yes","information":"guidepost","operator":"Club Vosgien","tourism":"information"}},
{"type":"Feature","geometry":{"type":"Point","coordinates":[6.9742611,48.008626]},"properties":{"hiking":"yes","information":"guidepost","operator":"Club Vosgien","tourism":"information"}},
{"type":"Feature","geometry":{"type":"Point","coordinates":[6.9761747,48.0093207]},"properties":{"hiking":"yes","information":"guidepost","operator":"Club Vosgien","tourism":"information"}},
{"type":"Feature","geometry":{"type":"Point","coordinates":[6.9817381,48.009471]},"properties":{"hiking":"yes","information":"guidepost","operator":"Club Vosgien","tourism":"information"}},
{"type":"Feature","geometry":{"type":"Point","coordinates":[6.9827946,48.0098068]},"properties":{"ele":"1305","hiking":"yes","information":"guidepost","name":"Rainkopf","operator":"Club Vosgien","tourism":"information"}},
{"type":"Feature","geometry":{"type":"Point","coordinates":[7.0052517,48.0409995]},"properties":{"hiking":"yes","information":"guidepost","operator":"Club Vosgien","tourism":"information"}},
{"type":"Feature","geometry":{"type":"Point","coordinates":[7.0031408,48.0430599]},"properties":{"hiking":"yes","information":"guidepost","operator":"Club Vosgien","tourism":"information"}},
{"type":"Feature","geometry":{"type":"Point","coordinates":[7.0023895,48.0425912]},"properties":{"hiking":"yes","information":"guidepost","operator":"Club Vosgien","tourism":"information"}},
{"type":"Feature","geometry":{"type":"Point","coordinates":[7.0008966,48.0428834]},"properties":{"hiking":"yes","information":"guidepost","operator":"Club Vosgien","tourism":"information"}},
{"type":"Feature","geometry":{"type":"Point","coordinates":[6.9829208,48.0397357]},"properties":{"hiking":"yes","information":"guidepost","operator":"Club Vosgien","tourism":"information"}},
{"type":"Feature","geometry":{"type":"Point","coordinates":[6.9783245,48.0443142]},"properties":{"hiking":"yes","information":"guidepost","operator":"Club Vosgien","tourism":"information"}},
{"type":"Feature","geometry":{"type":"Point","coordinates":[6.9776889,48.0454847]},"properties":{"hiking":"yes","information":"guidepost","operator":"Club Vosgien","tourism":"information"}},
{"type":"Feature","geometry":{"type":"Point","coordinates":[6.9757741,48.0469465]},"properties":{"hiking":"yes","information":"guidepost","operator":"Club Vosgien","tourism":"information"}},
{"type":"Feature","geometry":{"type":"Point","coordinates":[6.9686012,48.047319]},"properties":{"ele":"998","hiking":"yes","information":"guidepost","name":"Haut de la Grande Basse","operator":"Club Vosgien","tourism":"information"}},
{"type":"Feature","geometry":{"type":"Point","coordinates":[6.9680466,48.0472437]},"properties":{"hiking":"yes","information":"guidepost","operator":"Club Vosgien","tourism":"information"}},
{"type":"Feature","geometry":{"type":"Point","coordinates":[6.9677114,48.0473048]},"properties":{"hiking":"yes","information":"guidepost","operator":"Club Vosgien","tourism":"information"}},
{"type":"Feature","geometry":{"type":"Point","coordinates":[6.967425,48.0471316]},"properties":{"board_type":"sport","description":"Domaine Nordique  La Bresse- Lispach","information":"board","tourism":"information"}},
{"type":"Feature","geometry":{"type":"Point","coordinates":[6.9600043,48.0513774]},"properties":{"hiking":"yes","information":"guidepost","operator":"Club Vosgien","tourism":"information"}},
{"type":"Feature","geometry":{"type":"Point","coordinates":[6.959561,48.0515353]},"properties":{"hiking":"yes","information":"guidepost","operator":"Club Vosgien","tourism":"information"}},
{"type":"Feature","geometry":{"type":"Point","coordinates":[6.9598095,48.0536904]},"properties":{"ele":"1098","hiking":"yes","information":"guidepost","name":"Boule du Diable","operator":"Club Vosgien","tourism":"information"}},
{"type":"Feature","geometry":{"type":"Point","coordinates":[6.9581704,48.0530569]},"properties":{"hiking":"yes","information":"guidepost","operator":"Club Vosgien","tourism":"information"}},
{"type":"Feature","geometry":{"type":"Point","coordinates":[6.9478408,48.0568018]},"properties":{"ele":"1000","hiking":"yes","information":"guidepost","name":"Chaume de Fachepremont","operator":"Club Vosgien","tourism":"information"}},
{"type":"Feature","geometry":{"type":"Point","coordinates":[6.9430142,48.057008]},"properties":{"ele":"931","hiking":"yes","information":"guidepost","name":"Collet de la Mine","operator":"Club Vosgien","tourism":"information"}},
{"type":"Feature","geometry":{"type":"Point","coordinates":[6.9343276,48.0540126]},"properties":{"hiking":"yes","information":"guidepost","operator":"Club Vosgien","tourism":"information"}},
{"type":"Feature","geometry":{"type":"Point","coordinates":[6.9278587,48.0533632]},"properties":{"hiking":"yes","information":"guidepost","operator":"Club Vosgien","tourism":"information"}},
{"type":"Feature","geometry":{"type":"Point","coordinates":[6.9215881,48.0477422]},"properties":{"hiking":"yes","information":"guidepost","operator":"Club Vosgien","tourism":"information"}},
{"type":"Feature","geometry":{"type":"Point","coordinates":[6.9208791,48.045915]},"properties":{"hiking":"yes","information":"guidepost","operator":"Club Vosgien","tourism":"information"}},
{"type":"Feature","geometry":{"type":"Point","coordinates":[6.9216257,48.0439777]},"properties":{"hiking":"yes","information":"guidepost","operator":"Club Vosgien","tourism":"information"}},
{"type":"Feature","geometry":{"type":"Point","coordinates":[6.9192745,48.0405462]},"properties":{"board_type":"sport","description":"Espace Nordique Hautes-Vosges. Gérardmer Xonrupt/Longemer","information":"board","ski":"yes","tourism":"information"}},
{"type":"Feature","geometry":{"type":"Point","coordinates":[6.9256453,48.0411697]},"properties":{"board_type":"sport","description":"Espace Nordique Hautes-Vosges. Gérardmer Xonrupt/Longemer","information":"board","ski":"yes","tourism":"information"}},
{"type":"Feature","geometry":{"type":"Point","coordinates":[6.9258499,48.0410589]},"properties":{"hiking":"yes","information":"guidepost","operator":"Club Vosgien","tourism":"information"}},
{"type":"Feature","geometry":{"type":"Point","coordinates":[6.9332326,48.0364905]},"properties":{"hiking":"yes","information":"guidepost","operator":"Club Vosgien","tourism":"information"}},
{"type":"Feature","geometry":{"type":"Point","coordinates":[6.9398384,48.0290479]},"properties":{"hiking":"yes","information":"guidepost","operator":"Club Vosgien","tourism":"information"}},
{"type":"Feature","geometry":{"type":"Point","coordinates":[6.9401541,48.0319388]},"properties":{"hiking":"yes","information":"guidepost","operator":"Club Vosgien","tourism":"information"}},
{"type":"Feature","geometry":{"type":"Point","coordinates":[6.9449399,48.0307149]},"properties":{"hiking":"yes","information":"guidepost","operator":"Club Vosgien","tourism":"information"}},
{"type":"Feature","geometry":{"type":"Point","coordinates":[6.9426907,48.0283063]},"properties":{"hiking":"yes","information":"guidepost","operator":"Club Vosgien","tourism":"information"}},
{"type":"Feature","geometry":{"type":"Point","coordinates":[6.9477023,48.0313264]},"properties":{"hiking":"yes","information":"guidepost","operator":"Club Vosgien","tourism":"information"}},
{"type":"Feature","geometry":{"type":"Point","coordinates":[6.950204,48.026573]},"properties":{"hiking":"yes","information":"guidepost","operator":"Club Vosgien","tourism":"information"}},
{"type":"Feature","geometry":{"type":"Point","coordinates":[6.9464488,48.0255264]},"properties":{"description":"Coupé en 2006 . Hauteur : 45 m, Circonférence :  420 cm, Volume : 18 M3, Age 300 ans","information":"guidepost","name":"Le Gros Sapin","operator":"Club Vosgien","tourism":"information"}},
{"type":"Feature","geometry":{"type":"Point","coordinates":[6.9466644,48.0246015]},"properties":{"hiking":"yes","information":"guidepost","operator":"Club Vosgien","tourism":"information"}},
{"type":"Feature","geometry":{"type":"Point","coordinates":[6.9473855,48.0238079]},"properties":{"hiking":"yes","information":"guidepost","operator":"Club Vosgien","tourism":"information"}},
{"type":"Feature","geometry":{"type":"Point","coordinates":[6.9501827,48.0230274]},"properties":{"hiking":"yes","information":"guidepost","operator":"Club Vosgien","tourism":"information"}},
{"type":"Feature","geometry":{"type":"Point","coordinates":[6.9511803,48.0215658]},"properties":{"hiking":"yes","information":"guidepost","operator":"Club Vosgien","tourism":"information"}},
{"type":"Feature","geometry":{"type":"Point","coordinates":[6.9519721,48.0213014]},"properties":{"ele":"799","hiking":"yes","information":"guidepost","name":"Pont Jean D'Zoure","operator":"Club Vosgien","tourism":"information"}},
{"type":"Feature","geometry":{"type":"Point","coordinates":[6.9519751,48.021006]},"properties":{"hiking":"yes","information":"guidepost","operator":"Club Vosgien","tourism":"information"}},
{"type":"Feature","geometry":{"type":"Point","coordinates":[6.9497154,48.0175469]},"properties":{"hiking":"yes","information":"guidepost","operator":"Club Vosgien","tourism":"information"}},
{"type":"Feature","geometry":{"type":"Point","coordinates":[6.9489906,48.0129962]},"properties":{"hiking":"yes","information":"guidepost","operator":"Club Vosgien","tourism":"information"}},