{"type":"FeatureCollection","features":[
{"type":"Feature","geometry":{"type":"Point","coordinates":[6.2783988,43.7559031]},"properties":{"ele":"1577","name":"Le Grand Margès","natural":"peak","wikidata":"Q3113652","wikipedia":"fr:Grand Margès"}},
{"type":"Feature","geometry":{"type":"Point","coordinates":[6.3510082,43.8417408]},"properties":{"ele":"1930","name":"Mourre de Chanier","natural":"peak","wikidata":"Q3326159","wikipedia":"fr:Mourre de Chanier"}},
{"type":"Feature","geometry":{"type":"Point","coordinates":[6.2604073,43.7753974]},"properties":{"ele":"967","mountain_pass":"yes","name":"Col d'Illoire","natural":"saddle"}},
{"type":"Feature","geometry":{"type":"Point","coordinates":[6.267764,43.7843445]},"properties":{"ele":"713","mountain_pass":"yes","name":"Col de l'Olivier","natural":"saddle"}},
{"type":"Feature","geometry":{"type":"Point","coordinates":[6.3637286,43.7502671]},"properties":{"name":"Belvédère de la Gorge de Guègues","tourism":"viewpoint","website":"https://www.lesgorgesduverdon.fr/","wikidata":"Q687057","wikipedia":"en:Verdon Gorge"}},
{"type":"Feature","geometry":{"type":"Point","coordinates":[6.1991827,43.8974548]},"properties":{"tourism":"viewpoint"}},
{"type":"Feature","geometry":{"type":"Point","coordinates":[6.2686685,43.7637876]},"properties":{"drinking_water":"yes","ele":"1180","name":"Source de Vaumale","natural":"spring","ref:refuges.info":"3558"}},
{"type":"Feature","geometry":{"type":"Point","coordinates":[6.2640662,43.7671617]},"properties":{"tourism":"viewpoint"}},
{"type":"Feature","geometry":{"type":"Point","coordinates":[6.2432063,43.7757034]},"properties":{"addr:street":"Grand Rue","amenity":"lavoir","historic":"yes"}},
{"type":"Feature","geometry":{"type":"Point","coordinates":[6.2441519,43.7765714]},"properties":{"access":"private","historic":"ruins","historic:civilization":"medieval","ruins":"castle"}},
{"type":"Feature","geometry":{"type":"Point","coordinates":[6.2430212,43.7750526]},"properties":{"name":"Vue château","tourism":"viewpoint"}},
{"type":"Feature","geometry":{"type":"Point","coordinates":[6.24681,43.763737]},"properties":{"drinking_water":"yes","name":"Source des Mines","natural":"spring"}},
{"type":"Feature","geometry":{"type":"Point","coordinates":[6.2436018,43.7769078]},"properties":{"image":"https://base.apidae-tourisme.com/filestore/objets-touristiques/images/199/186/11123399.jpg?t=1633096514","name":"Vue lac","tourism":"viewpoint"}},
{"type":"Feature","geometry":{"type":"Point","coordinates":[6.4182675,43.854736]},"properties":{"ele":"1740","name":"Sommet de Pré Chauvin","natural":"peak"}},
{"type":"Feature","geometry":{"type":"Point","coordinates":[6.3417178,43.775506]},"properties":{"internet_access":"yes","internet_access:fee":"customers","name":"Auberge Cozy & Family","phone":"+33 4 92 79 39 43","tourism":"hostel"}},
{"type":"Feature","geometry":{"type":"Point","coordinates":[6.2571302,43.7806471]},"properties":{"ele":"1040","natural":"peak"}},
{"type":"Feature","geometry":{"type":"Point","coordinates":[6.2666937,43.8588955]},"properties":{"natural":"spring"}},
{"type":"Feature","geometry":{"type":"Point","coordinates":[6.227186,43.8091778]},"properties":{"leisure":"slipway"}},
{"type":"Feature","geometry":{"type":"Point","coordinates":[6.2545066,43.7892532]},"properties":{"tourism":"viewpoint"}},
{"type":"Feature","geometry":{"type":"Point","coordinates":[6.2548252,43.7944055]},"properties":{"tourism":"viewpoint"}},
{"type":"Feature","geometry":{"type":"Point","coordinates":[6.2542765,43.7913735]},"properties":{"tourism":"viewpoint"}},
{"type":"Feature","geometry":{"type":"Point","coordinates":[6.2672908,43.8030212]},"properties":{"tourism":"viewpoint"}},
{"type":"Feature","geometry":{"type":"Point","coordinates":[6.279928,43.7758503]},"properties":{"name":"Belvédère de Mayreste","tourism":"viewpoint"}},
{"type":"Feature","geometry":{"type":"Point","coordinates":[6.2734472,43.7898941]},"properties":{"ele":"1265","tourism":"viewpoint"}},
{"type":"Feature","geometry":{"type":"Point","coordinates":[6.2680779,43.8006616]},"properties":{"tourism":"viewpoint"}},
{"type":"Feature","geometry":{"type":"Point","coordinates":[6.269111,43.7981946]},"properties":{"ele":"1226","tourism":"viewpoint"}},
{"type":"Feature","geometry":{"type":"Point","coordinates":[6.2659474,43.8050521]},"properties":{"ele":"1168","mountain_pass":"yes","name":"Col de Plein Voir","natural":"saddle"}},
{"type":"Feature","geometry":{"type":"Point","coordinates":[6.2631893,43.7987488]},"properties":{"access":"yes","name":"Grottes de Saint-Maurin","natural":"cave_entrance","wikidata":"Q48756508","wikipedia":"fr:Grottes de Saint-Maurin"}},
{"type":"Feature","geometry":{"type":"Point","coordinates":[6.3934563,43.7753197]},"properties":{"name":"Belvédere de Rancoumas","tourism":"viewpoint"}},
{"type":"Feature","geometry":{"type":"Point","coordinates":[6.378766,43.7398709]},"properties":{"name":"La Mescla","name:oc":"La Mesclaa","source:name:oc":"ieo-bdtopoc","tourism":"attraction"}},
{"type":"Feature","geometry":{"type":"Point","coordinates":[6.3664141,43.9562695]},"properties":{"historic":"wayside_shrine"}},
{"type":"Feature","geometry":{"type":"Point","coordinates":[6.3706943,43.9513952]},"properties":{"addr:postcode":"04330","amenity":"restaurant","city":"Barrême","contact:email":"restaurantdelagare-04@orange.fr","contact:phone":"+33 4 92 34 20 03","name":"Hôtel-Restaurant de la Gare","opening_day":"Du 01/04 au 30/09.","ref:INSEE:city":"04022","source:modif":"Apidae (2017-11-21), in Opendata PACA","tourism":"hotel"}},
{"type":"Feature","geometry":{"type":"Point","coordinates":[6.365978,43.9548112]},"properties":{"historic":"wayside_cross"}},
{"type":"Feature","geometry":{"type":"Point","coordinates":[6.3664732,43.955641]},"properties":{"historic":"wayside_shrine"}},
{"type":"Feature","geometry":{"type":"Point","coordinates":[6.297631,43.8529852]},"properties":{"ele":"1286","mountain_pass":"yes","name":"Col des Abesses","natural":"saddle"}},
{"type":"Feature","geometry":{"type":"Point","coordinates":[6.1951028,43.9390077]},"properties":{"artwork_type":"statue","name":"Statues","tourism":"artwork"}},
{"type":"Feature","geometry":{"type":"Point","coordinates":[6.2249285,43.9536161]},"properties":{"historic":"ruins","name":"Chapelle Sainte-Marie","wikidata":"Q60368601"}},
{"type":"Feature","geometry":{"type":"Point","coordinates":[6.3912156,43.779891]},"properties":{"tourism":"viewpoint"}},
{"type":"Feature","geometry":{"type":"Point","coordinates":[6.3734125,43.7653368]},"properties":{"name":"Belvédère de la Dent d'Aïre","tourism":"viewpoint"}},
{"type":"Feature","geometry":{"type":"Point","coordinates":[6.3686974,43.7655092]},"properties":{"surface":"rock","tourism":"picnic_site"}},
{"type":"Feature","geometry":{"type":"Point","coordinates":[6.256443,43.8009514]},"properties":{"description":"Depuis ce point de vue on peut admirer le Lac de Sainte-Croix, avec le Pont du Galetas au premier plan.","name":"Belvédère de Galetas","tourism":"viewpoint"}},
{"type":"Feature","geometry":{"type":"Point","coordinates":[6.2276258,43.8274875]},"properties":{"tourism":"picnic_site"}},
{"type":"Feature","geometry":{"type":"Point","coordinates":[6.3935418,43.8358769]},"properties":{"ele":"1744","name":"Sommet du Pioulet","natural":"peak"}},
{"type":"Feature","geometry":{"type":"Point","coordinates":[6.3398147,43.9602034]},"properties":{"name":"Aire du Saut du Loup","tourism":"picnic_site"}},
{"type":"Feature","geometry":{"type":"Point","coordinates":[6.3349546,43.9620342]},"properties":{"tourism":"picnic_site"}},
{"type":"Feature","geometry":{"type":"Point","coordinates":[6.3254969,43.8630049]},"properties":{"name":"Portail de Blieux","natural":"saddle"}},
{"type":"Feature","geometry":{"type":"Point","coordinates":[6.3170316,43.8684139]},"properties":{"ele":"1905","name":"Le Chiran","natural":"peak","wikidata":"Q3321754"}},
{"type":"Feature","geometry":{"type":"Point","coordinates":[6.2478318,43.968912]},"properties":{"ele":"1600","name":"Montagne de Beynes","natural":"peak"}},
{"type":"Feature","geometry":{"type":"Point","coordinates":[6.3134912,43.7801441]},"properties":{"ele":"1560","name":"Cime de Barbin","natural":"peak","wikidata":"Q31656295"}},
{"type":"Feature","geometry":{"type":"Point","coordinates":[6.2221948,43.8482928]},"properties":{"historic":"wayside_shrine"}},
{"type":"Feature","geometry":{"type":"Point","coordinates":[6.2226315,43.8489847]},"properties":{"name":"Grotte-chapelle de Sainte-Madeleine","natural":"cave_entrance"}},
{"type":"Feature","geometry":{"type":"Point","coordinates":[6.2352709,43.9377299]},"properties":{"ele":"890","hiking":"yes","information":"guidepost","name":"Turquet","operator":"Provence Alpes Agglomération","ref":"Estoublon 31","source":"PDIPR 04","tourism":"information"}},
{"type":"Feature","geometry":{"type":"Point","coordinates":[6.2321309,43.94702]},"properties":{"ele":"630","hiking":"yes","information":"guidepost","name":"Carrefour des gorges","operator":"Provence Alpes Agglomération","ref":"Estoublon 22","source":"PDIPR 04","tourism":"information"}},
{"type":"Feature","geometry":{"type":"Point","coordinates":[6.2254779,43.9472479]},"properties":{"hiking":"yes","information":"map","map_size":"region","map_type":"topo","tourism":"information"}},
{"type":"Feature","geometry":{"type":"Point","coordinates":[6.2217879,43.9477448]},"properties":{"hiking":"yes","information":"map","map_size":"region","map_type":"topo","tourism":"information"}},
{"type":"Feature","geometry":{"type":"Point","coordinates":[6.2422145,43.932064]},"properties":{"hiking":"yes","information":"guidepost","operator":"Provence Alpes Agglomération","ref":"Estoublon 29","tourism":"information"}},
{"type":"Feature","geometry":{"type":"Point","coordinates":[6.2452556,43.9337207]},"properties":{"ele":"750","hiking":"yes","information":"guidepost","name":"Jardins de Valbonnette","operator":"Provence Alpes Agglomération","ref":"Estoublon 28","source":"PDIPR 04","tourism":"information"}},
{"type":"Feature","geometry":{"type":"Point","coordinates":[6.2123765,43.9349949]},"properties":{"hiking":"yes","information":"guidepost","tourism":"information"}},
{"type":"Feature","geometry":{"type":"Point","coordinates":[6.2110792,43.9367769]},"properties":{"hiking":"yes","information":"guidepost","tourism":"information"}},
{"type":"Feature","geometry":{"type":"Point","coordinates":[6.2410188,43.9415525]},"properties":{"ele":"795","hiking":"yes","information":"guidepost","name":"Carrefour de Saint-André","operator":"Provence Alpes Agglomération","ref":"Estoublon 26","source":"PDIPR 04","tourism":"information"}},
{"type":"Feature","geometry":{"type":"Point","coordinates":[6.2274752,43.9433804]},"properties":{"hiking":"yes","information":"guidepost","name":"Belvédère","operator":"Provence Alpes Agglomération","ref":"Estoublon 32","source":"PDIPR 04","tourism":"information"}},
{"type":"Feature","geometry":{"type":"Point","coordinates":[6.2275901,43.9438529]},"properties":{"tourism":"viewpoint"}},
{"type":"Feature","geometry":{"type":"Point","coordinates":[6.2276539,43.9440284]},"properties":{"tourism":"viewpoint"}},
{"type":"Feature","geometry":{"type":"Point","coordinates":[6.2371873,43.9457951]},"properties":{"natural":"saddle"}},
{"type":"Feature","geometry":{"type":"Point","coordinates":[6.2211776,43.8505934]},"properties":{"hiking":"yes","information":"guidepost","name":"Le Riou","operator":"Provence Alpes Agglomération","ref":"Moustiers 60","source":"PDIPR 04","tourism":"information"}},
{"type":"Feature","geometry":{"type":"Point","coordinates":[6.2142452,43.8534271]},"properties":{"hiking":"yes","information":"guidepost","mtb":"yes","name":"L'Automnée","operator":"Provence Alpes Agglomération","ref":"Moustiers 47","source":"PDIPR 04","tourism":"information"}},
{"type":"Feature","geometry":{"type":"Point","coordinates":[6.1914099,43.8549715]},"properties":{"bicycle":"yes","hiking":"yes","information":"guidepost","tourism":"information"}},
{"type":"Feature","geometry":{"type":"Point","coordinates":[6.2286678,43.8571891]},"properties":{"hiking":"yes","information":"guidepost","mtb":"yes","tourism":"information"}},
{"type":"Feature","geometry":{"type":"Point","coordinates":[6.2288259,43.8580341]},"properties":{"ele":"985","hiking":"yes","information":"guidepost","mtb":"yes","name":"Mirelous","operator":"Provence Alpes Agglomération","ref":"Moustiers 45","source":"PDIPR 04","tourism":"information"}},
{"type":"Feature","geometry":{"type":"Point","coordinates":[6.189285,43.8586368]},"properties":{"bicycle":"yes","hiking":"yes","information":"guidepost","name":"Ségriès","operator":"Provence Alpes Agglomération","ref":"Moustiers 52","source":"PDIPR 04","tourism":"information"}},
{"type":"Feature","geometry":{"type":"Point","coordinates":[6.2324556,43.8739]},"properties":{"hiking":"yes","information":"guidepost","tourism":"information"}},
{"type":"Feature","geometry":{"type":"Point","coordinates":[6.2098985,43.8815369]},"properties":{"bicycle":"yes","hiking":"yes","information":"guidepost","name":"Négaras","operator":"Provence Alpes Agglomération","ref":"St Jurs 16","source":"PDIPR 04","tourism":"information"}},
{"type":"Feature","geometry":{"type":"Point","coordinates":[6.2210507,43.9373486]},"properties":{"tourism":"viewpoint"}},
{"type":"Feature","geometry":{"type":"Point","coordinates":[6.4025593,43.7977964]},"properties":{"historic":"ruins","name":"Château Fort de Rougon"}},
{"type":"Feature","geometry":{"type":"Point","coordinates":[6.4026193,43.7976431]},"properties":{"tourism":"viewpoint"}},
{"type":"Feature","geometry":{"type":"Point","coordinates":[6.3154572,43.7689916]},"properties":{"ele":"1031","mountain_pass":"yes","name":"Col d'Ayen","natural":"saddle"}},
{"type":"Feature","geometry":{"type":"Point","coordinates":[6.2244846,43.9537449]},"properties":{"description":"Hameau ruiné.","historic":"ruins","name":"Trévans"}},
{"type":"Feature","geometry":{"type":"Point","coordinates":[6.2509286,43.7552105]},"properties":{"tourism":"viewpoint"}},
{"type":"Feature","geometry":{"type":"Point","coordinates":[6.2214603,43.8480923]},"properties":{"description":"Clevacances 3 clés","name":"Location vacances L'Oustaou","source":"http://www.locations-moustiers.com/","tourism":"guest_house"}},
{"type":"Feature","geometry":{"type":"Point","coordinates":[6.2203514,43.8406923]},"properties":{"addr:street":"Route de La Palud","email":"infos@le-colombier.com","name":"Le Colombier","phone":"+33 4 92 74 66 02","rooms":"22","stars":"3","tourism":"hotel"}},
{"type":"Feature","geometry":{"type":"Point","coordinates":[6.2370426,43.8442381]},"properties":{"ele":"920","hiking":"yes","information":"guidepost","name":"Baisse de Courchon","operator":"Provence Alpes Agglomération","ref":"Moustiers 28","source":"PDIPR 04","tourism":"information"}},
{"type":"Feature","geometry":{"type":"Point","coordinates":[6.2391719,43.8450033]},"properties":{"hiking":"yes","information":"guidepost","name":"Pierrefeu","operator":"Provence Alpes Agglomération","ref":"Moustiers 27","source":"PDIPR 04","tourism":"information"}},
{"type":"Feature","geometry":{"type":"Point","coordinates":[6.2301807,43.8474519]},"properties":{"ele":"900","hiking":"yes","information":"guidepost","name":"Ravin de Notre Dame","operator":"Provence Alpes Agglomération","ref":"Moustiers 29","source":"PDIPR 04","tourism":"information"}},
{"type":"Feature","geometry":{"type":"Point","coordinates":[6.2472939,43.8495374]},"properties":{"hiking":"yes","information":"guidepost","mtb":"yes","tourism":"information"}},
{"type":"Feature","geometry":{"type":"Point","coordinates":[6.2340197,43.909632]},"properties":{"name":"Col de Saint-Jurs - Spot d'astronomie","tourism":"viewpoint"}},
{"type":"Feature","geometry":{"type":"Point","coordinates":[6.3208561,43.7535494]},"properties":{"information":"guidepost","tourism":"information"}},
{"type":"Feature","geometry":{"type":"Point","coordinates":[6.3428728,43.7805011]},"properties":{"ele":"920","hiking":"yes","information":"guidepost","name":"Clocher Notre-DAme","tourism":"information"}},
{"type":"Feature","geometry":{"type":"Point","coordinates":[6.3410932,43.7796472]},"properties":{"addr:city":"La Palud-sur-Verdon","addr:postcode":"04120","addr:street":"La Cort dau Castèu","email":"lapaludsurverdon@verdontourisme.com","information":"office","internet_access":"yes","internet_access:fee":"no","name":"Bureau d'Information Touristique de la Palud-sur-Verdon","operator":"Office de Tourisme Intercommunal Verdon Tourisme","phone":"+33 4 92 77 32 02","tourism":"information","website":"https://www.verdontourisme.com/le-verdon/nos-villages/nos-6-destinations/la-palud-sur-verdon-au-coeur-des-gorges-du-verdon/","wheelchair":"yes"}},
{"type":"Feature","geometry":{"type":"Point","coordinates":[6.3794517,43.8146274]},"properties":{"ele":"1327","hiking":"yes","information":"guidepost","name":"La Grau","operator":"Communauté de communes Alpes Provence Verdon","ref":"Rougon 15","source":"PDIPR 04","tourism":"information"}},
{"type":"Feature","geometry":{"type":"Point","coordinates":[6.3786594,43.814607]},"properties":{"ele":"1328","hiking":"yes","information":"guidepost","name":"Peicard","operator":"Communauté de communes Alpes Provence Verdon","ref":"Rougon 13","source":"PDIPR 04","tourism":"information"}},
{"type":"Feature","geometry":{"type":"Point","coordinates":[6.3899446,43.8082953]},"properties":{"ele":"1212","hiking":"yes","information":"guidepost","name":"Plateau de Suech","operator":"Communauté de communes Alpes Provence Verdon","ref":"Rougon 12","source":"PDIPR 04","tourism":"information"}},
{"type":"Feature","geometry":{"type":"Point","coordinates":[6.4016361,43.799175]},"properties":{"hiking":"yes","information":"guidepost","name":"Rougon","operator":"Communauté de communes Alpes Provence Verdon","ref":"Rougon 2","source":"PDIPR 04","tourism":"information"}},
{"type":"Feature","geometry":{"type":"Point","coordinates":[6.4010262000000008,43.7992659]},"properties":{"amenity":"drinking_water"}},
{"type":"Feature","geometry":{"type":"Point","coordinates":[6.4009856,43.7992723]},"properties":{"hiking":"yes","information":"guidepost","name":"Rougon","operator":"Communauté de communes Alpes Provence Verdon","ref":"Rougon 1","source":"PDIPR 04","tourism":"information"}},
{"type":"Feature","geometry":{"type":"Point","coordinates":[6.4008559,43.8021438]},"properties":{"historic":"wayside_shrine"}},
{"type":"Feature","geometry":{"type":"Point","coordinates":[6.3904437,43.8075985]},"properties":{"hiking":"yes","information":"guidepost","tourism":"information"}},
{"type":"Feature","geometry":{"type":"Point","coordinates":[6.2900586,43.9823229]},"properties":{"historic":"ruins"}},
{"type":"Feature","geometry":{"type":"Point","coordinates":[6.289298,43.9829509]},"properties":{"historic":"ruins"}},
{"type":"Feature","geometry":{"type":"Point","coordinates":[6.2876961,43.9833225]},"properties":{"historic":"ruins"}},
{"type":"Feature","geometry":{"type":"Point","coordinates":[6.4213735,43.937257]},"properties":{"mountain_pass":"yes","name":"Col de la Pierre Plantée","natural":"saddle"}},
{"type":"Feature","geometry":{"type":"Point","coordinates":[6.22196,43.8467916]},"properties":{"drinking_water":"yes","natural":"spring"}},
{"type":"Feature","geometry":{"type":"Point","coordinates":[6.4108653,43.9154294]},"properties":{"tourism":"picnic_site"}},
{"type":"Feature","geometry":{"type":"Point","coordinates":[6.2167957,43.8434949]},"properties":{"entrance":"yes"}},
{"type":"Feature","geometry":{"type":"Point","coordinates":[6.2149914,43.8436745]},"properties":{"entrance":"main"}},
{"type":"Feature","geometry":{"type":"Point","coordinates":[6.365966,43.756429]},"properties":{"ele":"1319","natural":"saddle"}},
{"type":"Feature","geometry":{"type":"Point","coordinates":[6.4217828,43.8367896]},"properties":{"addr:city":"Castellane","addr:housenumber":"GR4","addr:postcode":"04120","addr:street":"Hameau de Chasteuil","email":"chasteuil.locations@gmail.com","guest_house":"self_catering","internet_access":"yes","internet_access:fee":"customers","name":"Chasteuil Studio & Chambres","operator":"Chasteuil Locations","rooms":"3","tourism":"guest_house","website":"https://www.chasteuil.com/"}},
{"type":"Feature","geometry":{"type":"Point","coordinates":[6.2359901,43.9043404]},"properties":{"ele":"1523","name":"L'Agra","natural":"peak"}},
{"type":"Feature","geometry":{"type":"Point","coordinates":[6.3723446,43.7677638]},"properties":{"name":"Secteur Débado","source":"data.gouv.fr:Le ministère des droits des femmes, de la ville, de la jeunesse et des sports - 2014","sport":"climbing"}},
{"type":"Feature","geometry":{"type":"Point","coordinates":[6.3419884,43.7791488]},"properties":{"leisure":"playground","name":"Tobogan","tourism":"picnic_site"}},
{"type":"Feature","geometry":{"type":"Point","coordinates":[6.3906151,43.780542]},"properties":{"name":"Belvédère de Trescaïre Haut","tourism":"viewpoint"}},
{"type":"Feature","geometry":{"type":"Point","coordinates":[6.383965,43.7752077]},"properties":{"name":"Belvédère de la Carelle","tourism":"viewpoint"}},
{"type":"Feature","geometry":{"type":"Point","coordinates":[6.209121,43.7737203]},"properties":{"amenity":"fountain","description":"Fontaine de l'ancien village","drinking_water":"yes","historic":"yes","lit":"no","name":"Fontaine Freye","tourism":"yes"}},
{"type":"Feature","geometry":{"type":"Point","coordinates":[6.2101747,43.7741933]},"properties":{"leisure":"playground"}},
{"type":"Feature","geometry":{"type":"Point","coordinates":[6.2643369,43.7993901]},"properties":{"name":"Grotte-émergence de Saint-Maurin","natural":"cave_entrance","wikidata":"Q48755423","wikipedia":"fr:Grotte-émergence de Saint-Maurin"}},
{"type":"Feature","geometry":{"type":"Point","coordinates":[6.2645417,43.8128335]},"properties":{"ele":"1094","mountain_pass":"yes","name":"Col de l'Âne","natural":"saddle"}},
{"type":"Feature","geometry":{"type":"Point","coordinates":[6.3375636,43.7803673]},"properties":{"historic":"wayside_shrine"}},
{"type":"Feature","geometry":{"type":"Point","coordinates":[6.3396023,43.7822011]},"properties":{"historic":"wayside_shrine"}},
{"type":"Feature","geometry":{"type":"Point","coordinates":[6.3429435,43.7803854]},"properties":{"historic":"wayside_cross"}},
{"type":"Feature","geometry":{"type":"Point","coordinates":[6.3207578,43.7558478]},"properties":{"name":"Belvédère de Maugué","tourism":"viewpoint"}},
{"type":"Feature","geometry":{"type":"Point","coordinates":[6.3196305,43.7584865]},"properties":{"name":"Belvédère Armanet","tourism":"viewpoint"}},
{"type":"Feature","geometry":{"type":"Point","coordinates":[6.2409849,43.7737408]},"properties":{"access":"private","barrier":"gate","source":"Bing"}},
{"type":"Feature","geometry":{"type":"Point","coordinates":[6.2424895,43.7732859]},"properties":{"natural":"tree"}},
{"type":"Feature","geometry":{"type":"Point","coordinates":[6.2426317,43.7734505]},"properties":{"natural":"tree"}},
{"type":"Feature","geometry":{"type":"Point","coordinates":[6.2425244,43.7734563]},"properties":{"natural":"tree"}},
{"type":"Feature","geometry":{"type":"Point","coordinates":[6.2427631,43.7733498]},"properties":{"natural":"tree"}},
{"type":"Feature","geometry":{"type":"Point","coordinates":[6.2432303,43.7742294]},"properties":{"natural":"tree"}},
{"type":"Feature","geometry":{"type":"Point","coordinates":[6.242629,43.7733557]},"properties":{"natural":"tree"}},
{"type":"Feature","geometry":{"type":"Point","coordinates":[6.2427577,43.7734389]},"properties":{"natural":"tree"}},
{"type":"Feature","geometry":{"type":"Point","coordinates":[6.2426209,43.7732782]},"properties":{"natural":"tree"}},
{"type":"Feature","geometry":{"type":"Point","coordinates":[6.2427631,43.7732646]},"properties":{"natural":"tree"}},
{"type":"Feature","geometry":{"type":"Point","coordinates":[6.2424225,43.773466]},"properties":{"natural":"tree"}},
{"type":"Feature","geometry":{"type":"Point","coordinates":[6.2417431,43.7754728]},"properties":{"natural":"tree"}},
{"type":"Feature","geometry":{"type":"Point","coordinates":[6.2417538,43.7753682]},"properties":{"natural":"tree"}},
{"type":"Feature","geometry":{"type":"Point","coordinates":[6.2843653,43.8431584]},"properties":{"ele":"1625","name":"Le Pavillon","natural":"peak","wikidata":"Q31679193"}},
{"type":"Feature","geometry":{"type":"Point","coordinates":[6.2422186,43.7744564]},"properties":{"natural":"tree"}},
{"type":"Feature","geometry":{"type":"Point","coordinates":[6.2422964,43.7745746]},"properties":{"natural":"tree"}},
{"type":"Feature","geometry":{"type":"Point","coordinates":[6.2423903,43.7744854]},"properties":{"natural":"tree"}},
{"type":"Feature","geometry":{"type":"Point","coordinates":[6.2213196,43.8412614]},"properties":{"natural":"tree"}},
{"type":"Feature","geometry":{"type":"Point","coordinates":[6.2212405,43.8412564]},"properties":{"natural":"tree"}},
{"type":"Feature","geometry":{"type":"Point","coordinates":[6.2157456,43.8445797]},"properties":{"natural":"tree"}},
{"type":"Feature","geometry":{"type":"Point","coordinates":[6.215793,43.8445373]},"properties":{"natural":"tree"}},
{"type":"Feature","geometry":{"type":"Point","coordinates":[6.3693244,43.8724903]},"properties":{"addr:city":"Blieux","addr:place":"Le Vieux Village","addr:postcode":"04330","capacity":"28","description":"2010-03 : Capacité de 28 places réparties sur 2 bâtiments. Agrément Jeunesse et Sports. Restauration Bio. Idéal stages, foramtions, séjour nature, séjour sportif, fête entre amis ou en famille","mobile":"+33 7 71 13 26 63","name":"Gîte la Chambrette","phone":"+33 4 92 37 25 21","ref:refuges.info":"2874","tourism":"guest_house","website":"http://gite-la-chambrette.fr/"}},
{"type":"Feature","geometry":{"type":"Point","coordinates":[6.3254161,43.9759567]},"properties":{"historic":"ruins"}},
{"type":"Feature","geometry":{"type":"Point","coordinates":[6.254981,43.8978821]},"properties":{"ele":"1751","name":"Le Montdenier","natural":"peak","wikidata":"Q31637037"}},
{"type":"Feature","geometry":{"type":"Point","coordinates":[6.2563842,43.9250691]},"properties":{"name":"Pont de Tuf","tourism":"information"}},
{"type":"Feature","geometry":{"type":"Point","coordinates":[6.4030469,43.7651401]},"properties":{"name":"Aven d'Arme Vieille","natural":"cave_entrance"}},
{"type":"Feature","geometry":{"type":"Point","coordinates":[6.2453716,43.973427]},"properties":{"historic":"wayside_cross"}},
{"type":"Feature","geometry":{"type":"Point","coordinates":[6.291086,43.7905911]},"properties":{"name":"Aven de l'Espérance","natural":"cave_entrance"}},
{"type":"Feature","geometry":{"type":"Point","coordinates":[6.2828874,43.7904672]},"properties":{"name":"Aven des Grands Ducs","natural":"cave_entrance"}},
{"type":"Feature","geometry":{"type":"Point","coordinates":[6.2810889,43.7895819]},"properties":{"name":"Aven de Grand Jean","natural":"cave_entrance"}},
{"type":"Feature","geometry":{"type":"Point","coordinates":[6.2244749,43.9518306]},"properties":{"historic":"ruins"}},
{"type":"Feature","geometry":{"type":"Point","coordinates":[6.224607,43.953452]},"properties":{"historic":"ruins"}},
{"type":"Feature","geometry":{"type":"Point","coordinates":[6.2248944,43.9537793]},"properties":{"historic":"ruins"}},
{"type":"Feature","geometry":{"type":"Point","coordinates":[6.2850438,43.9382473]},"properties":{"historic":"ruins"}},
{"type":"Feature","geometry":{"type":"Point","coordinates":[6.2434001,43.7755613]},"properties":{"source:modif":"Apidae (2017-11-21), in Opendata PACA"}},
{"type":"Feature","geometry":{"type":"Point","coordinates":[6.243452,43.7755573]},"properties":{"source:modif":"Apidae (2017-11-21), in Opendata PACA"}},
{"type":"Feature","geometry":{"type":"Point","coordinates":[6.2435123,43.7755676]},"properties":{"source:modif":"Apidae (2017-11-21), in Opendata PACA"}},
{"type":"Feature","geometry":{"type":"Point","coordinates":[6.2435585,43.7756974]},"properties":{"source:modif":"Apidae (2017-11-21), in Opendata PACA"}},
{"type":"Feature","geometry":{"type":"Point","coordinates":[6.2434511,43.7755644]},"properties":{"source:modif":"Apidae (2017-11-21), in Opendata PACA"}},
{"type":"Feature","geometry":{"type":"Point","coordinates":[6.2435233,43.7757556]},"properties":{"source:modif":"Apidae (2017-11-21), in Opendata PACA"}},
{"type":"Feature","geometry":{"type":"Point","coordinates":[6.2433562,43.775727]},"properties":{"source:modif":"Apidae (2017-11-21), in Opendata PACA"}},
{"type":"Feature","geometry":{"type":"Point","coordinates":[6.2090738,43.7742071]},"properties":{"source:modif":"Apidae (2017-11-21), in Opendata PACA"}},
{"type":"Feature","geometry":{"type":"Point","coordinates":[6.2086217,43.7742821]},"properties":{"source:modif":"Apidae (2017-11-21), in Opendata PACA"}},
{"type":"Feature","geometry":{"type":"Point","coordinates":[6.2089976,43.7741156]},"properties":{"source:modif":"Apidae (2017-11-21), in Opendata PACA"}},
{"type":"Feature","geometry":{"type":"Point","coordinates":[6.2082719,43.773602]},"properties":{"name":"Studi'hotel Plein voile","source:modif":"Apidae (2017-11-21), in Opendata PACA","tourism":"hotel"}},
{"type":"Feature","geometry":{"type":"Point","coordinates":[6.2258966,43.820194]},"properties":{"leisure":"sports_centre","name":"Centre de Loisir Le Petit Lac"}},
{"type":"Feature","geometry":{"type":"Point","coordinates":[6.2228917,43.8476197]},"properties":{"heritage":"2","heritage:operator":"mhs","historic":"stone","mhs:inscription_date":"1913","name":"Cippe en pierre formant station de chemin de croix","ref:mhs":"PA00080437","source:heritage":"data.gouv.fr:Ministère de la Culture - 08/2011","wikidata":"Q22998313"}},
{"type":"Feature","geometry":{"type":"Point","coordinates":[6.1881837,43.8611099]},"properties":{"name":"Grottes de Ségriès","natural":"cave_entrance"}},
{"type":"Feature","geometry":{"type":"Point","coordinates":[6.2225564,43.8471449]},"properties":{"drinking_water":"no","name":"Source de l'Adou","natural":"spring"}},
{"type":"Feature","geometry":{"type":"Point","coordinates":[6.2735058,43.7733147]},"properties":{"tourism":"viewpoint"}},
{"type":"Feature","geometry":{"type":"Point","coordinates":[6.262474,43.7945497]},"properties":{"hiking":"yes","information":"guidepost","tourism":"information"}},
{"type":"Feature","geometry":{"type":"Point","coordinates":[6.2766878,43.775335]},"properties":{"historic":"ruins","name":"Ancienne passerelle de Maireste"}},
{"type":"Feature","geometry":{"type":"Point","coordinates":[6.3099054,43.9790633]},"properties":{"natural":"tree"}},
{"type":"Feature","geometry":{"type":"Point","coordinates":[6.310008,43.9789859]},"properties":{"natural":"tree"}},
{"type":"Feature","geometry":{"type":"Point","coordinates":[6.3100959,43.9789133]},"properties":{"natural":"tree"}},
{"type":"Feature","geometry":{"type":"Point","coordinates":[6.4169875,43.951775]},"properties":{"leisure":"picnic_table"}},
{"type":"Feature","geometry":{"type":"Point","coordinates":[6.4173559,43.9519]},"properties":{"artwork_type":"sculpture","name":"Napoléon","tourism":"artwork"}},
{"type":"Feature","geometry":{"type":"Point","coordinates":[6.4176379,43.9520702]},"properties":{"tourism":"artwork"}},
{"type":"Feature","geometry":{"type":"Point","coordinates":[6.4174705,43.952027]},"properties":{"tourism":"artwork"}},
{"type":"Feature","geometry":{"type":"Point","coordinates":[6.3206239,43.7575607]},"properties":{"name":"Belvédère de l'Imbut","tourism":"viewpoint"}},
{"type":"Feature","geometry":{"type":"Point","coordinates":[6.3170709,43.7595871]},"properties":{"name":"Belvédère de Bau Béni","tourism":"viewpoint"}},
{"type":"Feature","geometry":{"type":"Point","coordinates":[6.2045455,43.7734424]},"properties":{"addr:street":"Quartier Margaridon","email":"basenautique@lessallessurverdon.fr","fee":"yes","leisure":"sports_centre","name":"Base nautique municipale des Salles-sur-Verdon","name:en":"Municipal nautical base of Les Salles-sur-Verdon","operator":"Mairie des Salles-sur-Verdon","operator:type":"government","phone":"+33 4 94 76 50 88","source":"data.gouv.fr:Le ministère des droits des femmes, de la ville, de la jeunesse et des sports - 2014","sport":"swimming;canoe","website":"https://basenautiqueverdon.fr"}},
{"type":"Feature","geometry":{"type":"Point","coordinates":[6.2614138,43.7956485]},"properties":{"ele":"591","hiking":"yes","information":"guidepost","name":"Pré de St Maurin","operator":"Communauté de communes Alpes Provence Verdon","ref":"La Palud 4","source":"PDIPR 04","tourism":"information"}},
{"type":"Feature","geometry":{"type":"Point","coordinates":[6.4011072,43.7993274]},"properties":{"historic":"memorial","memorial":"war_memorial"}},
{"type":"Feature","geometry":{"type":"Point","coordinates":[6.4015621,43.7992382]},"properties":{"addr:city":"Rougon","addr:postcode":"04120","addr:street":"Place de la Terrasse","information":"office","name":"Point Multi-services","tourism":"information"}},
{"type":"Feature","geometry":{"type":"Point","coordinates":[6.3113922,43.9796024]},"properties":{"leisure":"playground"}},
{"type":"Feature","geometry":{"type":"Point","coordinates":[6.2264784,43.9681525]},"properties":{"ele":"950","hiking":"yes","information":"guidepost","name":"Les Quatre Chemins","operator":"Provence Alpes Agglomération","ref":"Beynes 18","tourism":"information"}},
{"type":"Feature","geometry":{"type":"Point","coordinates":[6.2396861,43.7750933]},"properties":{"bench":"yes","leisure":"picnic_table","lit":"no","material":"wood"}},
{"type":"Feature","geometry":{"type":"Point","coordinates":[6.2396593,43.7750255]},"properties":{"natural":"tree"}},
{"type":"Feature","geometry":{"type":"Point","coordinates":[6.2397103,43.7751107]},"properties":{"natural":"tree"}},
{"type":"Feature","geometry":{"type":"Point","coordinates":[6.2396513,43.7749965]},"properties":{"bench":"yes","leisure":"picnic_table","lit":"no","material":"wood"}},
{"type":"Feature","geometry":{"type":"Point","coordinates":[6.2396754,43.7750661]},"properties":{"natural":"tree"}},
{"type":"Feature","geometry":{"type":"Point","coordinates":[6.2397264,43.775132]},"properties":{"bench":"yes","leisure":"picnic_table","lit":"no","material":"wood"}},
{"type":"Feature","geometry":{"type":"Point","coordinates":[6.2396647,43.7750448]},"properties":{"bench":"yes","leisure":"picnic_table","lit":"no","material":"wood"}},
{"type":"Feature","geometry":{"type":"Point","coordinates":[6.255934,43.8871571]},"properties":{"name":"Le Colostre","natural":"spring"}},
{"type":"Feature","geometry":{"type":"Point","coordinates":[6.3028725,43.9825321]},"properties":{"information":"board","name":"Chaudon-Norante","tourism":"information"}},
{"type":"Feature","geometry":{"type":"Point","coordinates":[6.3030997,43.982438]},"properties":{"information":"board","name":"horaires","tourism":"information"}},
{"type":"Feature","geometry":{"type":"Point","coordinates":[6.3706658,43.9510153]},"properties":{"information":"board","name":"horaires","tourism":"information"}},
{"type":"Feature","geometry":{"type":"Point","coordinates":[6.3708601,43.9510746]},"properties":{"information":"board","name":"Direction","tourism":"information"}},
{"type":"Feature","geometry":{"type":"Point","coordinates":[6.3701223,43.9510009]},"properties":{"genus":"sequoia","genus:en":"sequoia","genus:fr":"sequoia","leaf_cycle":"evergreen","leaf_type":"needleleaved","natural":"tree"}},
{"type":"Feature","geometry":{"type":"Point","coordinates":[6.3703624,43.9510694]},"properties":{"genus":"sequoia","genus:en":"sequoia","genus:fr":"sequoia","leaf_cycle":"evergreen","leaf_type":"needleleaved","natural":"tree"}},
{"type":"Feature","geometry":{"type":"Point","coordinates":[6.3706561,43.9511119]},"properties":{"name":"Exposition de Fossiles","tourism":"museum"}},
{"type":"Feature","geometry":{"type":"Point","coordinates":[6.2621707,43.904473]},"properties":{"ele":"1344","name":"Col de la Mort de l'Homme","natural":"saddle"}},
{"type":"Feature","geometry":{"type":"Point","coordinates":[6.2236109,43.8480632]},"properties":{"tourism":"viewpoint"}},
{"type":"Feature","geometry":{"type":"Point","coordinates":[6.2237477,43.8483499]},"properties":{"tourism":"viewpoint"}},
{"type":"Feature","geometry":{"type":"Point","coordinates":[6.3031813,43.9822891]},"properties":{"genus":"sequoia","genus:en":"sequoia","genus:fr":"sequoia","leaf_cycle":"evergreen","leaf_type":"needleleaved","natural":"tree"}},
{"type":"Feature","geometry":{"type":"Point","coordinates":[6.4145835,43.8494883]},"properties":{"ele":"1446","name":"Colle Basse","natural":"saddle"}},
{"type":"Feature","geometry":{"type":"Point","coordinates":[6.3700308,43.951825]},"properties":{"tourism":"picnic_site"}},
{"type":"Feature","geometry":{"type":"Point","coordinates":[6.2677162,43.7842475]},"properties":{"name":"La Colle de I'Olivier","tourism":"information"}},
{"type":"Feature","geometry":{"type":"Point","coordinates":[6.2417961,43.7962861]},"properties":{"addr:city":"Aiguines","addr:postcode":"83630","addr:street":"Camping Le Galetas","caravan_site":"motorhome_stopover","caravan_site:type":"camp_site","charge":"10 EUR","fee":"yes","name":"Aire de camping-car Le Galetas","operator":"Mairie d'Aiguines, Camping Le Galetas","phone":"+33 4 94 70 20 48","power_supply":"no","sanitary_dump_station":"yes","tourism":"caravan_site","website":"https://www.lacs-gorges-verdon.fr/hebergement/campings/4449-le-galetas.html"}},
{"type":"Feature","geometry":{"type":"Point","coordinates":[6.2429669,43.77375]},"properties":{"natural":"tree"}},
{"type":"Feature","geometry":{"type":"Point","coordinates":[6.2429337,43.773565]},"properties":{"natural":"tree"}},
{"type":"Feature","geometry":{"type":"Point","coordinates":[6.2429823,43.773826]},"properties":{"natural":"tree"}},
{"type":"Feature","geometry":{"type":"Point","coordinates":[6.2430318,43.7748143]},"properties":{"addr:housenumber":"1","addr:street":"Place de la Mairie","email":"aiguines.tourisme@cclgv.fr","information":"office","internet_access":"wlan","internet_access:fee":"no","level":"0","name":"Office de Tourisme","name:en":"Tourist Office","operator":"Communauté de communes Lacs et Gorges du Verdon","phone":"+33 4 94 70 21 64","source":"local knowledge","tourism":"information","website":"https://www.lacs-gorges-verdon.fr/","wheelchair":"limited"}},
{"type":"Feature","geometry":{"type":"Point","coordinates":[6.2430955,43.7744381]},"properties":{"natural":"tree"}},
{"type":"Feature","geometry":{"type":"Point","coordinates":[6.2430717,43.7742769]},"properties":{"natural":"tree"}},
{"type":"Feature","geometry":{"type":"Point","coordinates":[6.2430408,43.7741068]},"properties":{"natural":"tree"}},
{"type":"Feature","geometry":{"type":"Point","coordinates":[6.2430244,43.7740175]},"properties":{"natural":"tree"}},
{"type":"Feature","geometry":{"type":"Point","coordinates":[6.2430025,43.7739294]},"properties":{"natural":"tree"}},
{"type":"Feature","geometry":{"type":"Point","coordinates":[6.231063,43.8401968]},"properties":{"tourism":"viewpoint"}},
{"type":"Feature","geometry":{"type":"Point","coordinates":[6.2301818,43.8300593]},"properties":{"tourism":"guest_house"}},
{"type":"Feature","geometry":{"type":"Point","coordinates":[6.2646079,43.8128025]},"properties":{"ele":"1094","hiking":"yes","image":"https://commons.wikimedia.org/wiki/File:Col_de_l%27%C3%A2ne.jpg","information":"guidepost","name":"Col de l'Âne","operator":"Provence Alpes Agglomération","ref":"Moustiers 11","tourism":"information"}},
{"type":"Feature","geometry":{"type":"Point","coordinates":[6.2659268,43.8050843]},"properties":{"ele":"1168","hiking":"yes","image":"https://commons.wikimedia.org/wiki/File:Col_de_Plein_Voir.jpg","information":"guidepost","name":"Col de Plein Voir","operator":"Provence Alpes Agglomération","ref":"La Palud 15","source":"PDIPR 04","tourism":"information"}},
{"type":"Feature","geometry":{"type":"Point","coordinates":[6.2916017,43.7881472]},"properties":{"ele":"1200","hiking":"yes","image":"https://commons.wikimedia.org/wiki/File:Plateau_de_Barbin.jpg","information":"guidepost","name":"Plateau de Barbin","operator":"Communauté de communes Alpes Provence Verdon","ref":"La Palud 9","source":"PDIPR 04","tourism":"information"}},
{"type":"Feature","geometry":{"type":"Point","coordinates":[6.2824834,43.780732]},"properties":{"information":"guidepost","tourism":"information"}},
{"type":"Feature","geometry":{"type":"Point","coordinates":[6.2821617,43.7759392]},"properties":{"ele":"804","hiking":"yes","image":"https://commons.wikimedia.org/wiki/File:Belv%C3%A9d%C3%A8re_de_Mayreste.jpg","information":"guidepost","name":"Belvédère de Mayreste","operator":"Communauté de communes Alpes Provence Verdon","ref":"La Palud 7","source":"PDIPR 04","tourism":"information"}},
{"type":"Feature","geometry":{"type":"Point","coordinates":[6.3186935,43.7642827]},"properties":{"ele":"818","hiking":"yes","image":"https://commons.wikimedia.org/wiki/File:D%C3%A9part_Sentier_du_Bastidon.jpg","information":"guidepost","name":"Départ Sentier du Bastidon","tourism":"information"}},
{"type":"Feature","geometry":{"type":"Point","coordinates":[6.3230374,43.7529871]},"properties":{"name":"Le Styx","natural":"cliff"}},
{"type":"Feature","geometry":{"type":"Point","coordinates":[6.2496823,43.8162247]},"properties":{"ele":"710","hiking":"yes","image":"https://commons.wikimedia.org/wiki/File:Bois_de_F%C3%A9lines.jpg","information":"guidepost","name":"Bois de Félines","operator":"Provence Alpes Agglomération","ref":"Moustiers 10","source":"PDIPR 04","tourism":"information"}},
{"type":"Feature","geometry":{"type":"Point","coordinates":[6.3324139,43.8187558]},"properties":{"ele":"1100","hiking":"yes","information":"guidepost","name":"Chapelle Notre-Dame","operator":"Communauté de communes Alpes Provence Verdon","ref":"La Palud 34","source":"PDIPR 04","tourism":"information"}},
{"type":"Feature","geometry":{"type":"Point","coordinates":[6.3373335,43.857381]},"properties":{"ele":"1898","name":"Le Grand Mourre","natural":"peak"}},
{"type":"Feature","geometry":{"type":"Point","coordinates":[6.3168555,43.8684302]},"properties":{"information":"map","map_type":"toposcope","tourism":"viewpoint"}},
{"type":"Feature","geometry":{"type":"Point","coordinates":[6.3033098,43.9821314]},"properties":{"natural":"tree"}},
{"type":"Feature","geometry":{"type":"Point","coordinates":[6.3032456,43.9821083]},"properties":{"natural":"tree"}},
{"type":"Feature","geometry":{"type":"Point","coordinates":[6.303137,43.9823889]},"properties":{"natural":"tree"}},
{"type":"Feature","geometry":{"type":"Point","coordinates":[6.3033443,43.9819698]},"properties":{"natural":"tree"}},
{"type":"Feature","geometry":{"type":"Point","coordinates":[6.3033394,43.9818775]},"properties":{"natural":"tree"}},
{"type":"Feature","geometry":{"type":"Point","coordinates":[6.4078117,43.9135207]},"properties":{"amenity":"fountain","heritage":"3","heritage:operator":"mhs","historic":"yes","mhs:inscription_date":"1930-01-09","name":"Fontaine","ref:mhs":"PA00080482","source:heritage":"data.gouv.fr, Ministère de la Culture - 2016","start_date":"C16","wikidata":"Q3076167","wikipedia":"fr:Fontaine de Senez"}},
{"type":"Feature","geometry":{"type":"Point","coordinates":[6.3776659,43.7509204]},"properties":{"name":"Baume aux Chiens","name:oc":"Bauma dei Cans","natural":"cave_entrance","source":"survey","source:name:oc":"ieo-bdtopoc"}},
{"type":"Feature","geometry":{"type":"Point","coordinates":[6.3957347,43.78964]},"properties":{"hiking":"yes","information":"map","map_size":"site","map_type":"scheme","source":"survey","tourism":"information"}},
{"type":"Feature","geometry":{"type":"Point","coordinates":[6.395533,43.787401]},"properties":{"information":"board","name":"Le Tunnel du Baou","source":"survey","tourism":"information"}},
{"type":"Feature","geometry":{"type":"Point","coordinates":[6.3955879,43.789429]},"properties":{"name":"Belvédère du Couloir Samson","tourism":"viewpoint","wikidata":"Q2998827"}},
{"type":"Feature","geometry":{"type":"Point","coordinates":[6.3927602,43.784156]},"properties":{"name":"Baume aux Pigeons","source":"survey","tourism":"viewpoint"}},
{"type":"Feature","geometry":{"type":"Point","coordinates":[6.4071939,43.7904224]},"properties":{"hiking":"yes","information":"guidepost","name":"Pont de Tusset","operator":"Communauté de communes Alpes Provence Verdon","ref":"Rougon 21","source":"survey","tourism":"information"}},
{"type":"Feature","geometry":{"type":"Point","coordinates":[6.3411386,43.7797411]},"properties":{"advertising":"board","message":"political","permanent":"no"}},
{"type":"Feature","geometry":{"type":"Point","coordinates":[6.3217079,43.8165531]},"properties":{"name":"Aven de Châteauneuf","natural":"cave_entrance"}},
{"type":"Feature","geometry":{"type":"Point","coordinates":[6.3854781,43.7555694]},"properties":{"name":"Abîme Hermellin","natural":"cave_entrance"}},
{"type":"Feature","geometry":{"type":"Point","coordinates":[6.3742181,43.9249084]},"properties":{"name":"Grotte du Riou d'Ourgeas","natural":"cave_entrance"}},
{"type":"Feature","geometry":{"type":"Point","coordinates":[6.3437191,43.9512234]},"properties":{"name":"Gîte de la Valbonnette","tourism":"guest_house"}},
{"type":"Feature","geometry":{"type":"Point","coordinates":[6.3603688,43.7529527]},"properties":{"ele":"1460","name":"Collet Barris","natural":"peak"}},
{"type":"Feature","geometry":{"type":"Point","coordinates":[6.2547159,43.7991186]},"properties":{"tourism":"viewpoint"}},
{"type":"Feature","geometry":{"type":"Point","coordinates":[6.3322114,43.8187283]},"properties":{"name":"Chapelle Notre-Dame de la Baume","natural":"cave_entrance","wikidata":"Q46813083","wikipedia":"fr:Chapelle Notre-Dame de la Baume"}},
{"type":"Feature","geometry":{"type":"Point","coordinates":[6.2848375,43.9373811]},"properties":{"leisure":"picnic_table"}},
{"type":"Feature","geometry":{"type":"Point","coordinates":[6.2848408,43.9367112]},"properties":{"information":"board","tourism":"information"}},
{"type":"Feature","geometry":{"type":"Point","coordinates":[6.3956892,43.818881]},"properties":{"ele":"1246","hiking":"yes","information":"guidepost","name":"Caron","operator":"Communauté de communes Alpes Provence Verdon","ref":"Rougon 14","source":"PDIPR 04","tourism":"information"}},
{"type":"Feature","geometry":{"type":"Point","coordinates":[6.2971871,43.8533711]},"properties":{"ele":"1286","information":"guidepost","name":"Col des Abbes","tourism":"information"}},
{"type":"Feature","geometry":{"type":"Point","coordinates":[6.322369,43.8405089]},"properties":{"ele":"1260","hiking":"yes","information":"guidepost","name":"Les Chauvets","operator":"Communauté de communes Alpes Provence Verdon","ref":"La Palud 35","source":"PDIPR 04","tourism":"information"}},
{"type":"Feature","geometry":{"type":"Point","coordinates":[6.3278286,43.8373854]},"properties":{"ele":"1230","information":"guidepost","name":"Les bondils","tourism":"information"}},
{"type":"Feature","geometry":{"type":"Point","coordinates":[6.353091,43.822406]},"properties":{"ele":"1150","hiking":"yes","information":"guidepost","name":"Les Maurels","operator":"Communauté de communes Alpes Provence Verdon","ref":"La Palud 24","source":"PDIPR 04","tourism":"information"}},
{"type":"Feature","geometry":{"type":"Point","coordinates":[6.2544251,43.8088154]},"properties":{"tourism":"viewpoint"}},
{"type":"Feature","geometry":{"type":"Point","coordinates":[6.2239368,43.848109]},"properties":{"historic":"city_gate"}},
{"type":"Feature","geometry":{"type":"Point","coordinates":[6.2347782,43.8340317]},"properties":{"direction":"250","name":"Tréguier","tourism":"viewpoint"}},
{"type":"Feature","geometry":{"type":"Point","coordinates":[6.2128144,43.8343609]},"properties":{"castle_type":"medieval","historic":"castle","name":"Château de la Reine Jeanne"}},
{"type":"Feature","geometry":{"type":"Point","coordinates":[6.239659,43.7750875]},"properties":{"direction":"225-45","name":"Table orientation Aiguines","tourism":"viewpoint"}},
{"type":"Feature","geometry":{"type":"Point","coordinates":[6.4195028,43.7909452]},"properties":{"description":"Viewpoint over the Gorges du Verdon where griffon vultures can be spotted","tourism":"viewpoint"}},
{"type":"Feature","geometry":{"type":"Point","coordinates":[6.3904979,43.7787213]},"properties":{"name":"Belvédère de Trescaïre","tourism":"viewpoint"}},
{"type":"Feature","geometry":{"type":"Point","coordinates":[6.3702181,43.9512213]},"properties":{"natural":"tree"}},
{"type":"Feature","geometry":{"type":"Point","coordinates":[6.3703495,43.9511769]},"properties":{"natural":"tree"}},
{"type":"Feature","geometry":{"type":"Point","coordinates":[6.3704683,43.951259]},"properties":{"natural":"tree"}},
{"type":"Feature","geometry":{"type":"Point","coordinates":[6.3703543,43.9512692]},"properties":{"natural":"tree"}},
{"type":"Feature","geometry":{"type":"Point","coordinates":[6.3704303,43.9513388]},"properties":{"natural":"tree"}},
{"type":"Feature","geometry":{"type":"Point","coordinates":[6.3706521,43.9512806]},"properties":{"natural":"tree"}},
{"type":"Feature","geometry":{"type":"Point","coordinates":[6.1923413,43.8553545]},"properties":{"leisure":"picnic_table"}},
{"type":"Feature","geometry":{"type":"Point","coordinates":[6.2468908,43.8031021]},"properties":{"information":"map","tourism":"information"}},
{"type":"Feature","geometry":{"type":"Point","coordinates":[6.2475502,43.8037611]},"properties":{"hiking":"yes","information":"guidepost","name":"Le Chalvet","operator":"Provence Alpes Agglomération","ref":"Moustiers 96 -Parking de l'étoile","source":"PDIPR 04","tourism":"information"}},
{"type":"Feature","geometry":{"type":"Point","coordinates":[6.247813,43.9690645]},"properties":{"tourism":"viewpoint"}},
{"type":"Feature","geometry":{"type":"Point","coordinates":[6.2214487,43.8479663]},"properties":{"addr:city":"Moustiers-Sainte-Marie","addr:postcode":"04360","addr:street":"Place Clérissy","contact:facebook":"https://www.facebook.com/LaMaisonDeMoustiers/","email":"info@vieil-aiglun.com","internet_access":"yes","name":"La Maison de Moustiers","operator":"SARL Le Vieil Aiglun","phone":"+33492346700","smoking":"outside","tourism":"chalet","website":"https://www.maison-moustiers.fr/"}},
{"type":"Feature","geometry":{"type":"Point","coordinates":[6.4061501,43.9129658]},"properties":{"leaf_type":"broadleaved","natural":"tree"}},
{"type":"Feature","geometry":{"type":"Point","coordinates":[6.4062482,43.9129999]},"properties":{"leaf_type":"broadleaved","natural":"tree"}},
{"type":"Feature","geometry":{"type":"Point","coordinates":[6.4063469,43.9130258]},"properties":{"leaf_type":"broadleaved","natural":"tree"}},
{"type":"Feature","geometry":{"type":"Point","coordinates":[6.4064558,43.9130248]},"properties":{"leaf_type":"broadleaved","natural":"tree"}},
{"type":"Feature","geometry":{"type":"Point","coordinates":[6.4061113,43.9130453]},"properties":{"leaf_type":"broadleaved","natural":"tree"}},
{"type":"Feature","geometry":{"type":"Point","coordinates":[6.4063033,43.9131185]},"properties":{"leaf_type":"broadleaved","natural":"tree"}},
{"type":"Feature","geometry":{"type":"Point","coordinates":[6.4063978,43.9131473]},"properties":{"leaf_type":"broadleaved","natural":"tree"}},
{"type":"Feature","geometry":{"type":"Point","coordinates":[6.4062164,43.9130808]},"properties":{"leaf_type":"broadleaved","natural":"tree"}},
{"type":"Feature","geometry":{"type":"Point","coordinates":[6.4068668,43.9144049]},"properties":{"natural":"tree"}},
{"type":"Feature","geometry":{"type":"Point","coordinates":[6.4069278,43.9144416]},"properties":{"natural":"tree"}},
{"type":"Feature","geometry":{"type":"Point","coordinates":[6.4070006,43.9133274]},"properties":{"natural":"tree"}},
{"type":"Feature","geometry":{"type":"Point","coordinates":[6.4071119,43.9132153]},"properties":{"natural":"tree"}},
{"type":"Feature","geometry":{"type":"Point","coordinates":[6.4071729,43.9130643]},"properties":{"natural":"tree"}},
{"type":"Feature","geometry":{"type":"Point","coordinates":[6.4065346,43.9136189]},"properties":{"natural":"tree"}},
{"type":"Feature","geometry":{"type":"Point","coordinates":[6.4070067,43.9139]},"properties":{"natural":"tree"}},
{"type":"Feature","geometry":{"type":"Point","coordinates":[6.4069839,43.914132]},"properties":{"natural":"tree"}},
{"type":"Feature","geometry":{"type":"Point","coordinates":[6.4067425,43.9141291]},"properties":{"natural":"tree"}},
{"type":"Feature","geometry":{"type":"Point","coordinates":[6.4067934,43.9141339]},"properties":{"natural":"tree"}},
{"type":"Feature","geometry":{"type":"Point","coordinates":[6.4068511,43.9141368]},"properties":{"natural":"tree"}},
{"type":"Feature","geometry":{"type":"Point","coordinates":[6.4069168,43.9141426]},"properties":{"natural":"tree"}},
{"type":"Feature","geometry":{"type":"Point","coordinates":[6.4063424,43.9133634]},"properties":{"natural":"tree"}},
{"type":"Feature","geometry":{"type":"Point","coordinates":[6.4064886,43.9134832]},"properties":{"natural":"tree"}},
{"type":"Feature","geometry":{"type":"Point","coordinates":[6.4064605,43.9134233]},"properties":{"natural":"tree"}},
{"type":"Feature","geometry":{"type":"Point","coordinates":[6.3727418,43.9543663]},"properties":{"natural":"tree"}},
{"type":"Feature","geometry":{"type":"Point","coordinates":[6.3728311,43.9543286]},"properties":{"natural":"tree"}},
{"type":"Feature","geometry":{"type":"Point","coordinates":[6.3728881,43.9543419]},"properties":{"natural":"tree"}},
{"type":"Feature","geometry":{"type":"Point","coordinates":[6.3729266,43.9543419]},"properties":{"natural":"tree"}},
{"type":"Feature","geometry":{"type":"Point","coordinates":[6.3730252,43.9543907]},"properties":{"natural":"tree"}},
{"type":"Feature","geometry":{"type":"Point","coordinates":[6.3730653,43.9544528]},"properties":{"natural":"tree"}},
{"type":"Feature","geometry":{"type":"Point","coordinates":[6.3730391,43.9545005]},"properties":{"natural":"tree"}},
{"type":"Feature","geometry":{"type":"Point","coordinates":[6.3729651,43.9545404]},"properties":{"natural":"tree"}},
{"type":"Feature","geometry":{"type":"Point","coordinates":[6.3733142,43.9547326]},"properties":{"natural":"tree"}},
{"type":"Feature","geometry":{"type":"Point","coordinates":[6.3735496,43.9548358]},"properties":{"natural":"tree"}},
{"type":"Feature","geometry":{"type":"Point","coordinates":[6.3740615,43.9544195]},"properties":{"natural":"tree"}},
{"type":"Feature","geometry":{"type":"Point","coordinates":[6.3739861,43.9548232]},"properties":{"natural":"tree"}},
{"type":"Feature","geometry":{"type":"Point","coordinates":[6.3741401,43.9547511]},"properties":{"natural":"tree"}},
{"type":"Feature","geometry":{"type":"Point","coordinates":[6.3739244,43.9549585]},"properties":{"natural":"tree"}},
{"type":"Feature","geometry":{"type":"Point","coordinates":[6.3742938,43.9546031]},"properties":{"natural":"tree"}},
{"type":"Feature","geometry":{"type":"Point","coordinates":[6.3738405,43.9551372]},"properties":{"natural":"tree"}},
{"type":"Feature","geometry":{"type":"Point","coordinates":[6.3737612,43.9552192]},"properties":{"natural":"tree"}},
{"type":"Feature","geometry":{"type":"Point","coordinates":[6.3737002,43.9553348]},"properties":{"natural":"tree"}},
{"type":"Feature","geometry":{"type":"Point","coordinates":[6.3735599,43.9554123]},"properties":{"natural":"tree"}},
{"type":"Feature","geometry":{"type":"Point","coordinates":[6.3733485,43.9553743]},"properties":{"natural":"tree"}},
{"type":"Feature","geometry":{"type":"Point","coordinates":[6.3728126,43.9539553]},"properties":{"natural":"tree"}},
{"type":"Feature","geometry":{"type":"Point","coordinates":[6.2561338,43.7825495]},"properties":{"ele":"1027","natural":"peak"}},
{"type":"Feature","geometry":{"type":"Point","coordinates":[6.2210022,43.8471093]},"properties":{"addr:postcode":"04360","addr:street":"Rue Frédéric Mistral","name":"Lou Mitstral","tourism":"hotel"}},
{"type":"Feature","geometry":{"type":"Point","coordinates":[6.399336,43.7930258]},"properties":{"historic":"memorial","name":"Stèle Isidore Blanc"}},
{"type":"Feature","geometry":{"type":"Point","coordinates":[6.3701023,43.7555294]},"properties":{"name":"Belvédère du Tilleul","tourism":"viewpoint"}},
{"type":"Feature","geometry":{"type":"Point","coordinates":[6.1969143,43.9825616]},"properties":{"natural":"tree"}},
{"type":"Feature","geometry":{"type":"Point","coordinates":[6.2600747,43.7951447]},"properties":{"natural":"cave_entrance"}},
{"type":"Feature","geometry":{"type":"Point","coordinates":[6.2969084,43.8702039]},"properties":{"historic":"ruins"}},
{"type":"Feature","geometry":{"type":"Point","coordinates":[6.2253512,43.8208883]},"properties":{"access":"yes","leisure":"playground"}},
{"type":"Feature","geometry":{"type":"Point","coordinates":[6.2248536,43.8213811]},"properties":{"natural":"beach"}},
{"type":"Feature","geometry":{"type":"Point","coordinates":[6.1897203,43.9705788]},"properties":{"leisure":"pitch","sport":"boules"}},
{"type":"Feature","geometry":{"type":"Point","coordinates":[6.190981,43.9703529]},"properties":{"leisure":"pitch","sport":"table_tennis"}},
{"type":"Feature","geometry":{"type":"Point","coordinates":[6.1909971,43.9703896]},"properties":{"leisure":"pitch","sport":"table_tennis"}},
{"type":"Feature","geometry":{"type":"Point","coordinates":[6.1909112,43.9703896]},"properties":{"leisure":"pitch","sport":"table_tennis"}},
{"type":"Feature","geometry":{"type":"Point","coordinates":[6.2081552,43.7705244]},"properties":{"access":"yes","fee":"no","leisure":"slipway","name":"Cale de mise à l'eau de Vigne d'Aiguines","name:en":"Vigne d'Aiguines boat launch","surface":"concrete"}},
{"type":"Feature","geometry":{"type":"Point","coordinates":[6.3396135,43.7795771]},"properties":{"ele":"950","hiking":"yes","information":"guidepost","name":"Le Lavoir","operator":"Communauté de communes Alpes Provence Verdon","ref":"La Palud 44","source":"PDIPR 04","tourism":"information"}},
{"type":"Feature","geometry":{"type":"Point","coordinates":[6.3074339,43.7785391]},"properties":{"ele":"1360","information":"guidepost","name":"Adrech de Barbin","tourism":"information"}},
{"type":"Feature","geometry":{"type":"Point","coordinates":[6.2446711,43.8551441]},"properties":{"ele":"950","hiking":"yes","information":"guidepost","name":"Camping du Montdenier","operator":"Provence Alpes Agglomération","ref":"Moustiers 42","source":"PDIPR 04","tourism":"information"}},
{"type":"Feature","geometry":{"type":"Point","coordinates":[6.2475042,43.8491343]},"properties":{"ele":"970","hiking":"yes","information":"guidepost","name":"Parking des Plaines","operator":"Provence Alpes Agglomération","ref":"Moustiers 35","tourism":"information"}},
{"type":"Feature","geometry":{"type":"Point","coordinates":[6.244307,43.8569015]},"properties":{"ele":"950","hiking":"yes","information":"guidepost","name":"Vincel","operator":"Provence Alpes Agglomération","ref":"Moustiers 43","source":"PDIPR 04","tourism":"information"}},
{"type":"Feature","geometry":{"type":"Point","coordinates":[6.2215819,43.8497183]},"properties":{"ele":"660","hiking":"yes","information":"guidepost","name":"Porte du Riou","operator":"Provence Alpes Agglomération","ref":"Moustiers 14","source":"PDIPR 04","tourism":"information"}},
{"type":"Feature","geometry":{"type":"Point","coordinates":[6.2224205,43.8447469]},"properties":{"leisure":"picnic_table"}},
{"type":"Feature","geometry":{"type":"Point","coordinates":[6.225102,43.8265046]},"properties":{"leisure":"picnic_table"}},
{"type":"Feature","geometry":{"type":"Point","coordinates":[6.2214555,43.8506472]},"properties":{"leisure":"picnic_table"}},
{"type":"Feature","geometry":{"type":"Point","coordinates":[6.3541397,43.9622361]},"properties":{"leisure":"picnic_table","lit":"no","material":"wood"}},
{"type":"Feature","geometry":{"type":"Point","coordinates":[6.2175027,43.8451246]},"properties":{"leisure":"picnic_table"}},
{"type":"Feature","geometry":{"type":"Point","coordinates":[6.4005332,43.7995834]},"properties":{"leisure":"picnic_table"}},
{"type":"Feature","geometry":{"type":"Point","coordinates":[6.3713676,43.8719107]},"properties":{"leisure":"picnic_table"}},
{"type":"Feature","geometry":{"type":"Point","coordinates":[6.2217741,43.8442116]},"properties":{"leisure":"playground","tourism":"picnic_site"}},
{"type":"Feature","geometry":{"type":"Point","coordinates":[6.3410446,43.7796959]},"properties":{"internet_access":"wlan","internet_access:fee":"no"}},
{"type":"Feature","geometry":{"type":"Point","coordinates":[6.3421825,43.7791467]},"properties":{"leisure":"playground","name":"Filet"}},
{"type":"Feature","geometry":{"type":"Point","coordinates":[6.2494422,43.8016706]},"properties":{"description":"Vue sur l'entrée du Grand Canyon du Verdon et sur le lac de Sainte-Croix en direction du sud.","name":"Pont du Galetas","tourism":"viewpoint"}},
{"type":"Feature","geometry":{"type":"Point","coordinates":[6.3405234,43.960156]},"properties":{"covered":"no","leisure":"picnic_table"}},
{"type":"Feature","geometry":{"type":"Point","coordinates":[6.3397813,43.9601944]},"properties":{"covered":"no","leisure":"picnic_table"}},
{"type":"Feature","geometry":{"type":"Point","coordinates":[6.3401113,43.9601789]},"properties":{"covered":"no","leisure":"picnic_table"}},
{"type":"Feature","geometry":{"type":"Point","coordinates":[6.339447,43.9602401]},"properties":{"covered":"no","leisure":"picnic_table"}},
{"type":"Feature","geometry":{"type":"Point","coordinates":[6.3348266,43.9620591]},"properties":{"covered":"no","leisure":"picnic_table"}},
{"type":"Feature","geometry":{"type":"Point","coordinates":[6.3145368,43.9675327]},"properties":{"covered":"no","leisure":"picnic_table"}},
{"type":"Feature","geometry":{"type":"Point","coordinates":[6.3148648,43.967508]},"properties":{"covered":"no","leisure":"picnic_table"}},
{"type":"Feature","geometry":{"type":"Point","coordinates":[6.2469644,43.7692077]},"properties":{"name":"Aven Micoulet","natural":"cave_entrance"}},
{"type":"Feature","geometry":{"type":"Point","coordinates":[6.2456775,43.7632272]},"properties":{"historic":"wayside_shrine"}},
{"type":"Feature","geometry":{"type":"Point","coordinates":[6.2419885,43.7759435]},"properties":{"natural":"tree"}},
{"type":"Feature","geometry":{"type":"Point","coordinates":[6.2419912,43.7760016]},"properties":{"natural":"tree"}},
{"type":"Feature","geometry":{"type":"Point","coordinates":[6.2419778,43.77608]},"properties":{"natural":"tree"}},
{"type":"Feature","geometry":{"type":"Point","coordinates":[6.2419657,43.776142]},"properties":{"natural":"tree"}},
{"type":"Feature","geometry":{"type":"Point","coordinates":[6.2419671,43.7761924]},"properties":{"natural":"tree"}},
{"type":"Feature","geometry":{"type":"Point","coordinates":[6.2419657,43.7762611]},"properties":{"natural":"tree"}},
{"type":"Feature","geometry":{"type":"Point","coordinates":[6.2419537,43.7763027]},"properties":{"natural":"tree"}},
{"type":"Feature","geometry":{"type":"Point","coordinates":[6.2419496,43.7764306]},"properties":{"natural":"tree"}},
{"type":"Feature","geometry":{"type":"Point","coordinates":[6.2419456,43.7765206]},"properties":{"natural":"tree"}},
{"type":"Feature","geometry":{"type":"Point","coordinates":[6.2419403,43.7765613]},"properties":{"natural":"tree"}},
{"type":"Feature","geometry":{"type":"Point","coordinates":[6.2419322,43.776662]},"properties":{"natural":"tree"}},
{"type":"Feature","geometry":{"type":"Point","coordinates":[6.2419268,43.7767588]},"properties":{"natural":"tree"}},
{"type":"Feature","geometry":{"type":"Point","coordinates":[6.4271444,43.6249842]},"properties":{"source":"cadastre-dgi-fr source : Direction Générale des Impôts - Cadastre. Mise à jour : 2009"}},
{"type":"Feature","geometry":{"type":"Point","coordinates":[6.2674783,43.7574198]},"properties":{"ele":"1462","name":"Le Petit Margès","natural":"peak"}},
{"type":"Feature","geometry":{"type":"Point","coordinates":[6.326623,43.9756883]},"properties":{"tourism":"viewpoint"}},
{"type":"Feature","geometry":{"type":"Point","coordinates":[6.2217896,43.8434192]},"properties":{"addr:city":"Moustiers-Sainte-Marie","addr:postcode":"04360","addr:street":"Quartier Saint-Michel","internet_access":"wlan","name":"Hôtel La Bonne Auberge","phone":"+334 92 74 66 18","tourism":"hotel","website":"https://www.bonne-auberge-moustiers.com/"}},
{"type":"Feature","geometry":{"type":"Point","coordinates":[6.2087048,43.7730617]},"properties":{"amenity":"lavoir","description":"Lavoir de l'ancien village","historic":"yes","tourism":"yes"}},
{"type":"Feature","geometry":{"type":"Point","coordinates":[6.2745084,43.7677452]},"properties":{"description":"Vue sur le grand canyon depuis la route de Comps (rive gauche du Verdon)","image":"https://base.apidae-tourisme.com/filestore/objets-touristiques/images/81/225/11133265.jpg?t=1633438820","name":"cirque de Vaumale","tourism":"viewpoint"}},
{"type":"Feature","geometry":{"type":"Point","coordinates":[6.2600656,43.7756342]},"properties":{"description":"Vue sur le Verdon et le lac de Sainte-Croix depuis le Col d'Illoire.","direction":"45","image":"https://base.apidae-tourisme.com/filestore/objets-touristiques/images/248/188/11123960.jpg?t=1633099008","name":"Point vue Col d'Illoire","tourism":"viewpoint"}},
{"type":"Feature","geometry":{"type":"Point","coordinates":[6.3686461,43.8722614]},"properties":{"name":"Gite de Gaïa","tourism":"guest_house"}},
{"type":"Feature","geometry":{"type":"Point","coordinates":[6.3849198,43.8692748]},"properties":{"name":"Gite Place d'Asse","tourism":"guest_house"}},
{"type":"Feature","geometry":{"type":"Point","coordinates":[6.3449522,43.77533]},"properties":{"internet_access":"wlan","internet_access:fee":"no","name":"Hôtel & Spa des Gorges du Verdon","phone":"+33492773826","tourism":"hotel","website":"https://www.hotel-des-gorges-du-verdon.fr/"}},
{"type":"Feature","geometry":{"type":"Point","coordinates":[6.3408756,43.7791609]},"properties":{"email":"info@hotel-provence-verdon.com","internet_access":"wlan","name":"Le Provence","phone":"+33 4 92 77 38 88","tourism":"hotel","website":"https://www.hotel-provence-verdon.com/"}},
{"type":"Feature","geometry":{"type":"Point","coordinates":[6.3389848,43.7787717]},"properties":{"capacity":"15","guest_house":"bed_and_breakfast","name":"Gîte l'Escalès","opening_hours":"Mar-Nov","operator":"Nathalie Faudou;Pascal Faudou","phone":"+33 6 85 59 11 92","tourism":"chalet","website":"http://www.gite-escales.com/"}},
{"type":"Feature","geometry":{"type":"Point","coordinates":[6.4070624,43.7890835]},"properties":{"ford":"yes"}},
{"type":"Feature","geometry":{"type":"Point","coordinates":[6.244082,43.8223373]},"properties":{"name":"Crète d'Ourbes","tourism":"viewpoint"}},
{"type":"Feature","geometry":{"type":"Point","coordinates":[6.2405837,43.8231656]},"properties":{"tourism":"viewpoint"}},
{"type":"Feature","geometry":{"type":"Point","coordinates":[6.2235722,43.8479636]},"properties":{"historic":"city_gate"}},
{"type":"Feature","geometry":{"type":"Point","coordinates":[6.2314863,43.8440549]},"properties":{"information":"board","tourism":"information"}},
{"type":"Feature","geometry":{"type":"Point","coordinates":[6.376686,43.7713474]},"properties":{"name":"Belvédère de l'Escales","tourism":"viewpoint"}},
{"type":"Feature","geometry":{"type":"Point","coordinates":[6.2783922,43.7559092]},"properties":{"name":"Le Grand Margès","tourism":"viewpoint"}},
{"type":"Feature","geometry":{"type":"Point","coordinates":[6.1878321,43.7614495]},"properties":{"information":"guidepost","tourism":"information"}},
{"type":"Feature","geometry":{"type":"Point","coordinates":[6.3421476,43.7790753]},"properties":{"bench":"yes","capacity":"6","leisure":"picnic_table","material":"wood"}},
{"type":"Feature","geometry":{"type":"Point","coordinates":[6.3419461,43.7790543]},"properties":{"bench":"yes","capacity":"6","leisure":"picnic_table","material":"wood"}},
{"type":"Feature","geometry":{"type":"Point","coordinates":[6.2325934,43.7766596]},"properties":{"information":"guidepost","tourism":"information"}},
{"type":"Feature","geometry":{"type":"Point","coordinates":[6.2328264,43.7767242]},"properties":{"information":"guidepost","tourism":"information"}},
{"type":"Feature","geometry":{"type":"Point","coordinates":[6.2363411,43.7756665]},"properties":{"information":"guidepost","tourism":"information"}},
{"type":"Feature","geometry":{"type":"Point","coordinates":[6.2408861,43.7767395]},"properties":{"information":"guidepost","tourism":"information"}},
{"type":"Feature","geometry":{"type":"Point","coordinates":[6.2439948,43.8225821]},"properties":{"ele":"962","hiking":"yes","information":"guidepost","name":"Crète d'Ourbes","operator":"Provence Alpes Agglomération","ref":"Moustiers 24","tourism":"information"}},
{"type":"Feature","geometry":{"type":"Point","coordinates":[6.4164984,43.8872314]},"properties":{"hiking":"yes","information":"guidepost","name":"Pont de Blieux","operator":"Communauté de communes Alpes Provence Verdon","ref":"Senez 4","source":"PDIPR 04","tourism":"information"}},
{"type":"Feature","geometry":{"type":"Point","coordinates":[6.4062262,43.9131441]},"properties":{"information":"board","tourism":"information"}},
{"type":"Feature","geometry":{"type":"Point","coordinates":[6.2214543,43.8458878]},"properties":{"addr:city":"Moustiers-Sainte-Marie","addr:postcode":"04360","addr:street":"Rue du Seigneur de la Clue","fee":"yes","name":"Musée de la Faïence","phone":"+33492746164","tourism":"museum","website":"https://www.musee-moustiers.fr/"}},
{"type":"Feature","geometry":{"type":"Point","coordinates":[6.4196345,43.7908881]},"properties":{"name":"Belvédère des Vautours","tourism":"attraction"}},
{"type":"Feature","geometry":{"type":"Point","coordinates":[6.32511,43.84875]},"properties":{"name":"Source du Champ Vièlh","natural":"spring","ref:refuges.info":"6664"}},
{"type":"Feature","geometry":{"type":"Point","coordinates":[6.2693916,43.8175761]},"properties":{"description":"2013-04 : Source naturelle non aménagée plutôt facile à trouver car elle se trouve à droite dans le sens de la montée, tout au bord du chemin. L'eau coule directement depuis la roche sur une surface argileuse.","natural":"spring","ref:refuges.info":"2942"}},
{"type":"Feature","geometry":{"type":"Point","coordinates":[6.265885,43.9656581]},"properties":{"natural":"spring"}},
{"type":"Feature","geometry":{"type":"Point","coordinates":[6.41928,43.97606]},"properties":{"description":"Le principal intérêt est d'ordre archéologique le site du jas de Bernard et un haut lieux préhistorique ainsi que le clôt de Clavoune .","ele":"1338","name":"Sommet de Clavoune","natural":"peak","ref:refuges.info":"7146"}},
{"type":"Feature","geometry":{"type":"Point","coordinates":[6.2329793,43.7583231]},"properties":{"natural":"cliff"}},
{"type":"Feature","geometry":{"type":"Point","coordinates":[6.2421567,43.7684842]},"properties":{"addr:housenumber":"290","addr:street":"Chemin de l'Estay","email":"contact@taxi-verdon.com","guest_house":"bed_and_breakfast","name":"La Bastide des Cades","phone":"+33 6 06 66 83 91","rooms":"3","tourism":"guest_house","website":"https://www.chezvotrehote.fr/region/fiche/annonce-location-chambres-d-hotes-var-aiguines,5456.html"}},
{"type":"Feature","geometry":{"type":"Point","coordinates":[6.232481,43.7927713]},"properties":{"addr:housenumber":"2620","addr:street":"Route de Chabassole","email":"lechabassole@hotmail.com","internet_access":"wlan","internet_access:fee":"customers","name":"Le Chabassole","phone":"+33 6 42 96 70 34","rooms":"3","tourism":"guest_house"}},
{"type":"Feature","geometry":{"type":"Point","coordinates":[6.394575,43.7764559]},"properties":{"name":"Baume d'Encastel","natural":"cave_entrance"}},
{"type":"Feature","geometry":{"type":"Point","coordinates":[6.2563329,43.9250724]},"properties":{"name":"Pont de Tuf","natural":"cave_entrance"}},
{"type":"Feature","geometry":{"type":"Point","coordinates":[6.2500784,43.8018122]},"properties":{"contact:youtube":"https://youtu.be/mnYBJd2VJKU, https://www.instagram.com/p/CDrYommiypS/?utm_source=ig_web_copy_link","description":"Multiple heights from 1 to 30m. Free parking next to the lake. Very touristic place from late morning to begining evening (in summer)","maxheight":"30","min_height":"1","name":"Lac de Sainte Croix","natural":"cliff","sport":"cliff_diving"}},
{"type":"Feature","geometry":{"type":"Point","coordinates":[6.342173,43.7792498]},"properties":{"access":"yes","leisure":"pitch","sport":"table_tennis"}},
{"type":"Feature","geometry":{"type":"Point","coordinates":[6.3420194,43.779365]},"properties":{"leisure":"playground"}},
{"type":"Feature","geometry":{"type":"Point","coordinates":[6.4026944,43.7981164]},"properties":{"natural":"cave_entrance"}},
{"type":"Feature","geometry":{"type":"Point","coordinates":[6.399252,43.7913017]},"properties":{"name":"Point Sublime","name:en":"Point Sublime Bely","tourism":"viewpoint"}},
{"type":"Feature","geometry":{"type":"Point","coordinates":[6.3187004,43.7565872]},"properties":{"name":"Etroit du Baou Béni","natural":"rock"}},
{"type":"Feature","geometry":{"type":"Point","coordinates":[6.3418712,43.7793168]},"properties":{"leisure":"playground"}},
{"type":"Feature","geometry":{"type":"Point","coordinates":[6.3417442,43.7791663]},"properties":{"leisure":"playground"}},
{"type":"Feature","geometry":{"type":"Point","coordinates":[6.3415716,43.7790311]},"properties":{"leisure":"playground"}},
{"type":"Feature","geometry":{"type":"Point","coordinates":[6.2839126,43.7841295]},"properties":{"name":"Baume de Bruss","natural":"cave_entrance"}},
{"type":"Feature","geometry":{"type":"Point","coordinates":[6.2344274,43.9472678]},"properties":{"artist_name":"herman de vries","artwork_type":"writing","material":"gold","name":"Natura numquat errat","tourism":"artwork"}},
{"type":"Feature","geometry":{"type":"Point","coordinates":[6.2221207,43.9483309]},"properties":{"board_type":"history","description":"Camp Josette; Maquis de Trévans","information":"board","name":"Camp Josette","tourism":"information"}},
{"type":"Feature","geometry":{"type":"Point","coordinates":[6.2220564,43.9483647]},"properties":{"hiking":"yes","information":"guidepost","tourism":"information"}},
{"type":"Feature","geometry":{"type":"Point","coordinates":[6.2051891,43.7739468]},"properties":{"access":"yes","fee":"no","leisure":"slipway","name":"Cale de mise à l'eau de Margaridon","name:en":"Margaridon boat launch","surface":"concrete"}},
{"type":"Feature","geometry":{"type":"Point","coordinates":[6.2214368,43.8461609]},"properties":{"drinking_water":"yes","natural":"spring"}},
{"type":"Feature","geometry":{"type":"Point","coordinates":[6.3402767,43.7797315]},"properties":{"leaf_cycle":"deciduous","leaf_type":"broadleaved","natural":"tree"}},
{"type":"Feature","geometry":{"type":"Point","coordinates":[6.3400434,43.7795766]},"properties":{"leaf_cycle":"deciduous","leaf_type":"broadleaved","natural":"tree"}},
{"type":"Feature","geometry":{"type":"Point","coordinates":[6.3395324,43.7795214]},"properties":{"leaf_cycle":"deciduous","leaf_type":"broadleaved","natural":"tree"}},
{"type":"Feature","geometry":{"type":"Point","coordinates":[6.3400421,43.7792987]},"properties":{"leaf_cycle":"deciduous","leaf_type":"broadleaved","natural":"tree"}},
{"type":"Feature","geometry":{"type":"Point","coordinates":[6.3404685,43.7793791]},"properties":{"leaf_cycle":"deciduous","leaf_type":"broadleaved","natural":"tree"}},
{"type":"Feature","geometry":{"type":"Point","coordinates":[6.3400783,43.7796754]},"properties":{"leaf_cycle":"deciduous","leaf_type":"broadleaved","natural":"tree"}},
{"type":"Feature","geometry":{"type":"Point","coordinates":[6.3401587,43.7795611]},"properties":{"leaf_cycle":"deciduous","leaf_type":"broadleaved","natural":"tree"}},
{"type":"Feature","geometry":{"type":"Point","coordinates":[6.3450202,43.7820012]},"properties":{"leaf_cycle":"deciduous","leaf_type":"broadleaved","natural":"tree"}},
{"type":"Feature","geometry":{"type":"Point","coordinates":[6.3449424,43.7819605]},"properties":{"leaf_cycle":"deciduous","leaf_type":"broadleaved","natural":"tree"}},
{"type":"Feature","geometry":{"type":"Point","coordinates":[6.34279,43.7808189]},"properties":{"leaf_cycle":"deciduous","leaf_type":"broadleaved","natural":"tree"}},
{"type":"Feature","geometry":{"type":"Point","coordinates":[6.34279,43.7807153]},"properties":{"leaf_cycle":"deciduous","leaf_type":"broadleaved","natural":"tree"}},
{"type":"Feature","geometry":{"type":"Point","coordinates":[6.3428195,43.7806224]},"properties":{"leaf_cycle":"deciduous","leaf_type":"broadleaved","natural":"tree"}},
{"type":"Feature","geometry":{"type":"Point","coordinates":[6.3420685,43.7802951]},"properties":{"leaf_cycle":"deciduous","leaf_type":"broadleaved","natural":"tree"}},
{"type":"Feature","geometry":{"type":"Point","coordinates":[6.3423568,43.7799116]},"properties":{"leaf_cycle":"deciduous","leaf_type":"broadleaved","natural":"tree"}},
{"type":"Feature","geometry":{"type":"Point","coordinates":[6.342448,43.7800917]},"properties":{"leaf_cycle":"deciduous","leaf_type":"broadleaved","natural":"tree"}},
{"type":"Feature","geometry":{"type":"Point","coordinates":[6.3425244,43.7802447]},"properties":{"leaf_cycle":"deciduous","leaf_type":"broadleaved","natural":"tree"}},
{"type":"Feature","geometry":{"type":"Point","coordinates":[6.3424399,43.7755116]},"properties":{"direction":"270-90","tourism":"viewpoint"}},
{"type":"Feature","geometry":{"type":"Point","coordinates":[6.2609947,43.767188]},"properties":{"tourism":"viewpoint"}},
{"type":"Feature","geometry":{"type":"Point","coordinates":[6.3984014,43.7938421]},"properties":{"tourism":"information"}},
{"type":"Feature","geometry":{"type":"Point","coordinates":[6.2219987,43.8471246]},"properties":{"addr:city":"Moustiers-Sainte-Marie","addr:housename":"Maison de Lucie","addr:postcode":"04360","addr:street":"Place de l'Église","contact:facebook":"https://www.facebook.com/MoustiersSainteMarie","contact:instagram":"https://www.instagram.com/moustiers_sainte_marie","information":"office","name":"Office de tourisme","opening_hours":"Jan,Feb,Dec Mo-Su 10:00-12:30,14:00-17:00; Mar,Nov Mo-Su,PH 10:00-12:30,14:00-17:30; Apr,May,Oct Mo-Su,PH 10:00-12:30,14:00-18:00; Jun,Sep Mo-Su,PH 09:30-12:30,14:00-18:00; Jul,Aug Mo-Fr 09:30-19:00,Sa-Su 09:30-12:30,14:00-19:00; Dec 24-25,31,Jan 01 of","phone":"+33 4 92 74 67 84","source":"cadastre-dgi-fr source : Direction Générale des Impôts - Cadastre. Mise à jour : 2012","tourism":"information","website":"https://www.moustiers.fr/fr/office-tourisme"}},
{"type":"Feature","geometry":{"type":"Point","coordinates":[6.2528118,43.8555025]},"properties":{"name":"Belle Pierre","natural":"peak","source":"IGN - 2021-06"}},
{"type":"Feature","geometry":{"type":"Point","coordinates":[6.2045574,43.8758719]},"properties":{"ele":"988","name":"Le Castillon","natural":"peak","source":"IGN - 2021-06"}},
{"type":"Feature","geometry":{"type":"Point","coordinates":[6.2250005,43.8509538]},"properties":{"name":"Collet de Quinson","natural":"peak","source":"IGN - 2021-06"}},
{"type":"Feature","geometry":{"type":"Point","coordinates":[6.2530011,43.8241284]},"properties":{"name":"L'Ourbes","natural":"peak","source":"IGN - 2021-06"}},
{"type":"Feature","geometry":{"type":"Point","coordinates":[6.2642299,43.807343]},"properties":{"name":"Plein Voir","natural":"peak","source":"IGN - 2021-06"}},
{"type":"Feature","geometry":{"type":"Point","coordinates":[6.2313657,43.7961353]},"properties":{"access":"yes","fee":"no","leisure":"slipway","name":"Cale de mise à l'eau de Chabassole","name:en":"Chabassole boat launch"}},
{"type":"Feature","geometry":{"type":"Point","coordinates":[6.1936732,43.8985167]},"properties":{"hiking":"yes","information":"guidepost","mtb":"yes","name":"Chemin du Château d'Allès","operator":"Provence Alpes Agglomération","ref":"St Jurs 22","source":"PDIPR 04","tourism":"information"}},
{"type":"Feature","geometry":{"type":"Point","coordinates":[6.3673402,43.785569]},"properties":{"leisure":"horse_riding","name":"Centre équestre Cheval et Soleil Verdon","phone":"+33 6 30 22 87 31","sport":"equestrian"}},
{"type":"Feature","geometry":{"type":"Point","coordinates":[6.3958642,43.7859578]},"properties":{"leisure":"pitch","name":"Duc Encastel","sport":"climbing"}},
{"type":"Feature","geometry":{"type":"Point","coordinates":[6.4027531,43.7993143]},"properties":{"tourism":"viewpoint"}},
{"type":"Feature","geometry":{"type":"Point","coordinates":[6.3541639,43.9623954]},"properties":{"email":"barcaparc@gmail.com","leisure":"pitch","name":"Barca Parc","sport":"climbing_adventure","tourism":"theme_park"}},
{"type":"Feature","geometry":{"type":"Point","coordinates":[6.2373247,43.8563121]},"properties":{"information":"guidepost","tourism":"information"}},
{"type":"Feature","geometry":{"type":"Point","coordinates":[6.3500775,43.7756961]},"properties":{"access":"customers","fireplace":"yes","tourism":"picnic_site"}},
{"type":"Feature","geometry":{"type":"Point","coordinates":[6.3291254,43.7874904]},"properties":{"tourism":"viewpoint"}},
{"type":"Feature","geometry":{"type":"Point","coordinates":[6.3481868,43.7762897]},"properties":{"historic":"wayside_shrine"}},
{"type":"Feature","geometry":{"type":"Point","coordinates":[6.3390431,43.7863416]},"properties":{"historic":"wayside_shrine"}},
{"type":"Feature","geometry":{"type":"Point","coordinates":[6.2045016,43.772675]},"properties":{"historic":"memorial","name":"Mémorial de l'Ancien Village"}},
{"type":"Feature","geometry":{"type":"Point","coordinates":[6.2052303,43.7722875]},"properties":{"historic":"memorial","name":"Stèle Canadair Pélican 41"}},
{"type":"Feature","geometry":{"type":"Point","coordinates":[6.2123762,43.7733667]},"properties":{"natural":"tree"}},
{"type":"Feature","geometry":{"type":"Point","coordinates":[6.2124171,43.7731997]},"properties":{"natural":"tree"}},
{"type":"Feature","geometry":{"type":"Point","coordinates":[6.2127063,43.7726352]},"properties":{"natural":"tree"}},
{"type":"Feature","geometry":{"type":"Point","coordinates":[6.2125627,43.7725406]},"properties":{"natural":"tree"}},
{"type":"Feature","geometry":{"type":"Point","coordinates":[6.2128406,43.7726202]},"properties":{"natural":"tree"}},
{"type":"Feature","geometry":{"type":"Point","coordinates":[6.2128647,43.7725058]},"properties":{"natural":"tree"}},
{"type":"Feature","geometry":{"type":"Point","coordinates":[6.20949,43.7750267]},"properties":{"natural":"tree"}},
{"type":"Feature","geometry":{"type":"Point","coordinates":[6.2096955,43.7749674]},"properties":{"natural":"tree"}},
{"type":"Feature","geometry":{"type":"Point","coordinates":[6.2102694,43.774963]},"properties":{"natural":"tree"}},
{"type":"Feature","geometry":{"type":"Point","coordinates":[6.2102175,43.7750261]},"properties":{"natural":"tree"}},
{"type":"Feature","geometry":{"type":"Point","coordinates":[6.2090579,43.7733503]},"properties":{"historic":"memorial","name":"Monument aux Morts"}},
{"type":"Feature","geometry":{"type":"Point","coordinates":[6.3438237,43.9119876]},"properties":{"hiking":"yes","information":"guidepost","name":"La Melle","operator":"Communauté de communes Alpes Provence Verdon","ref":"Blieux 14","source":"PDIPR 04","tourism":"information"}},
{"type":"Feature","geometry":{"type":"Point","coordinates":[6.3320942,43.9758902]},"properties":{"hiking":"yes","information":"guidepost","name":"Carrefour de Château Plus Haut","operator":"Communauté de communes Alpes Provence Verdon","ref":"Chaudon 17","source":"PDIPR 04","tourism":"information"}},
{"type":"Feature","geometry":{"type":"Point","coordinates":[6.3736149,43.8598552]},"properties":{"hiking":"yes","information":"guidepost","name":"Thon","operator":"Communauté de communes Alpes Provence Verdon","ref":"Blieux 10","source":"PDIPR 04","tourism":"information"}},
{"type":"Feature","geometry":{"type":"Point","coordinates":[6.2283017,43.8427097]},"properties":{"hiking":"yes","information":"guidepost","name":"Chemin de Courchon","operator":"Provence Alpes Agglomération","ref":"Moustiers 33","source":"PDIPR 04","tourism":"information"}},
{"type":"Feature","geometry":{"type":"Point","coordinates":[6.2148219,43.8500721]},"properties":{"hiking":"yes","information":"guidepost","name":"Le Claux Haut","operator":"Provence Alpes Agglomération","ref":"Moustiers 58","source":"PDIPR 04","tourism":"information"}},
{"type":"Feature","geometry":{"type":"Point","coordinates":[6.3736736,43.9716499]},"properties":{"hiking":"yes","information":"guidepost","name":"Pré de Siron","operator":"Communauté de communes Alpes Provence Verdon","ref":"St Jacques 2","source":"PDIPR 04","tourism":"information"}},
{"type":"Feature","geometry":{"type":"Point","coordinates":[6.3402088,43.7959296]},"properties":{"hiking":"yes","information":"guidepost","name":"Col de la Croix de Châteauneuf","operator":"Communauté de communes Alpes Provence Verdon","ref":"La Palud 18","source":"PDIPR 04","tourism":"information"}},
{"type":"Feature","geometry":{"type":"Point","coordinates":[6.2890891,43.9139242]},"properties":{"hiking":"yes","information":"guidepost","name":"Majastres","operator":"Provence Alpes Agglomération","ref":"Majastres 3","source":"PDIPR 04","tourism":"information"}},
{"type":"Feature","geometry":{"type":"Point","coordinates":[6.2848296,43.9371606]},"properties":{"hiking":"yes","information":"guidepost","name":"Le Poil","name:oc":"Lo Pèu","operator":"Communauté de communes Alpes Provence Verdon","ref":"Senez 16","source":"PDIPR 04","source:name:oc":"ieo-bdtopoc","tourism":"information"}},
{"type":"Feature","geometry":{"type":"Point","coordinates":[6.328202,43.7876895]},"properties":{"hiking":"yes","information":"guidepost","name":"La Faye","operator":"Communauté de communes Alpes Provence Verdon","ref":"La Palud 27","source":"PDIPR 04","tourism":"information"}},
{"type":"Feature","geometry":{"type":"Point","coordinates":[6.2643738,43.9388266]},"properties":{"hiking":"yes","information":"guidepost","name":"Parking de Chabrejas","operator":"Communauté de communes Alpes Provence Verdon","ref":"Senez 13","source":"PDIPR 04","tourism":"information"}},
{"type":"Feature","geometry":{"type":"Point","coordinates":[6.3668491,43.9823773]},"properties":{"hiking":"yes","information":"guidepost","name":"Champ Grasset","operator":"Communauté de communes Alpes Provence Verdon","ref":"St Jacques 5","source":"PDIPR 04","tourism":"information"}},
{"type":"Feature","geometry":{"type":"Point","coordinates":[6.406413,43.914174]},"properties":{"hiking":"yes","information":"guidepost","name":"Senez","operator":"Communauté de communes Alpes Provence Verdon","ref":"Senez 7","source":"PDIPR 04","tourism":"information"}},
{"type":"Feature","geometry":{"type":"Point","coordinates":[6.2329428,43.8760717]},"properties":{"hiking":"yes","information":"guidepost","name":"Carrefour de Guiousse","operator":"Provence Alpes Agglomération","ref":"Moustiers 88","source":"PDIPR 04","tourism":"information"}},
{"type":"Feature","geometry":{"type":"Point","coordinates":[6.2103345,43.936949]},"properties":{"hiking":"yes","information":"guidepost","name":"Abri du Château de Trévans","operator":"Provence Alpes Agglomération","ref":"Estoublon 35","source":"PDIPR 04","tourism":"information"}},
{"type":"Feature","geometry":{"type":"Point","coordinates":[6.3393104,43.7876151]},"properties":{"hiking":"yes","information":"guidepost","name":"Val Orsière","operator":"Communauté de communes Alpes Provence Verdon","ref":"La Palud 26","source":"PDIPR 04","tourism":"information"}},
{"type":"Feature","geometry":{"type":"Point","coordinates":[6.3710492,43.8694986]},"properties":{"hiking":"yes","information":"guidepost","name":"Touchard","operator":"Communauté de communes Alpes Provence Verdon","ref":"Blieux 8","source":"PDIPR 04","tourism":"information"}},
{"type":"Feature","geometry":{"type":"Point","coordinates":[6.2456082,43.8148274]},"properties":{"hiking":"yes","information":"guidepost","name":"Parking de Félines","operator":"Provence Alpes Agglomération","ref":"Moustiers 66","source":"PDIPR 04","tourism":"information"}},
{"type":"Feature","geometry":{"type":"Point","coordinates":[6.306892,43.778942]},"properties":{"hiking":"yes","information":"guidepost","name":"Adrech de Barbin","operator":"Communauté de communes Alpes Provence Verdon","ref":"La Palud 10","source":"PDIPR 04","tourism":"information"}},
{"type":"Feature","geometry":{"type":"Point","coordinates":[6.2441008,43.9064422]},"properties":{"hiking":"yes","information":"guidepost","name":"Sous le Col de la Cabane","operator":"Provence Alpes Agglomération","ref":"St Jurs 12","source":"PDIPR 04","tourism":"information"}},
{"type":"Feature","geometry":{"type":"Point","coordinates":[6.390549,43.807248]},"properties":{"hiking":"yes","information":"guidepost","name":"Carrefour de la Barre de Catalan","operator":"Communauté de communes Alpes Provence Verdon","ref":"Rougon 10","source":"PDIPR 04","tourism":"information"}},
{"type":"Feature","geometry":{"type":"Point","coordinates":[6.2345604,43.8332748]},"properties":{"hiking":"yes","information":"guidepost","name":"Belvédère de Tréguier","operator":"Provence Alpes Agglomération","ref":"Moustiers 63","source":"PDIPR 04","tourism":"information"}},
{"type":"Feature","geometry":{"type":"Point","coordinates":[6.3682583,43.9555908]},"properties":{"hiking":"yes","information":"guidepost","name":"Oratoire Saint Jean Baptiste","operator":"Communauté de communes Alpes Provence Verdon","ref":"Barrême 5","source":"PDIPR 04","tourism":"information"}},
{"type":"Feature","geometry":{"type":"Point","coordinates":[6.4124341,43.9742195]},"properties":{"hiking":"yes","information":"guidepost","name":"Le Clap","operator":"Communauté de communes Alpes Provence Verdon","ref":"St Lions 9","source":"PDIPR 04","tourism":"information"}},
{"type":"Feature","geometry":{"type":"Point","coordinates":[6.4146232,43.8493774]},"properties":{"hiking":"yes","information":"guidepost","name":"Colle basse","operator":"Communauté de communes Alpes Provence Verdon","ref":"Blieux 12","source":"PDIPR 04","tourism":"information"}},
{"type":"Feature","geometry":{"type":"Point","coordinates":[6.3441869,43.7792855]},"properties":{"hiking":"yes","information":"guidepost","name":"Carrefour du Camping","operator":"Communauté de communes Alpes Provence Verdon","ref":"La Palud 49","source":"PDIPR 04","tourism":"information"}},
{"type":"Feature","geometry":{"type":"Point","coordinates":[6.2179062,43.8351844]},"properties":{"hiking":"yes","information":"guidepost","name":"Peyrengues","operator":"Provence Alpes Agglomération","ref":"Moustiers 20","source":"PDIPR 04","tourism":"information"}},
{"type":"Feature","geometry":{"type":"Point","coordinates":[6.3149822,43.9200271]},"properties":{"hiking":"yes","information":"guidepost","name":"La Croix de la Melle","operator":"Provence Alpes Agglomération","ref":"Majastres 5","source":"PDIPR 04","tourism":"information"}},
{"type":"Feature","geometry":{"type":"Point","coordinates":[6.3346223,43.9117021]},"properties":{"hiking":"yes","information":"guidepost","name":"L'Ubac de la Melle","operator":"Communauté de communes Alpes Provence Verdon","ref":"Blieux 15","source":"PDIPR 04","tourism":"information"}},
{"type":"Feature","geometry":{"type":"Point","coordinates":[6.2411649,43.8711554]},"properties":{"hiking":"yes","information":"guidepost","name":"Naverre","operator":"Provence Alpes Agglomération","ref":"Moustiers 68","source":"PDIPR 04","tourism":"information"}},
{"type":"Feature","geometry":{"type":"Point","coordinates":[6.3775799,43.791971]},"properties":{"hiking":"yes","information":"guidepost","name":"Pont du Baou","operator":"Communauté de communes Alpes Provence Verdon","ref":"La Palud 48","source":"PDIPR 04","tourism":"information"}},
{"type":"Feature","geometry":{"type":"Point","coordinates":[6.3436486,43.8040526]},"properties":{"hiking":"yes","information":"guidepost","name":"La Plaine de Châteauneuf","operator":"Communauté de communes Alpes Provence Verdon","ref":"La Palud 20","source":"PDIPR 04","tourism":"information"}},
{"type":"Feature","geometry":{"type":"Point","coordinates":[6.3716354,43.8717937]},"properties":{"hiking":"yes","information":"guidepost","name":"Blieux","operator":"Communauté de communes Alpes Provence Verdon","ref":"Blieux 1","source":"PDIPR 04","tourism":"information"}},
{"type":"Feature","geometry":{"type":"Point","coordinates":[6.249846,43.954428]},"properties":{"hiking":"yes","information":"guidepost","name":"Route de Majastre","operator":"Provence Alpes Agglomération","ref":"Beynes 11","source":"PDIPR 04","tourism":"information"}},
{"type":"Feature","geometry":{"type":"Point","coordinates":[6.3926304,43.980238]},"properties":{"hiking":"yes","information":"guidepost","name":"Ravin de Bone","operator":"Communauté de communes Alpes Provence Verdon","ref":"St Lions 2","source":"PDIPR 04","tourism":"information"}},
{"type":"Feature","geometry":{"type":"Point","coordinates":[6.2339942,43.9096577]},"properties":{"hiking":"yes","information":"guidepost","name":"Col de St Jurs","operator":"Provence Alpes Agglomération","ref":"St Jurs 9","source":"PDIPR 04","tourism":"information"}},
{"type":"Feature","geometry":{"type":"Point","coordinates":[6.2011277,43.9425017]},"properties":{"ele":"560","hiking":"yes","information":"guidepost","name":"Passerelle de la Délasse","operator":"Provence Alpes Agglomération","ref":"Estoublon 14","source":"PDIPR 04","survey:date":"2023-01-15","tourism":"information"}},
{"type":"Feature","geometry":{"type":"Point","coordinates":[6.2530233,43.8697397]},"properties":{"hiking":"yes","information":"guidepost","name":"Grossière","operator":"Provence Alpes Agglomération","ref":"Moustiers 40","source":"PDIPR 04","tourism":"information"}},
{"type":"Feature","geometry":{"type":"Point","coordinates":[6.3170695,43.868207]},"properties":{"hiking":"yes","information":"guidepost","name":"Le Chiran","operator":"Communauté de communes Alpes Provence Verdon","ref":"La Palud 39","source":"PDIPR 04","tourism":"information"}},
{"type":"Feature","geometry":{"type":"Point","coordinates":[6.3576353,43.9715189]},"properties":{"hiking":"yes","information":"guidepost","name":"Entre Puy","operator":"Communauté de communes Alpes Provence Verdon","ref":"Barrême 6","source":"PDIPR 04","tourism":"information"}},
{"type":"Feature","geometry":{"type":"Point","coordinates":[6.222339,43.8455372]},"properties":{"hiking":"yes","information":"guidepost","name":"Cimetière","operator":"Provence Alpes Agglomération","ref":"moustiers 12","source":"PDIPR 04","tourism":"information"}},
{"type":"Feature","geometry":{"type":"Point","coordinates":[6.3333014,43.8088739]},"properties":{"hiking":"yes","information":"guidepost","name":"Les Aubanes (nord)","operator":"Communauté de communes Alpes Provence Verdon","ref":"La Palud 29","source":"PDIPR 04","tourism":"information"}},
{"type":"Feature","geometry":{"type":"Point","coordinates":[6.2607863,43.8348552]},"properties":{"hiking":"yes","information":"guidepost","name":"Font Rouit","operator":"Provence Alpes Agglomération","ref":"Moustiers 7","source":"PDIPR 04","tourism":"information"}},
{"type":"Feature","geometry":{"type":"Point","coordinates":[6.228474,43.979792]},"properties":{"hiking":"yes","information":"guidepost","name":"Le Haut Vériscle","operator":"Provence Alpes Agglomération","ref":"Beynes 6","source":"PDIPR 04","tourism":"information"}},
{"type":"Feature","geometry":{"type":"Point","coordinates":[6.407112,43.905482]},"properties":{"hiking":"yes","information":"guidepost","name":"Les Aires","operator":"Communauté de communes Alpes Provence Verdon","ref":"Senez 5","source":"PDIPR 04","tourism":"information"}},
{"type":"Feature","geometry":{"type":"Point","coordinates":[6.2202344,43.9658676]},"properties":{"elevation":"868","hiking":"yes","information":"guidepost","name":"Col de la Croix","operator":"Provence Alpes Agglomération","ref":"Beynes 4","source":"PDIPR 04","tourism":"information"}},
{"type":"Feature","geometry":{"type":"Point","coordinates":[6.2156666,43.8451615]},"properties":{"hiking":"yes","information":"guidepost","name":"Manaysse","operator":"Provence Alpes Agglomération","ref":"Moustiers 56","source":"PDIPR 04","tourism":"information"}},
{"type":"Feature","geometry":{"type":"Point","coordinates":[6.2234785,43.8479434]},"properties":{"hiking":"yes","information":"guidepost","name":"N-D de Beauvoir","operator":"Provence Alpes Agglomération","ref":"Moustiers 61","source":"PDIPR 04","tourism":"information"}},
{"type":"Feature","geometry":{"type":"Point","coordinates":[6.2421598,43.9331377]},"properties":{"ele":"825","hiking":"yes","information":"guidepost","name":"Hameau de Valbonnette","operator":"Provence Alpes Agglomération","ref":"Estoublon 30","source":"PDIPR 04","tourism":"information"}},
{"type":"Feature","geometry":{"type":"Point","coordinates":[6.2328628,43.8729872]},"properties":{"hiking":"yes","information":"guidepost","name":"Collet de Naverrre","operator":"Provence Alpes Agglomération","ref":"Moustiers 69","source":"PDIPR 04","tourism":"information"}},
{"type":"Feature","geometry":{"type":"Point","coordinates":[6.2357792,43.9043242]},"properties":{"hiking":"yes","information":"guidepost","name":"Sommet de l'Agra","operator":"Provence Alpes Agglomération","ref":"St Jurs 21","source":"PDIPR 04","tourism":"information"}},
{"type":"Feature","geometry":{"type":"Point","coordinates":[6.2693994,43.8911042]},"properties":{"hiking":"yes","information":"guidepost","name":"Les Grandes Pièces","operator":"Provence Alpes Agglomération","ref":"Majastres 1","source":"PDIPR 04","tourism":"information"}},
{"type":"Feature","geometry":{"type":"Point","coordinates":[6.2876075,43.9279964]},"properties":{"hiking":"yes","information":"guidepost","name":"Le Gué","operator":"Communauté de communes Alpes Provence Verdon","ref":"Senez 15","source":"PDIPR 04","tourism":"information"}},
{"type":"Feature","geometry":{"type":"Point","coordinates":[6.397386,43.917066]},"properties":{"hiking":"yes","information":"guidepost","name":"Chaurits","operator":"Communauté de communes Alpes Provence Verdon","ref":"Senez 8","source":"PDIPR 04","tourism":"information"}},
{"type":"Feature","geometry":{"type":"Point","coordinates":[6.3685505,43.953291]},"properties":{"hiking":"yes","information":"guidepost","name":"Barrême (fontaine aux Ammonites)","operator":"Communauté de communes Alpes Provence Verdon","ref":"Barrême 3","source":"PDIPR 04","tourism":"information"}},
{"type":"Feature","geometry":{"type":"Point","coordinates":[6.2267752,43.8458868]},"properties":{"hiking":"yes","information":"guidepost","name":"Sentier de la Chaîne","operator":"Provence Alpes Agglomération","ref":"Moustiers 31","source":"PDIPR 04","tourism":"information"}},
{"type":"Feature","geometry":{"type":"Point","coordinates":[6.3377937,43.8120463]},"properties":{"hiking":"yes","information":"guidepost","name":"Châteauneuf les Moustiers","operator":"Communauté de communes Alpes Provence Verdon","ref":"La Palud 30","source":"PDIPR 04","tourism":"information"}},
{"type":"Feature","geometry":{"type":"Point","coordinates":[6.2202158,43.8485604]},"properties":{"hiking":"yes","information":"guidepost","name":"Le Rempart","operator":"Provence Alpes Agglomération","ref":"Moustiers 15","source":"PDIPR 04","tourism":"information"}},
{"type":"Feature","geometry":{"type":"Point","coordinates":[6.3350217,43.8067772]},"properties":{"hiking":"yes","information":"guidepost","name":"Les Aubanes (sud)","operator":"Communauté de communes Alpes Provence Verdon","ref":"La Palud 28","source":"PDIPR 04","tourism":"information"}},
{"type":"Feature","geometry":{"type":"Point","coordinates":[6.2270936,43.8877949]},"properties":{"hiking":"yes","information":"guidepost","name":"Ravin de Balène","operator":"Provence Alpes Agglomération","ref":"Moustiers 87","source":"PDIPR 04","tourism":"information"}},
{"type":"Feature","geometry":{"type":"Point","coordinates":[6.3183857,43.7642603]},