{"type":"FeatureCollection","features":[
{"type":"Feature","geometry":{"type":"Point","coordinates":[4.4780863,43.9515421]},"properties":{"ele":"30","hiking":"yes","information":"guidepost","name":"Saint-Vincent","tourism":"information"}},
{"type":"Feature","geometry":{"type":"Point","coordinates":[4.528898,43.9511972]},"properties":{"hiking":"yes","information":"guidepost","name":"Pont Roupt","tourism":"information"}},
{"type":"Feature","geometry":{"type":"Point","coordinates":[4.5301314,43.9474588]},"properties":{"name":"Point de Vue","tourism":"viewpoint"}},
{"type":"Feature","geometry":{"type":"Point","coordinates":[4.5308759,43.9476202]},"properties":{"tourism":"viewpoint"}},
{"type":"Feature","geometry":{"type":"Point","coordinates":[4.532191,43.9476544]},"properties":{"tourism":"viewpoint"}},
{"type":"Feature","geometry":{"type":"Point","coordinates":[4.5328207,43.9475805]},"properties":{"tourism":"viewpoint"}},
{"type":"Feature","geometry":{"type":"Point","coordinates":[4.5330465,43.9479035]},"properties":{"tourism":"viewpoint"}},
{"type":"Feature","geometry":{"type":"Point","coordinates":[4.5353605,43.9459265]},"properties":{"tourism":"viewpoint"}},
{"type":"Feature","geometry":{"type":"Point","coordinates":[4.5372658,43.9460441]},"properties":{"access":"yes","historic":"ruins","historic:civilization":"moderne","name":"Tunnel"}},
{"type":"Feature","geometry":{"type":"Point","coordinates":[4.5366288,43.9464246]},"properties":{"historic":"ruins"}},
{"type":"Feature","geometry":{"type":"Point","coordinates":[4.5367502,43.9469974]},"properties":{"ele":"38","hiking":"yes","information":"guidepost","name":"Pont du Gard","tourism":"information"}},
{"type":"Feature","geometry":{"type":"Point","coordinates":[4.5417204,43.9483618]},"properties":{"hiking":"yes","information":"guidepost","name":"Combe de Roussière","tourism":"information"}},
{"type":"Feature","geometry":{"type":"Point","coordinates":[4.541648,43.9490217]},"properties":{"board_type":"notice","information":"board","name":"Pont du Gard","tourism":"information"}},
{"type":"Feature","geometry":{"type":"Point","coordinates":[4.4501512,43.9396375]},"properties":{"name":"Point de Vue","tourism":"viewpoint"}},
{"type":"Feature","geometry":{"type":"Point","coordinates":[4.4478177,43.8807864]},"properties":{"image":"https://upload.wikimedia.org/wikipedia/commons/b/bf/Table_d%27orientation_114431.jpg","name":"Point de vue","source":"NM_2015_CollectifdesGarrigues","tourism":"viewpoint"}},
{"type":"Feature","geometry":{"type":"Point","coordinates":[4.4432786,43.9221668]},"properties":{"name":"Aven de Mandre","natural":"cave_entrance","source":"estimation"}},
{"type":"Feature","geometry":{"type":"Point","coordinates":[4.4655509,43.9403126]},"properties":{"name":"Tunnel","natural":"cave_entrance","source":"gps"}},
{"type":"Feature","geometry":{"type":"Point","coordinates":[4.4689905,43.942773]},"properties":{"name":"Point de vue","source":"Gps","tourism":"viewpoint"}},
{"type":"Feature","geometry":{"type":"Point","coordinates":[4.4648404,43.9405831]},"properties":{"name":"Grotte","natural":"cave_entrance","source":"gps"}},
{"type":"Feature","geometry":{"type":"Point","coordinates":[4.5429794,43.9428526]},"properties":{"historic":"archaeological_site"}},
{"type":"Feature","geometry":{"type":"Point","coordinates":[4.5419443,43.9427777]},"properties":{"information":"Syndicat mixte des Gorges du Gardon","name":"Grotte de la Sartanette","natural":"cave_entrance","phone":"+33 4 66036259"}},
{"type":"Feature","geometry":{"type":"Point","coordinates":[4.5450118,43.9432167]},"properties":{"historic":"archaeological_site","name":"Le Ponceau","note":"dam of roman aqueduct","wikidata":"Q2859224","wikipedia":"fr:Aqueduc de Nîmes"}},
{"type":"Feature","geometry":{"type":"Point","coordinates":[4.5303273,43.9348268]},"properties":{"ele":"146","hiking":"yes","information":"guidepost","name":"Valmalle","tourism":"information"}},
{"type":"Feature","geometry":{"type":"Point","coordinates":[4.5361405,43.9345183]},"properties":{"ele":"121","hiking":"yes","information":"guidepost","name":"Le Sablas","tourism":"information"}},
{"type":"Feature","geometry":{"type":"Point","coordinates":[4.5297539,43.9535684]},"properties":{"name":"Belvédère Mémoires de Garrigue","tourism":"viewpoint","wheelchair":"no"}},
{"type":"Feature","geometry":{"type":"Point","coordinates":[4.536332,43.9519798]},"properties":{"barrier":"gate","source":"locale"}},
{"type":"Feature","geometry":{"type":"Point","coordinates":[4.4751775,43.9836187]},"properties":{"barrier":"block"}},
{"type":"Feature","geometry":{"type":"Point","coordinates":[4.4456823,43.9562072]},"properties":{"ele":"109","mountain_pass":"yes","natural":"saddle"}},
{"type":"Feature","geometry":{"type":"Point","coordinates":[4.4328454,43.9381193]},"properties":{"information":"guidepost","source":"survey","tourism":"information"}},
{"type":"Feature","geometry":{"type":"Point","coordinates":[4.4354079,43.9449072]},"properties":{"ele":"172","hiking":"yes","information":"guidepost","name":"Les Condamines","source":"survey","tourism":"information"}},
{"type":"Feature","geometry":{"type":"Point","coordinates":[4.5179633,43.958593]},"properties":{"information":"guidepost","name":"Les Bégudes","tourism":"information"}},
{"type":"Feature","geometry":{"type":"Point","coordinates":[4.5219989,43.9561943]},"properties":{"access":"no","historic":"ruins","historic:civilization":"medieval","name":"Chapelle Saint-Pierre","ruins":"church"}},
{"type":"Feature","geometry":{"type":"Point","coordinates":[4.5252076,43.9670437]},"properties":{"information":"guidepost","name":"Vers-Pont-du-Gard Centre","tourism":"information"}},
{"type":"Feature","geometry":{"type":"Point","coordinates":[4.5302847,43.9579976]},"properties":{"information":"guidepost","tourism":"information"}},
{"type":"Feature","geometry":{"type":"Point","coordinates":[4.5214437,43.9275399]},"properties":{"information":"guidepost","name":"Cante perdrix","tourism":"information"}},
{"type":"Feature","geometry":{"type":"Point","coordinates":[4.5403549,43.9261546]},"properties":{"information":"guidepost","name":"La croix des jardins","tourism":"information"}},
{"type":"Feature","geometry":{"type":"Point","coordinates":[4.544531,43.9275963]},"properties":{"information":"guidepost","name":"Saint-Bonnet-du-Gard","tourism":"information"}},
{"type":"Feature","geometry":{"type":"Point","coordinates":[4.5422933,43.9547876]},"properties":{"addr:city":"Vers-Pont-du-Gard","addr:housenumber":"399","addr:postcode":"30210","addr:street":"Route de Remoulins","contact:instagram":"https://www.instagram.com/masdemonpere","ele":"85","facebook":"https://www.facebook.com/masdemonpere","name":"Le Mas de Mon Père","phone":"+33466741870","rooms":"5","tourism":"guest_house","website":"http://masdemonpere.fr"}},
{"type":"Feature","geometry":{"type":"Point","coordinates":[4.4769518,43.9514516]},"properties":{"name":"Grotte de Pâques","natural":"cave_entrance"}},
{"type":"Feature","geometry":{"type":"Point","coordinates":[4.5194618,43.9664206]},"properties":{"historic":"wayside_cross","name":"calvaire"}},
{"type":"Feature","geometry":{"type":"Point","coordinates":[4.4631451,43.9849699]},"properties":{"historic":"ruins","name":"Vestige de l'aqueduc de Nîmes","name:en":"access shaft of Nîmes aqueduct"}},
{"type":"Feature","geometry":{"type":"Point","coordinates":[4.5309566,43.9671211]},"properties":{"light_source":"floodlight"}},
{"type":"Feature","geometry":{"type":"Point","coordinates":[4.5309661,43.9672558]},"properties":{"light_source":"floodlight"}},
{"type":"Feature","geometry":{"type":"Point","coordinates":[4.4959027,43.9789489]},"properties":{"tourism":"picnic_site"}},
{"type":"Feature","geometry":{"type":"Point","coordinates":[4.534225,43.95326]},"properties":{"check_date":"2023-07-15","direction":"95","information":"map","map_size":"site","map_type":"scheme","tourism":"information"}},
{"type":"Feature","geometry":{"type":"Point","coordinates":[4.5073379,43.9157552]},"properties":{"name":"Gite Maison de l'Olivier","tourism":"guest_house"}},
{"type":"Feature","geometry":{"type":"Point","coordinates":[4.5084543,43.9152888]},"properties":{"historic":"wayside_cross","name":"Croix du Jubilé","source":"Collectif des Garrigues"}},
{"type":"Feature","geometry":{"type":"Point","coordinates":[4.5071516,43.9179002]},"properties":{"note":"Panorama sur la plaine du Vistre","source":"Cartoparty Ledenon 03/06/14","tourism":"viewpoint"}},
{"type":"Feature","geometry":{"type":"Point","coordinates":[4.5082617,43.914577]},"properties":{"denotation":"landmark","leaf_type":"broadleaved","name":"Micocoulier remarquable","natural":"tree","note":"Micocoulier d'environ 4 m de circonférence."}},
{"type":"Feature","geometry":{"type":"Point","coordinates":[4.5092631,43.914759]},"properties":{"historic":"memorial","memorial":"war_memorial","name":"Monument aux Morts"}},
{"type":"Feature","geometry":{"type":"Point","coordinates":[4.5076477,43.9138912]},"properties":{"historic":"wayside_cross"}},
{"type":"Feature","geometry":{"type":"Point","coordinates":[4.5088571,43.9182078]},"properties":{"historic":"monument","name":"Croix de la Bouziguette","note":"pourquoi elle ne s'enregistre pas ???","source":"CartoParty sur Ledenon le 03/06/2014"}},
{"type":"Feature","geometry":{"type":"Point","coordinates":[4.5071932,43.9149342]},"properties":{"leisure":"pitch","sport":"table_tennis"}},
{"type":"Feature","geometry":{"type":"Point","coordinates":[4.508925,43.9147078]},"properties":{"ele":"65","hiking":"yes","information":"map","map_type":"topo","name":"Panneau porte information : Randonnée de Lédenon","tourism":"information"}},
{"type":"Feature","geometry":{"type":"Point","coordinates":[4.4373955,43.8743541]},"properties":{"amenity":"shelter","building:loc":"capitelle","description":"en bon état : capitelle carrée adossée à un mur de pierre sèche.","historic":"shelter","material":"dry_stone","shelter_type":"basic_hut","source":"Martin-Fadat-1991Marguerittes","url":"http://www.wikigarrigue.info/files/fichier_ressource_Capitelles-Martin-Fadat-2.pdf"}},
{"type":"Feature","geometry":{"type":"Point","coordinates":[4.4297652,43.8672459]},"properties":{"building:loc":"capitelle","description":"très bon état, carrée","historic":"shelter","image":"https://upload.wikimedia.org/wikipedia/commons/4/4e/Capitelle_0653.JPG","material":"dry_stone","shelter_type":"basic_hut","source":"Martin-Fadat-1991Marguerittes","url":"http://www.wikigarrigue.info/files/fichier_ressource_Capitelles-Martin-Fadat-2.pdf"}},
{"type":"Feature","geometry":{"type":"Point","coordinates":[4.4304683,43.8676085]},"properties":{"building:loc":"capitelle","description":"très bon état, restaurée, intérieur en U avec banquette, fenestrons, cuvon attenant. Ouverture sud est","historic":"shelter","image":"https://upload.wikimedia.org/wikipedia/commons/1/17/Capitelle_0654.JPG","material":"dry_stone","shelter_type":"basic_hut","source":"Martin-Fadat-1991Marguerittes","url":"http://www.wikigarrigue.info/files/fichier_ressource_Capitelles-Martin-Fadat-2.pdf"}},
{"type":"Feature","geometry":{"type":"Point","coordinates":[4.4312501,43.8682606]},"properties":{"building:loc":"capitelle","description":"effondrée, forme carrée incluse dans un clapas. ouverture sud ouest","historic":"shelter","image":"https://upload.wikimedia.org/wikipedia/commons/d/dc/Capitelle_0658.JPG","material":"dry_stone","shelter_type":"basic_hut","source":"Martin-Fadat-1991Marguerittes","url":"http://www.wikigarrigue.info/files/fichier_ressource_Capitelles-Martin-Fadat-2.pdf"}},
{"type":"Feature","geometry":{"type":"Point","coordinates":[4.4385347,43.8761454]},"properties":{"amenity":"shelter","building:loc":"capitelle","description":"Capitelle en bon état, orientation sud-est","historic":"shelter","material":"dry_stone","shelter_type":"basic_hut","source":"Martin-Fadat-1991Marguerittes","url":"http://www.wikigarrigue.info/files/fichier_ressource_Capitelles-Martin-Fadat-2.pdf"}},
{"type":"Feature","geometry":{"type":"Point","coordinates":[4.4420822,43.8786717]},"properties":{"amenity":"shelter","building:loc":"capitelle","description":"bon état, porte orientée sud, capitelle-tine","historic":"shelter","material":"dry_stone","ref":"103","shelter_type":"basic_hut","source":"Martin-Fadat-1991Marguerittes","url":"http://www.wikigarrigue.info/files/fichier_ressource_Capitelles-Martin-Fadat-2.pdf"}},
{"type":"Feature","geometry":{"type":"Point","coordinates":[4.4426997,43.8844576]},"properties":{"amenity":"shelter","building:loc":"capitelle","description":"bon état, porte orientée sud-sud-ouest, forme semi-circulaire","historic":"shelter","material":"dry_stone","ref":"116","shelter_type":"basic_hut","source":"Martin-Fadat-1991Marguerittes"}},
{"type":"Feature","geometry":{"type":"Point","coordinates":[4.4447081,43.8768673]},"properties":{"amenity":"shelter","building:loc":"capitelle","historic":"shelter","material":"dry_stone","ref":"98","shelter_type":"basic_hut","source":"Martin-Fadat-1991Marguerittes","url":"http://www.wikigarrigue.info/files/fichier_ressource_Capitelles-Martin-Fadat-2.pdf"}},
{"type":"Feature","geometry":{"type":"Point","coordinates":[4.4437545,43.8788347]},"properties":{"amenity":"shelter","building:loc":"capitelle","description":"bon état, porte orientée sud","historic":"shelter","material":"dry_stone","ref":"104","shelter_type":"basic_hut","source":"Martin-Fadat-1991Marguerittes","url":"http://www.wikigarrigue.info/files/fichier_ressource_Capitelles-Martin-Fadat-2.pdf"}},
{"type":"Feature","geometry":{"type":"Point","coordinates":[4.5297498,43.969386]},"properties":{"access":"private","amenity":"shelter","building:loc":"capitelle","description":"Capitelle couverte par une voûte en encorbellement. L'encadrement de la porte est en pierre de taille. L'entrée et fermée par un grillage. Située sur une ancienne aire de battage - hauteur 6","historic":"shelter","image":"http://petit-patrimoine.pays-uzege-pontdugard.fr/Local/intra/bdduzege/IPP30_063003874NUCA_XP.jpg","material":"dry_stone","shelter_type":"basic_hut","source":"Inventaire Pays Uzège Pont du Gard - Molinard/Gomez (2007)","url":"http://petit-patrimoine.pays-uzege-pontdugard.fr/index.php?project=intra&locale=fr&pagendx=92&first_queryuzege=300&max_queryuzege=20&recherche=1&posted_field_udeno=Cabane&from=default&name=queryuzege&section=uzege-show&id=5AU690"}},
{"type":"Feature","geometry":{"type":"Point","coordinates":[4.513961,43.9731448]},"properties":{"historic":"wayside_cross"}},
{"type":"Feature","geometry":{"type":"Point","coordinates":[4.488049,43.9387927]},"properties":{"name":"Source de la Combe de l'Ermitage","natural":"spring"}},
{"type":"Feature","geometry":{"type":"Point","coordinates":[4.486726,43.9586347]},"properties":{"ele":"49","information":"guidepost","name":"Le Plan","tourism":"information"}},
{"type":"Feature","geometry":{"type":"Point","coordinates":[4.508444,43.9207972]},"properties":{"image":"https://upload.wikimedia.org/wikipedia/commons/8/87/Ledenon_La_Source1.jpg","name":"La source","natural":"spring","source":"NM_2015_CollectifdesGarrigues","url":"http://www.nimes-metropole.fr/fileadmin/mediatheque/Dossier-commun/Documentations/publications/Culture-et-sport/GuidePatrimoine.pdf"}},
{"type":"Feature","geometry":{"type":"Point","coordinates":[4.5377013,43.9475014]},"properties":{"access":"no","heritage":"2","heritage:operator":"mhs","historic":"archaeological_site","mhs:inscription_date":"1931-06-19","name":"Abri préhistorique de la Salpêtrière","natural":"cave_entrance","ref:mhs":"PA00103290","source:heritage":"data.gouv.fr:Ministère de la Culture - 04/2015","wikidata":"Q3117197","wikipedia":"fr:Grotte de la Salpêtrière"}},
{"type":"Feature","geometry":{"type":"Point","coordinates":[4.5352882,43.9486548]},"properties":{"circumference":"5","denotation":"natural_monument","genus":"Olea","height":"3","leaf_cycle":"evergreen","leaf_type":"broadleaved","natural":"tree"}},
{"type":"Feature","geometry":{"type":"Point","coordinates":[4.5124308,43.976591]},"properties":{"natural":"tree"}},
{"type":"Feature","geometry":{"type":"Point","coordinates":[4.512482,43.9766743]},"properties":{"natural":"tree"}},
{"type":"Feature","geometry":{"type":"Point","coordinates":[4.4306664,43.8678882]},"properties":{"building:loc":"capitelle","description":"effondrée, forme carrée incluse dans un clapas. ouverture ouest - sud ouest","historic":"shelter","image":"https://upload.wikimedia.org/wikipedia/commons/8/8a/Capitelle_0656.JPG","material":"dry_stone","shelter_type":"basic_hut","source":"Martin-Fadat-1991Marguerittes","url":"http://www.wikigarrigue.info/files/fichier_ressource_Capitelles-Martin-Fadat-2.pdf"}},
{"type":"Feature","geometry":{"type":"Point","coordinates":[4.4745596,43.905826]},"properties":{"natural":"spring"}},
{"type":"Feature","geometry":{"type":"Point","coordinates":[4.4873244,43.9050194]},"properties":{"access":"public","description":"Etat : Aménagement ancien. Restauration : Légère. Exutoire : Vistre. Intensité : Forte. Urgonien.","ele":"130","image":"https://upload.wikimedia.org/wikipedia/commons/e/e3/11NM_Source_de_la_Bastide.jpg","name":"Source de la Bastide","natural":"spring","ref":"11NM","seasonal":"no","source":"Collectif pour les sources - 2016","url":"http://www.nemausus.com/nimes/2009/09/fichiers/"}},
{"type":"Feature","geometry":{"type":"Point","coordinates":[4.4738771,43.9037511]},"properties":{"historic":"memorial"}},
{"type":"Feature","geometry":{"type":"Point","coordinates":[4.4707342,43.9044401]},"properties":{"addr:city":"Cabrières","addr:housenumber":"71","addr:postcode":"30210","addr:street":"Rue du 14 Juillet","name":"L'Enclos des Lauriers Roses","tourism":"hotel"}},
{"type":"Feature","geometry":{"type":"Point","coordinates":[4.4588466,43.8875076]},"properties":{"access":"yes","description":"Etat : Site naturel. Restauration : SO. Exutoire : Vistre. Intensité : Forte. Géologie : Calcaires Hauteriviens.","ele":"70","image":"https://upload.wikimedia.org/wikipedia/commons/6/67/7NM_Creux_de_Lafoux.jpg","name":"Creux de Lafoux","natural":"spring","ref":"7NM","seasonal":"yes","source":"Collectif pour les sources - 2016","url":"http://www.nemausus.com/nimes/2009/09/fichiers/"}},
{"type":"Feature","geometry":{"type":"Point","coordinates":[4.4574704,43.8887223]},"properties":{"access":"public","description":"Etat : Site naturel aven. Restauration : SO. Exutoire : Vistre. Intensité : Forte. Géologie : Hauterivien superieur, barémien inférieur.","ele":"75","image":"https://upload.wikimedia.org/wikipedia/commons/1/1c/8NM_Source_de_Fouzeron.jpg","name":"Source de Fouzeron","natural":"spring","ref":"8NM","seasonal":"yes","source":"Collectif pour les sources - 2016","url":"http://www.nemausus.com/nimes/2009/09/fichiers/"}},
{"type":"Feature","geometry":{"type":"Point","coordinates":[4.4599077,43.8937425]},"properties":{"access":"private","description":"Etat : Petit aménagement grille dans mur. Restauration : SO. Exutoire : Vistre. Intensité : Forte. Géologie : Barémien + limons.","ele":"87","image":"https://upload.wikimedia.org/wikipedia/commons/f/f6/9NM_Source_d%27Arnon.jpg","name":"Source d'Arnon","natural":"spring","ref":"9NM","seasonal":"no","source":"Collectif pour les sources - 2016","url":"http://www.nemausus.com/nimes/2009/09/fichiers/"}},
{"type":"Feature","geometry":{"type":"Point","coordinates":[4.474547,43.9063027]},"properties":{"access":"yes","description":"Etat : Très bel aménagement. Restauration : SO. Exutoire : Vistre. Intensité : Forte. Urgonien.","ele":"137","image":"https://upload.wikimedia.org/wikipedia/commons/1/14/10NM_Fontaine_de_Cabri%C3%A8res.jpg","name":"Fontaine de Cabrières","natural":"spring","ref":"10NM","seasonal":"no","source":"Collectif pour les sources - 2016","url":"http://www.nemausus.com/nimes/2009/09/fichiers/"}},
{"type":"Feature","geometry":{"type":"Point","coordinates":[4.5067038,43.9156331]},"properties":{"access":"public","description":"Etat : Très bel aménagement. Restauration : SO. Exutoire : Gardon. Intensité : Forte. Urgonien.","ele":"131","image":"https://upload.wikimedia.org/wikipedia/commons/5/51/12NM_Source_de_Ledeon.jpg","name":"Source de Lédenon","natural":"spring","ref":"12NM","seasonal":"no","source":"Collectif pour les sources - 2016","url":"http://www.nemausus.com/nimes/2009/09/fichiers/"}},
{"type":"Feature","geometry":{"type":"Point","coordinates":[4.4324364,43.8735856]},"properties":{"hiking":"yes","information":"guidepost","name":"Fontaine de l'Arboretum","source":"NM_2015_CollectifdesGarrigues","tourism":"information"}},
{"type":"Feature","geometry":{"type":"Point","coordinates":[4.4313321,43.8747511]},"properties":{"hiking":"yes","information":"guidepost","name":"Le Brochet","source":"NM_2015_CollectifdesGarrigues","tourism":"information"}},
{"type":"Feature","geometry":{"type":"Point","coordinates":[4.4420329,43.8787149]},"properties":{"hiking":"yes","information":"guidepost","name":"Capitelle de Candelon","source":"NM_2015_CollectifdesGarrigues","tourism":"information"}},
{"type":"Feature","geometry":{"type":"Point","coordinates":[4.4421666,43.8795584]},"properties":{"hiking":"yes","information":"guidepost","name":"Le Secadou","source":"NM_2015_CollectifdesGarrigues","tourism":"information"}},
{"type":"Feature","geometry":{"type":"Point","coordinates":[4.444632,43.8835504]},"properties":{"hiking":"yes","information":"guidepost","name":"Les Gabarans","source":"NM_2015_CollectifdesGarrigues","tourism":"information"}},
{"type":"Feature","geometry":{"type":"Point","coordinates":[4.4440955,43.8887171]},"properties":{"hiking":"yes","information":"guidepost","name":"Valloubines","source":"NM_2015_CollectifdesGarrigues","tourism":"information"}},
{"type":"Feature","geometry":{"type":"Point","coordinates":[4.4398607,43.892356]},"properties":{"hiking":"yes","information":"guidepost","name":"Roquecourbe","source":"NM_2015_CollectifdesGarrigues","tourism":"information"}},
{"type":"Feature","geometry":{"type":"Point","coordinates":[4.4409856,43.8944743]},"properties":{"hiking":"yes","information":"guidepost","name":"Le Grand Chêne","source":"NM_2015_CollectifdesGarrigues","tourism":"information"}},
{"type":"Feature","geometry":{"type":"Point","coordinates":[4.5461389,43.914833]},"properties":{"amenity":"shelter","building:loc":"capitelle","description":"Cabane de plan circulaire avec entrée au sud, le diamètre extérieur est de 5 mètres. Une niche et une cheminée sont visibles à l'intérieur. Cette cabane se trouve dans un environnement de garrigue.","historic":"shelter","image":"https://upload.wikimedia.org/wikipedia/commons/c/cb/Sernhac_03_capitelle.jpg","material":"dry_stone","shelter_type":"basic_hut","source":"Inventaire du petit patrimoine du Pays Uzège-Pont du Gard"}},
{"type":"Feature","geometry":{"type":"Point","coordinates":[4.5462399,43.9173737]},"properties":{"amenity":"shelter","building:loc":"capitelle","description":"Cabane de plan circulaire avec entrée au sud-est implantée en garrigue. La toiture est effondrée, la bordure du mur est plantée d'iris.","historic":"shelter","image":"https://upload.wikimedia.org/wikipedia/commons/c/c3/Sernhac_04_capitelle.jpg","material":"dry_stone","name":"Capitelle d'Iris","shelter_type":"basic_hut","source":"Inventaire du petit patrimoine du Pays Uzège-Pont du Gard","url":"http://petit-patrimoine.pays-uzege-pontdugard.fr/index.php?project=intra&locale=fr&pagendx=92&first_queryuzege=0&max_queryuzege=20&recherche=1&posted_field_ucom=Sernhac&from=default&name=queryuzege&section=uzege-show&id=5AU579"}},
{"type":"Feature","geometry":{"type":"Point","coordinates":[4.5446995,43.9044557]},"properties":{"historic":"wayside_cross","image":"https://upload.wikimedia.org/wikipedia/commons/f/f9/15_croix.jpg","name":"Croix de Limosy","source":"NM_2015_CollectifdesGarrigues"}},
{"type":"Feature","geometry":{"type":"Point","coordinates":[4.539165,43.9075706]},"properties":{"historic":"wayside_cross","image":"https://upload.wikimedia.org/wikipedia/commons/6/6a/16_croix.jpg","name":"Croix de pélerinage \"Les Trois Croix\"","source":"NM_2015_CollectifdesGarrigues"}},
{"type":"Feature","geometry":{"type":"Point","coordinates":[4.4496767,43.8756314]},"properties":{"check_date":"2022-02-23","covered":"no","leisure":"picnic_table","material":"wood","seats":"8"}},
{"type":"Feature","geometry":{"type":"Point","coordinates":[4.4497974,43.8756595]},"properties":{"check_date":"2022-02-23","covered":"no","leisure":"picnic_table","material":"wood","seats":"8"}},
{"type":"Feature","geometry":{"type":"Point","coordinates":[4.4498993,43.8757155]},"properties":{"check_date":"2022-02-23","covered":"no","leisure":"picnic_table","material":"wood","seats":"8"}},
{"type":"Feature","geometry":{"type":"Point","coordinates":[4.4500173,43.8757503]},"properties":{"check_date":"2022-08-21","covered":"no","leisure":"picnic_table","material":"wood","seats":"8"}},
{"type":"Feature","geometry":{"type":"Point","coordinates":[4.4502493,43.875643]},"properties":{"check_date":"2022-02-23","covered":"no","leisure":"picnic_table","material":"wood","seats":"8"}},
{"type":"Feature","geometry":{"type":"Point","coordinates":[4.4501286,43.8755947]},"properties":{"check_date":"2022-02-23","covered":"no","leisure":"picnic_table","material":"wood","seats":"8"}},
{"type":"Feature","geometry":{"type":"Point","coordinates":[4.4500079,43.8755444]},"properties":{"check_date":"2022-02-23","covered":"no","leisure":"picnic_table","material":"wood","seats":"8"}},
{"type":"Feature","geometry":{"type":"Point","coordinates":[4.4499194,43.8755106]},"properties":{"covered":"no","leisure":"picnic_table","material":"wood","seats":"8"}},
{"type":"Feature","geometry":{"type":"Point","coordinates":[4.4497404,43.8757242]},"properties":{"access":"yes","leisure":"playground"}},
{"type":"Feature","geometry":{"type":"Point","coordinates":[4.4501615,43.8757842]},"properties":{"check_date":"2022-08-21","covered":"no","leisure":"picnic_table","material":"wood","seats":"8"}},
{"type":"Feature","geometry":{"type":"Point","coordinates":[4.4951884,43.9795964]},"properties":{"artwork_subject":"virgin","artwork_type":"statue","tourism":"artwork"}},
{"type":"Feature","geometry":{"type":"Point","coordinates":[4.473342,43.9502666]},"properties":{"climbing:routes":"200","name":"L'oeuf","natural":"cliff","sport":"climbing"}},
{"type":"Feature","geometry":{"type":"Point","coordinates":[4.4981799,43.973675]},"properties":{"heritage:operator":"mhs","historic":"castle","name":"Domaine de Castille","ref:mhs":"PA00102961","source:heritage":"data.gouv.fr, Ministère de la Culture - 2016","start_date":"C17","wikidata":"Q22953506"}},
{"type":"Feature","geometry":{"type":"Point","coordinates":[4.4457106,43.9561905]},"properties":{"archaeological_site":"megalith","historic":"archaeological_site","megalith_type":"menhir","name":"Menhir dit la Pierre Bamboche","name:T4T35.fr":"MSBAMB","ref:megalithic.co.uk":"6334875"}},
{"type":"Feature","geometry":{"type":"Point","coordinates":[4.4798979,43.953648]},"properties":{"check_date":"2024-07-14","description":"Collias","information":"board","tourism":"information"}},
{"type":"Feature","geometry":{"type":"Point","coordinates":[4.4834156,43.9530513]},"properties":{"historic":"wayside_cross"}},
{"type":"Feature","geometry":{"type":"Point","coordinates":[4.4833526,43.9529712]},"properties":{"ele":"42","hiking":"yes","information":"guidepost","name":"Le Grand Devois","tourism":"information"}},
{"type":"Feature","geometry":{"type":"Point","coordinates":[4.4806918,43.9535205]},"properties":{"ele":"44","hiking":"yes","information":"guidepost","name":"Collias","tourism":"information"}},
{"type":"Feature","geometry":{"type":"Point","coordinates":[4.4869173,43.9541944]},"properties":{"ele":"32","hiking":"yes","information":"guidepost","name":"Ron de Fabre","tourism":"information"}},
{"type":"Feature","geometry":{"type":"Point","coordinates":[4.4839708,43.9539965]},"properties":{"tourism":"picnic_site"}},
{"type":"Feature","geometry":{"type":"Point","coordinates":[4.4916822,43.9512816]},"properties":{"ele":"40","hiking":"yes","information":"guidepost","name":"Cantadu","tourism":"information"}},
{"type":"Feature","geometry":{"type":"Point","coordinates":[4.49176,43.9513965]},"properties":{"description":"Site Naturel Protégé du Massif des Gorges du gardon","information":"board","tourism":"information"}},
{"type":"Feature","geometry":{"type":"Point","coordinates":[4.4917023,43.9513472]},"properties":{"historic":"wayside_cross"}},
{"type":"Feature","geometry":{"type":"Point","coordinates":[4.4879834,43.9398615]},"properties":{"historic":"wayside_cross"}},
{"type":"Feature","geometry":{"type":"Point","coordinates":[4.4876924,43.939791]},"properties":{"ele":"99","hiking":"yes","information":"guidepost","name":"L'Ermitage","tourism":"information"}},
{"type":"Feature","geometry":{"type":"Point","coordinates":[4.4875436,43.9396152]},"properties":{"historic":"wayside_cross"}},
{"type":"Feature","geometry":{"type":"Point","coordinates":[4.485037,43.940605]},"properties":{"ele":"180","hiking":"yes","information":"guidepost","name":"Le Grand Serre","tourism":"information"}},
{"type":"Feature","geometry":{"type":"Point","coordinates":[4.4817218,43.9350193]},"properties":{"historic":"wayside_cross"}},
{"type":"Feature","geometry":{"type":"Point","coordinates":[4.4708092,43.9297808]},"properties":{"ele":"194","hiking":"yes","information":"guidepost","tourism":"information"}},
{"type":"Feature","geometry":{"type":"Point","coordinates":[4.4807777,43.9480857]},"properties":{"description":"Au-dessus de Collias par la Torte","tourism":"viewpoint"}},
{"type":"Feature","geometry":{"type":"Point","coordinates":[4.5180234,43.9503121]},"properties":{"access":"no","heritage":"2","heritage:operator":"mhs","historic":"archaeological_site","mhs:inscription_date":"1958-06-27","name":"Grotte de la Balauzière","natural":"cave_entrance","ref:mhs":"PA00103293","source:heritage":"data.gouv.fr:Ministère de la Culture - 04/2015","wikidata":"Q3117180","wikipedia":"fr:Grotte de la Balauzière"}},
{"type":"Feature","geometry":{"type":"Point","coordinates":[4.5067629,43.9157932]},"properties":{"name":"Platane","natural":"tree"}},
{"type":"Feature","geometry":{"type":"Point","coordinates":[4.5066349,43.9157681]},"properties":{"name":"Platane","natural":"tree"}},
{"type":"Feature","geometry":{"type":"Point","coordinates":[4.5230127,43.9093652]},"properties":{"colour":"white","historic":"wayside_cross","material":"concrete","name":"Croix des Soldats"}},
{"type":"Feature","geometry":{"type":"Point","coordinates":[4.5043963,43.9534521]},"properties":{"addr:housenumber":"406","addr:street":"Chemin du Garrege","name":"Mas Pépette","tourism":"guest_house"}},
{"type":"Feature","geometry":{"type":"Point","coordinates":[4.4777828,43.9512379]},"properties":{"source":"local knowledge","whitewater":"egress"}},
{"type":"Feature","geometry":{"type":"Point","coordinates":[4.4795567,43.9515261]},"properties":{"source":"local knowledge","whitewater":"put_in"}},
{"type":"Feature","geometry":{"type":"Point","coordinates":[4.4727989,43.9498916]},"properties":{"description":"Via Ferrata Les Gorges du Gardon","natural":"cliff","sport":"via_ferrata","via_ferrata":"start"}},
{"type":"Feature","geometry":{"type":"Point","coordinates":[4.473478,43.9043348]},"properties":{"colour":"gray","historic":"wayside_cross","material":"metal"}},
{"type":"Feature","geometry":{"type":"Point","coordinates":[4.4694614,43.9485569]},"properties":{"source":"survey","tourism":"viewpoint"}},
{"type":"Feature","geometry":{"type":"Point","coordinates":[4.4542828,43.9482286]},"properties":{"ele":"147","hiking":"yes","information":"guidepost","name":"Menude","source":"survey","tourism":"information"}},
{"type":"Feature","geometry":{"type":"Point","coordinates":[4.4382323,43.9457379]},"properties":{"ele":"176","hiking":"yes","information":"guidepost","name":"La Grande -terre","source":"survey","tourism":"information"}},
{"type":"Feature","geometry":{"type":"Point","coordinates":[4.4335242,43.937241]},"properties":{"ele":"33","hiking":"yes","information":"guidepost","name":"La Baume","source":"survey","tourism":"information"}},
{"type":"Feature","geometry":{"type":"Point","coordinates":[4.4580299,43.9438583]},"properties":{"ele":"38","hiking":"yes","information":"guidepost","name":"Vallon de la Caille","source":"survey","tourism":"information"}},
{"type":"Feature","geometry":{"type":"Point","coordinates":[4.473116,43.9498463]},"properties":{"ele":"30","hiking":"yes","information":"guidepost","name":"La Queue du Grand Glas","source":"survey","tourism":"information"}},
{"type":"Feature","geometry":{"type":"Point","coordinates":[4.4814281,43.9533342]},"properties":{"ele":"30","hiking":"yes","information":"guidepost","name":"Le Pont","source":"survey","tourism":"information"}},
{"type":"Feature","geometry":{"type":"Point","coordinates":[4.4709004,43.8892597]},"properties":{"colour":"black","historic":"wayside_cross","material":"metal"}},
{"type":"Feature","geometry":{"type":"Point","coordinates":[4.5357253,43.9460471]},"properties":{"tourism":"viewpoint"}},
{"type":"Feature","geometry":{"type":"Point","coordinates":[4.4753739,43.9837661]},"properties":{"access":"no","archaeological_site":"aqueduct","historic":"archaeological_site","historic:civilization":"ancient_roman","name":"Tunnel aqueduc romain de Nîmes (fermée)"}},
{"type":"Feature","geometry":{"type":"Point","coordinates":[4.5354753,43.9494336]},"properties":{"natural":"tree"}},
{"type":"Feature","geometry":{"type":"Point","coordinates":[4.5356988,43.949423]},"properties":{"natural":"tree"}},
{"type":"Feature","geometry":{"type":"Point","coordinates":[4.5356466,43.9493267]},"properties":{"natural":"tree"}},
{"type":"Feature","geometry":{"type":"Point","coordinates":[4.5355732,43.9497084]},"properties":{"natural":"tree"}},
{"type":"Feature","geometry":{"type":"Point","coordinates":[4.535596,43.9498059]},"properties":{"natural":"tree"}},
{"type":"Feature","geometry":{"type":"Point","coordinates":[4.5351814,43.951639]},"properties":{"leaf_type":"broadleaved","natural":"tree"}},
{"type":"Feature","geometry":{"type":"Point","coordinates":[4.5352211,43.9515804]},"properties":{"leaf_type":"broadleaved","natural":"tree"}},
{"type":"Feature","geometry":{"type":"Point","coordinates":[4.5352526,43.9515518]},"properties":{"leaf_type":"broadleaved","natural":"tree"}},
{"type":"Feature","geometry":{"type":"Point","coordinates":[4.5353213,43.9515854]},"properties":{"leaf_type":"broadleaved","natural":"tree"}},
{"type":"Feature","geometry":{"type":"Point","coordinates":[4.5352747,43.9516397]},"properties":{"leaf_type":"broadleaved","natural":"tree"}},
{"type":"Feature","geometry":{"type":"Point","coordinates":[4.535231,43.9516962]},"properties":{"leaf_type":"broadleaved","natural":"tree"}},
{"type":"Feature","geometry":{"type":"Point","coordinates":[4.5350613,43.9519041]},"properties":{"leaf_type":"broadleaved","natural":"tree"}},
{"type":"Feature","geometry":{"type":"Point","coordinates":[4.5349848,43.9518756]},"properties":{"leaf_type":"broadleaved","natural":"tree"}},
{"type":"Feature","geometry":{"type":"Point","coordinates":[4.5349551,43.9519241]},"properties":{"height":"3","leaf_cycle":"deciduous","leaf_type":"broadleaved","natural":"tree"}},
{"type":"Feature","geometry":{"type":"Point","coordinates":[4.5350226,43.951952]},"properties":{"leaf_type":"broadleaved","natural":"tree"}},
{"type":"Feature","geometry":{"type":"Point","coordinates":[4.5349709,43.9520113]},"properties":{"leaf_type":"broadleaved","natural":"tree"}},
{"type":"Feature","geometry":{"type":"Point","coordinates":[4.5349015,43.9519842]},"properties":{"genus":"morus","height":"3","leaf_cycle":"deciduous","leaf_type":"broadleaved","natural":"tree"}},
{"type":"Feature","geometry":{"type":"Point","coordinates":[4.5343948,43.9532018]},"properties":{"natural":"tree"}},
{"type":"Feature","geometry":{"type":"Point","coordinates":[4.534506,43.953169]},"properties":{"natural":"tree"}},
{"type":"Feature","geometry":{"type":"Point","coordinates":[4.5343909,43.9531575]},"properties":{"natural":"tree"}},
{"type":"Feature","geometry":{"type":"Point","coordinates":[4.5346082,43.9531675]},"properties":{"natural":"tree"}},
{"type":"Feature","geometry":{"type":"Point","coordinates":[4.5346241,43.9531325]},"properties":{"natural":"tree"}},
{"type":"Feature","geometry":{"type":"Point","coordinates":[4.534768,43.9531675]},"properties":{"natural":"tree"}},
{"type":"Feature","geometry":{"type":"Point","coordinates":[4.5347105,43.9532275]},"properties":{"natural":"tree"}},
{"type":"Feature","geometry":{"type":"Point","coordinates":[4.5347244,43.953324]},"properties":{"natural":"tree"}},
{"type":"Feature","geometry":{"type":"Point","coordinates":[4.5345129,43.9533404]},"properties":{"natural":"tree"}},
{"type":"Feature","geometry":{"type":"Point","coordinates":[4.5344881,43.9532819]},"properties":{"natural":"tree"}},
{"type":"Feature","geometry":{"type":"Point","coordinates":[4.5344842,43.9532254]},"properties":{"natural":"tree"}},
{"type":"Feature","geometry":{"type":"Point","coordinates":[4.5345318,43.9534676]},"properties":{"natural":"tree"}},
{"type":"Feature","geometry":{"type":"Point","coordinates":[4.5344802,43.9535148]},"properties":{"natural":"tree"}},
{"type":"Feature","geometry":{"type":"Point","coordinates":[4.5345338,43.9535098]},"properties":{"natural":"tree"}},
{"type":"Feature","geometry":{"type":"Point","coordinates":[4.5345814,43.953572]},"properties":{"natural":"tree"}},
{"type":"Feature","geometry":{"type":"Point","coordinates":[4.5348028,43.9535541]},"properties":{"natural":"tree"}},
{"type":"Feature","geometry":{"type":"Point","coordinates":[4.5347601,43.9535098]},"properties":{"natural":"tree"}},
{"type":"Feature","geometry":{"type":"Point","coordinates":[4.5347502,43.9534548]},"properties":{"natural":"tree"}},
{"type":"Feature","geometry":{"type":"Point","coordinates":[4.5349923,43.9535662]},"properties":{"natural":"tree"}},
{"type":"Feature","geometry":{"type":"Point","coordinates":[4.5349636,43.9534755]},"properties":{"natural":"tree"}},
{"type":"Feature","geometry":{"type":"Point","coordinates":[4.535168,43.9534062]},"properties":{"natural":"tree"}},
{"type":"Feature","geometry":{"type":"Point","coordinates":[4.5351899,43.9534648]},"properties":{"natural":"tree"}},
{"type":"Feature","geometry":{"type":"Point","coordinates":[4.5351918,43.9535176]},"properties":{"natural":"tree"}},
{"type":"Feature","geometry":{"type":"Point","coordinates":[4.5352127,43.9535855]},"properties":{"natural":"tree"}},
{"type":"Feature","geometry":{"type":"Point","coordinates":[4.5352246,43.9536263]},"properties":{"natural":"tree"}},
{"type":"Feature","geometry":{"type":"Point","coordinates":[4.5348306,43.9537763]},"properties":{"natural":"tree"}},
{"type":"Feature","geometry":{"type":"Point","coordinates":[4.5345884,43.9537356]},"properties":{"natural":"tree"}},
{"type":"Feature","geometry":{"type":"Point","coordinates":[4.5348038,43.953702]},"properties":{"natural":"tree"}},
{"type":"Feature","geometry":{"type":"Point","coordinates":[4.5346023,43.9538499]},"properties":{"natural":"tree"}},
{"type":"Feature","geometry":{"type":"Point","coordinates":[4.5346509,43.9528446]},"properties":{"leaf_type":"broadleaved","natural":"tree"}},
{"type":"Feature","geometry":{"type":"Point","coordinates":[4.534766,43.9528889]},"properties":{"leaf_type":"broadleaved","natural":"tree"}},
{"type":"Feature","geometry":{"type":"Point","coordinates":[4.5346311,43.9528946]},"properties":{"leaf_type":"broadleaved","natural":"tree"}},
{"type":"Feature","geometry":{"type":"Point","coordinates":[4.5342261,43.952906]},"properties":{"natural":"tree"}},
{"type":"Feature","geometry":{"type":"Point","coordinates":[4.5341824,43.9530539]},"properties":{"natural":"tree"}},
{"type":"Feature","geometry":{"type":"Point","coordinates":[4.5342499,43.9528367]},"properties":{"natural":"tree"}},
{"type":"Feature","geometry":{"type":"Point","coordinates":[4.5352448,43.9514042]},"properties":{"leaf_type":"broadleaved","natural":"tree"}},
{"type":"Feature","geometry":{"type":"Point","coordinates":[4.5351214,43.9513565]},"properties":{"leaf_type":"broadleaved","natural":"tree"}},
{"type":"Feature","geometry":{"type":"Point","coordinates":[4.5316201,43.9516469]},"properties":{"name":"Mémoires de Garrigue","tourism":"attraction","wheelchair":"limited"}},
{"type":"Feature","geometry":{"type":"Point","coordinates":[4.535011,43.9488159]},"properties":{"circumference":"5","denotation":"natural_monument","genus":"Olea","height":"3","leaf_cycle":"evergreen","leaf_type":"broadleaved","natural":"tree"}},
{"type":"Feature","geometry":{"type":"Point","coordinates":[4.5350106,43.9484103]},"properties":{"circumference":"5","denotation":"natural_monument","genus":"Olea","height":"3","leaf_cycle":"evergreen","leaf_type":"mixed","natural":"tree"}},
{"type":"Feature","geometry":{"type":"Point","coordinates":[4.5351614,43.9486486]},"properties":{"name":"Oliviers Millénaires","opening_hours":"24/7","start_date":"905","tourism":"attraction","wheelchair":"yes"}},
{"type":"Feature","geometry":{"type":"Point","coordinates":[4.5310068,43.9536802]},"properties":{"name":"La Charbonniere","tourism":"attraction"}},
{"type":"Feature","geometry":{"type":"Point","coordinates":[4.5379066,43.9482007]},"properties":{"leaf_type":"broadleaved","natural":"tree"}},
{"type":"Feature","geometry":{"type":"Point","coordinates":[4.5380906,43.9483453]},"properties":{"genus":"Celtis","natural":"tree"}},
{"type":"Feature","geometry":{"type":"Point","coordinates":[4.5385404,43.9485577]},"properties":{"natural":"tree","species":"Fraxinus angustifolia"}},
{"type":"Feature","geometry":{"type":"Point","coordinates":[4.5387266,43.9485758]},"properties":{"genus":"Platanus","natural":"tree"}},
{"type":"Feature","geometry":{"type":"Point","coordinates":[4.538804,43.9486149]},"properties":{"genus":"Platanus","natural":"tree"}},
{"type":"Feature","geometry":{"type":"Point","coordinates":[4.5388919,43.9486571]},"properties":{"genus":"Platanus","natural":"tree"}},
{"type":"Feature","geometry":{"type":"Point","coordinates":[4.5389735,43.9487083]},"properties":{"genus":"Platanus","natural":"tree"}},
{"type":"Feature","geometry":{"type":"Point","coordinates":[4.5390655,43.948758]},"properties":{"genus":"Platanus","natural":"tree"}},
{"type":"Feature","geometry":{"type":"Point","coordinates":[4.5389379,43.9488092]},"properties":{"leaf_type":"broadleaved","natural":"tree"}},
{"type":"Feature","geometry":{"type":"Point","coordinates":[4.5388312,43.9487761]},"properties":{"leaf_type":"broadleaved","natural":"tree"}},
{"type":"Feature","geometry":{"type":"Point","coordinates":[4.5387245,43.9486902]},"properties":{"leaf_type":"broadleaved","natural":"tree"}},
{"type":"Feature","geometry":{"type":"Point","coordinates":[4.5385279,43.9486631]},"properties":{"genus":"Platanus","natural":"tree"}},
{"type":"Feature","geometry":{"type":"Point","coordinates":[4.5385969,43.948755]},"properties":{"genus":"Platanus","natural":"tree"}},
{"type":"Feature","geometry":{"type":"Point","coordinates":[4.5386555,43.9488032]},"properties":{"genus":"Platanus","natural":"tree"}},
{"type":"Feature","geometry":{"type":"Point","coordinates":[4.5387413,43.9488604]},"properties":{"genus":"Platanus","natural":"tree"}},
{"type":"Feature","geometry":{"type":"Point","coordinates":[4.5388479,43.9488815]},"properties":{"leaf_type":"broadleaved","natural":"tree"}},
{"type":"Feature","geometry":{"type":"Point","coordinates":[4.5381011,43.9484553]},"properties":{"genus":"Celtis","natural":"tree"}},
{"type":"Feature","geometry":{"type":"Point","coordinates":[4.5382287,43.948639]},"properties":{"genus":"Platanus","natural":"tree"}},
{"type":"Feature","geometry":{"type":"Point","coordinates":[4.537121,43.9474624]},"properties":{"direction":"290","tourism":"viewpoint"}},
{"type":"Feature","geometry":{"type":"Point","coordinates":[4.5339555,43.9480978]},"properties":{"tourism":"viewpoint"}},
{"type":"Feature","geometry":{"type":"Point","coordinates":[4.5365512,43.9464665]},"properties":{"direction":"5","tourism":"viewpoint"}},
{"type":"Feature","geometry":{"type":"Point","coordinates":[4.5413635,43.9484323]},"properties":{"information":"office","name":"Accueil/Boutique","tourism":"information","wheelchair":"yes"}},
{"type":"Feature","geometry":{"type":"Point","coordinates":[4.5383812,43.9479156]},"properties":{"genus":"Platanus","natural":"tree"}},
{"type":"Feature","geometry":{"type":"Point","coordinates":[4.5382301,43.9478905]},"properties":{"genus":"Platanus","natural":"tree"}},
{"type":"Feature","geometry":{"type":"Point","coordinates":[4.5380749,43.9479471]},"properties":{"genus":"Platanus","natural":"tree"}},
{"type":"Feature","geometry":{"type":"Point","coordinates":[4.5382206,43.9481105]},"properties":{"genus":"Platanus","natural":"tree"}},
{"type":"Feature","geometry":{"type":"Point","coordinates":[4.5381303,43.948047]},"properties":{"genus":"Platanus","natural":"tree"}},
{"type":"Feature","geometry":{"type":"Point","coordinates":[4.5376697,43.9481848]},"properties":{"genus":"Platanus","natural":"tree"}},
{"type":"Feature","geometry":{"type":"Point","coordinates":[4.5375475,43.948039]},"properties":{"genus":"Platanus","natural":"tree"}},
{"type":"Feature","geometry":{"type":"Point","coordinates":[4.5370947,43.9472427]},"properties":{"leaf_type":"broadleaved","natural":"tree"}},
{"type":"Feature","geometry":{"type":"Point","coordinates":[4.5368556,43.9470834]},"properties":{"leaf_type":"broadleaved","natural":"tree"}},
{"type":"Feature","geometry":{"type":"Point","coordinates":[4.5360958,43.9464653]},"properties":{"direction":"350","tourism":"viewpoint"}},
{"type":"Feature","geometry":{"type":"Point","coordinates":[4.5364737999999999,43.9480859]},"properties":{"leaf_type":"broadleaved","natural":"tree"}},
{"type":"Feature","geometry":{"type":"Point","coordinates":[4.5400247,43.9492483]},"properties":{"leaf_type":"broadleaved","natural":"tree"}},
{"type":"Feature","geometry":{"type":"Point","coordinates":[4.5401095,43.9490226]},"properties":{"leaf_type":"broadleaved","natural":"tree"}},
{"type":"Feature","geometry":{"type":"Point","coordinates":[4.5402673,43.9489061]},"properties":{"leaf_type":"broadleaved","natural":"tree"}},
{"type":"Feature","geometry":{"type":"Point","coordinates":[4.5405592,43.9489672]},"properties":{"leaf_type":"broadleaved","natural":"tree"}},
{"type":"Feature","geometry":{"type":"Point","coordinates":[4.5406716,43.949051]},"properties":{"leaf_type":"broadleaved","natural":"tree"}},
{"type":"Feature","geometry":{"type":"Point","coordinates":[4.5406045,43.9491717]},"properties":{"leaf_type":"broadleaved","natural":"tree"}},
{"type":"Feature","geometry":{"type":"Point","coordinates":[4.5407386,43.9491376]},"properties":{"leaf_type":"broadleaved","natural":"tree"}},
{"type":"Feature","geometry":{"type":"Point","coordinates":[4.5409497,43.9491262]},"properties":{"leaf_type":"broadleaved","natural":"tree"}},
{"type":"Feature","geometry":{"type":"Point","coordinates":[4.5411666,43.949183]},"properties":{"leaf_type":"broadleaved","natural":"tree"}},
{"type":"Feature","geometry":{"type":"Point","coordinates":[4.541281,43.9491276]},"properties":{"leaf_type":"broadleaved","natural":"tree"}},
{"type":"Feature","geometry":{"type":"Point","coordinates":[4.5413027,43.9490467]},"properties":{"leaf_type":"broadleaved","natural":"tree"}},
{"type":"Feature","geometry":{"type":"Point","coordinates":[4.5410167,43.9489572]},"properties":{"leaf_type":"broadleaved","natural":"tree"}},
{"type":"Feature","geometry":{"type":"Point","coordinates":[4.5412199,43.9489572]},"properties":{"leaf_type":"broadleaved","natural":"tree"}},
{"type":"Feature","geometry":{"type":"Point","coordinates":[4.5411913,43.9492264]},"properties":{"leaf_type":"broadleaved","natural":"tree"}},
{"type":"Feature","geometry":{"type":"Point","coordinates":[4.5414309,43.9492427]},"properties":{"leaf_type":"broadleaved","natural":"tree"}},
{"type":"Feature","geometry":{"type":"Point","coordinates":[4.5414289,43.94945]},"properties":{"leaf_type":"broadleaved","natural":"tree"}},
{"type":"Feature","geometry":{"type":"Point","coordinates":[4.5407682,43.9496857]},"properties":{"leaf_type":"broadleaved","natural":"tree"}},
{"type":"Feature","geometry":{"type":"Point","coordinates":[4.5411942,43.9496885]},"properties":{"leaf_type":"broadleaved","natural":"tree"}},
{"type":"Feature","geometry":{"type":"Point","coordinates":[4.5356371,43.9544698]},"properties":{"natural":"tree"}},
{"type":"Feature","geometry":{"type":"Point","coordinates":[4.5356169,43.9543671]},"properties":{"natural":"tree"}},
{"type":"Feature","geometry":{"type":"Point","coordinates":[4.5358446,43.9544345]},"properties":{"natural":"tree"}},
{"type":"Feature","geometry":{"type":"Point","coordinates":[4.5358287,43.9543432]},"properties":{"natural":"tree"}},
{"type":"Feature","geometry":{"type":"Point","coordinates":[4.5360751,43.9544335]},"properties":{"natural":"tree"}},
{"type":"Feature","geometry":{"type":"Point","coordinates":[4.5360665,43.9543764]},"properties":{"natural":"tree"}},
{"type":"Feature","geometry":{"type":"Point","coordinates":[4.5359916,43.9541648]},"properties":{"natural":"tree"}},
{"type":"Feature","geometry":{"type":"Point","coordinates":[4.5360679,43.9541472]},"properties":{"natural":"tree"}},
{"type":"Feature","geometry":{"type":"Point","coordinates":[4.5360017,43.9540673]},"properties":{"natural":"tree"}},
{"type":"Feature","geometry":{"type":"Point","coordinates":[4.535993,43.9540082]},"properties":{"natural":"tree"}},
{"type":"Feature","geometry":{"type":"Point","coordinates":[4.5355852,43.9542333]},"properties":{"natural":"tree"}},
{"type":"Feature","geometry":{"type":"Point","coordinates":[4.5358187,43.9541959]},"properties":{"natural":"tree"}},
{"type":"Feature","geometry":{"type":"Point","coordinates":[4.5353575,43.9541607]},"properties":{"natural":"tree"}},
{"type":"Feature","geometry":{"type":"Point","coordinates":[4.5351313,43.9541939]},"properties":{"natural":"tree"}},
{"type":"Feature","geometry":{"type":"Point","coordinates":[4.5351169,43.9541171]},"properties":{"natural":"tree"}},
{"type":"Feature","geometry":{"type":"Point","coordinates":[4.5354872,43.9528847]},"properties":{"leaf_type":"broadleaved","natural":"tree"}},
{"type":"Feature","geometry":{"type":"Point","coordinates":[4.5353489,43.9529563]},"properties":{"leaf_type":"broadleaved","natural":"tree"}},
{"type":"Feature","geometry":{"type":"Point","coordinates":[4.5354123,43.9530009]},"properties":{"leaf_type":"broadleaved","natural":"tree"}},
{"type":"Feature","geometry":{"type":"Point","coordinates":[4.4729029,43.9504846]},"properties":{"name":"Silence","natural":"cliff","sport":"climbing"}},
{"type":"Feature","geometry":{"type":"Point","coordinates":[4.4724677,43.950391]},"properties":{"name":"Brazza","natural":"cliff","sport":"climbing"}},
{"type":"Feature","geometry":{"type":"Point","coordinates":[4.4591931,43.9436799]},"properties":{"name":"Plagette","natural":"cliff","sport":"climbing"}},
{"type":"Feature","geometry":{"type":"Point","coordinates":[4.4742506,43.9509039]},"properties":{"name":"Grande Falaise","natural":"cliff","sport":"climbing"}},
{"type":"Feature","geometry":{"type":"Point","coordinates":[4.534086,43.9531998]},"properties":{"natural":"tree"}},
{"type":"Feature","geometry":{"type":"Point","coordinates":[4.5349763,43.9521517]},"properties":{"information":"office","name":"Billeterie / Information","tourism":"information","wheelchair":"yes"}},
{"type":"Feature","geometry":{"type":"Point","coordinates":[4.5349121,43.9522338]},"properties":{"information":"office","name":"Accueil Groupes","tourism":"information","wheelchair":"yes"}},
{"type":"Feature","geometry":{"type":"Point","coordinates":[4.5463853,43.9777353]},"properties":{"archaeological_site":"ruins","historic":"archaeological_site","historic:civilization":"ancient_roman"}},
{"type":"Feature","geometry":{"type":"Point","coordinates":[4.4381768,43.8681387]},"properties":{"covered":"no","leisure":"picnic_table"}},
{"type":"Feature","geometry":{"type":"Point","coordinates":[4.4382224,43.8681735]},"properties":{"covered":"no","leisure":"picnic_table"}},
{"type":"Feature","geometry":{"type":"Point","coordinates":[4.4383854,43.8682238]},"properties":{"covered":"no","leisure":"picnic_table"}},
{"type":"Feature","geometry":{"type":"Point","coordinates":[4.4383941,43.8681237]},"properties":{"covered":"no","leisure":"picnic_table"}},
{"type":"Feature","geometry":{"type":"Point","coordinates":[4.438327,43.8680763]},"properties":{"covered":"no","leisure":"picnic_table"}},
{"type":"Feature","geometry":{"type":"Point","coordinates":[4.4381943,43.8680173]},"properties":{"covered":"no","leisure":"picnic_table"}},
{"type":"Feature","geometry":{"type":"Point","coordinates":[4.5089434,43.914757]},"properties":{"historic":"wayside_cross"}},
{"type":"Feature","geometry":{"type":"Point","coordinates":[4.468634,43.9607639]},"properties":{"natural":"tree"}},
{"type":"Feature","geometry":{"type":"Point","coordinates":[4.4676229,43.9602905]},"properties":{"natural":"tree"}},
{"type":"Feature","geometry":{"type":"Point","coordinates":[4.4676483,43.9602532]},"properties":{"natural":"tree"}},
{"type":"Feature","geometry":{"type":"Point","coordinates":[4.4672366,43.9602955]},"properties":{"natural":"tree"}},
{"type":"Feature","geometry":{"type":"Point","coordinates":[4.4672926,43.9602785]},"properties":{"natural":"tree"}},
{"type":"Feature","geometry":{"type":"Point","coordinates":[4.4672278,43.9602022]},"properties":{"natural":"tree"}},
{"type":"Feature","geometry":{"type":"Point","coordinates":[4.4672252,43.9601505]},"properties":{"natural":"tree"}},
{"type":"Feature","geometry":{"type":"Point","coordinates":[4.4672427,43.9601088]},"properties":{"natural":"tree"}},
{"type":"Feature","geometry":{"type":"Point","coordinates":[4.4672182,43.9605912]},"properties":{"natural":"tree"}},
{"type":"Feature","geometry":{"type":"Point","coordinates":[4.467184,43.9605017]},"properties":{"natural":"tree"}},
{"type":"Feature","geometry":{"type":"Point","coordinates":[4.5352446,43.9516175]},"properties":{"leaf_type":"broadleaved","natural":"tree","survey:date":"2020-10-18"}},
{"type":"Feature","geometry":{"type":"Point","coordinates":[4.5455571,43.9044083]},"properties":{"access":"yes","historic":"ruins","historic:civilization":"roman","ruins":"ancien_aqueduc_romain"}},
{"type":"Feature","geometry":{"type":"Point","coordinates":[4.5427478,43.9226817]},"properties":{"noexit":"yes"}},
{"type":"Feature","geometry":{"type":"Point","coordinates":[4.5454653,43.9017887]},"properties":{"access":"yes","archaeological_site":"aqueduct","historic":"archaeological_site","historic:civilization":"ancient_roman"}},
{"type":"Feature","geometry":{"type":"Point","coordinates":[4.5450219,43.9018369]},"properties":{"access":"yes","archaeological_site":"aqueduct","historic":"archaeological_site","historic:civilization":"ancient_roman"}},
{"type":"Feature","geometry":{"type":"Point","coordinates":[4.44713,43.9374]},"properties":{"natural":"cave_entrance"}},
{"type":"Feature","geometry":{"type":"Point","coordinates":[4.5359074,43.9469901]},"properties":{"historic":"memorial","inscription":"Aquæductum Struxerant Romani - Pontem addidit Occitania - Anno MDCCXLV","memorial":"plaque"}},
{"type":"Feature","geometry":{"type":"Point","coordinates":[4.5376566,43.9456461]},"properties":{"ele":"60","hiking":"yes","information":"guidepost","name":"Vestiges de l'aqueduc","tourism":"information"}},
{"type":"Feature","geometry":{"type":"Point","coordinates":[4.4802428,43.952926]},"properties":{"covered":"no","leisure":"picnic_table"}},
{"type":"Feature","geometry":{"type":"Point","coordinates":[4.4800692,43.9528519]},"properties":{"covered":"no","leisure":"picnic_table"}},
{"type":"Feature","geometry":{"type":"Point","coordinates":[4.4795068,43.9539634]},"properties":{"leisure":"pitch","sport":"table_tennis"}},
{"type":"Feature","geometry":{"type":"Point","coordinates":[4.5348887,43.9517545]},"properties":{"fee":"yes","internet_access":"wlan","internet_access:fee":"no","layer":"-2","name":"Musée du Pont du Gard","tourism":"museum","website":"https://www.pontdugard.fr/fr","wheelchair":"yes"}},
{"type":"Feature","geometry":{"type":"Point","coordinates":[4.535025,43.9522369]},"properties":{"fee":"yes","layer":"-1","museum":"history","name":"Ludo","tourism":"museum"}},
{"type":"Feature","geometry":{"type":"Point","coordinates":[4.5457514,43.9544654]},"properties":{"leaf_type":"needleleaved","natural":"tree"}},
{"type":"Feature","geometry":{"type":"Point","coordinates":[4.5458935,43.9544936]},"properties":{"leaf_type":"needleleaved","natural":"tree"}},
{"type":"Feature","geometry":{"type":"Point","coordinates":[4.5459129,43.9546073]},"properties":{"leaf_type":"needleleaved","natural":"tree"}},
{"type":"Feature","geometry":{"type":"Point","coordinates":[4.5458124,43.9546583]},"properties":{"leaf_type":"needleleaved","natural":"tree"}},
{"type":"Feature","geometry":{"type":"Point","coordinates":[4.5456719,43.9546095]},"properties":{"leaf_type":"needleleaved","natural":"tree"}},
{"type":"Feature","geometry":{"type":"Point","coordinates":[4.5456636,43.9545236]},"properties":{"leaf_type":"needleleaved","natural":"tree"}},
{"type":"Feature","geometry":{"type":"Point","coordinates":[4.5219844,43.9653386]},"properties":{"historic":"wayside_cross","source":"IGN - 2021-12"}},
{"type":"Feature","geometry":{"type":"Point","coordinates":[4.5263326,43.9679715]},"properties":{"denotation":"urban","genus":"platanus","leaf_cycle":"deciduous","leaf_type":"broadleaved","natural":"tree","species":"Platanus x hispanica","species:fr":"platane commun","species:wikidata":"Q161374"}},
{"type":"Feature","geometry":{"type":"Point","coordinates":[4.5264186,43.9680486]},"properties":{"denotation":"urban","genus":"platanus","leaf_cycle":"deciduous","leaf_type":"broadleaved","natural":"tree","species":"Platanus x hispanica","species:fr":"platane commun","species:wikidata":"Q161374"}},
{"type":"Feature","geometry":{"type":"Point","coordinates":[4.5264741,43.9681962]},"properties":{"denotation":"urban","genus":"platanus","leaf_cycle":"deciduous","leaf_type":"broadleaved","natural":"tree","species":"Platanus x hispanica","species:fr":"platane commun","species:wikidata":"Q161374"}},
{"type":"Feature","geometry":{"type":"Point","coordinates":[4.5261454,43.9681591]},"properties":{"denotation":"urban","genus":"platanus","leaf_cycle":"deciduous","leaf_type":"broadleaved","natural":"tree","species":"Platanus x hispanica","species:fr":"platane commun","species:wikidata":"Q161374"}},
{"type":"Feature","geometry":{"type":"Point","coordinates":[4.5226028,43.9680364]},"properties":{"historic":"memorial","material":"stone","memorial":"war_memorial"}},
{"type":"Feature","geometry":{"type":"Point","coordinates":[4.4913094,43.8797528]},"properties":{"name":"Palmier","natural":"tree","source":"BD Ortho IGN"}},
{"type":"Feature","geometry":{"type":"Point","coordinates":[4.5160903,43.9829792]},"properties":{"amenity":"shelter","building:material":"dry_stone","historic":"shelter","loc_name":"capitelle","shelter_type":"basic_hut"}},
{"type":"Feature","geometry":{"type":"Point","coordinates":[4.5105058,43.9149964]},"properties":{"historic":"wayside_cross"}},
{"type":"Feature","geometry":{"type":"Point","coordinates":[4.4333551,43.9379324]},"properties":{"access":"permissive","direction":"180","name":"Baume Saint-Vérédème","natural":"cave_entrance","opening_hours":"Mar 15-May 01,Aug 15-Nov 15 24/7"}},
{"type":"Feature","geometry":{"type":"Point","coordinates":[4.4325176,43.9386262]},"properties":{"access":"permissive","name":"Baume Saint-Vérédème","natural":"cave_entrance","opening_hours":"Mar 15-May 01,Aug 15-Nov 15 24/7"}},
{"type":"Feature","geometry":{"type":"Point","coordinates":[4.4324974,43.9386172]},"properties":{"direction":"230","tourism":"viewpoint"}},
{"type":"Feature","geometry":{"type":"Point","coordinates":[4.4333494,43.9379283]},"properties":{"board_type":"nature","direction":"90","information":"board","name":"La grotte Saint-Vérédème","tourism":"information"}},
{"type":"Feature","geometry":{"type":"Point","coordinates":[4.432297,43.9388285]},"properties":{"board_type":"nature","direction":"50","information":"board","name":"La grotte Saint-Vérédème","tourism":"information"}},
{"type":"Feature","geometry":{"type":"Point","coordinates":[4.43231,43.938965]},"properties":{"board_type":"history","direction":"270","information":"board","name":"Un lieu chargé d'histoire","tourism":"information"}},
{"type":"Feature","geometry":{"type":"Point","coordinates":[4.53102,43.9010461]},"properties":{"leisure":"playground"}},
{"type":"Feature","geometry":{"type":"Point","coordinates":[4.5227672,43.9670081]},"properties":{"historic":"wayside_cross"}},
{"type":"Feature","geometry":{"type":"Point","coordinates":[4.5234191,43.9667869]},"properties":{"historic":"wayside_cross"}},
{"type":"Feature","geometry":{"type":"Point","coordinates":[4.4844186,43.9567496]},"properties":{"leisure":"playground"}},
{"type":"Feature","geometry":{"type":"Point","coordinates":[4.4843006,43.9584104]},"properties":{"tourism":"picnic_site"}},
{"type":"Feature","geometry":{"type":"Point","coordinates":[4.4840807,43.9568969]},"properties":{"tourism":"picnic_site"}},
{"type":"Feature","geometry":{"type":"Point","coordinates":[4.4761944,43.9542041]},"properties":{"name":"Le castellas","tourism":"hotel"}},
{"type":"Feature","geometry":{"type":"Point","coordinates":[4.4406715,43.9454961]},"properties":{"name":"Aven de la Clastre","natural":"cave_entrance"}},
{"type":"Feature","geometry":{"type":"Point","coordinates":[4.5461661,43.9392173]},"properties":{"access":"yes","ele":"88","name":"Grotte Feraud","natural":"cave_entrance"}},
{"type":"Feature","geometry":{"type":"Point","coordinates":[4.4777543,43.8785772]},"properties":{"access":"yes","leisure":"playground"}},
{"type":"Feature","geometry":{"type":"Point","coordinates":[4.4789181,43.9513341]},"properties":{"whitewater":"egress"}},
{"type":"Feature","geometry":{"type":"Point","coordinates":[4.4790804,43.9513831]},"properties":{"whitewater":"put_in"}},
{"type":"Feature","geometry":{"type":"Point","coordinates":[4.5173167,43.9107872]},"properties":{"addr:city":"Lédenon","addr:postcode":"30210","addr:street":"Chemin de la Croix des Soldats","description":"Trois suites parentales dans un cadre intimiste","internet_access":"yes","name":"Chez Marc et Cathy","nudism":"yes","operator":"Marc et Cathy","phone":"+33 6 41 34 33 08","rooms":"3","tourism":"guest_house","website":"https://www.chezmarcathy.fr/"}},
{"type":"Feature","geometry":{"type":"Point","coordinates":[4.5399978,43.9495056]},"properties":{"information":"guidepost","tourism":"information"}},
{"type":"Feature","geometry":{"type":"Point","coordinates":[4.5396409,43.9547627]},"properties":{"information":"guidepost","tourism":"information"}},
{"type":"Feature","geometry":{"type":"Point","coordinates":[4.5399053,43.9489492]},"properties":{"information":"guidepost","tourism":"information"}},
{"type":"Feature","geometry":{"type":"Point","coordinates":[4.5459657,43.9541041]},"properties":{"information":"board","tourism":"information"}},
{"type":"Feature","geometry":{"type":"Point","coordinates":[4.4664574,43.8754587]},"properties":{"leisure":"picnic_table"}},
{"type":"Feature","geometry":{"type":"Point","coordinates":[4.4635765,43.9431825]},"properties":{"natural":"spring"}},
{"type":"Feature","geometry":{"type":"Point","coordinates":[4.4687478,43.9423695]},"properties":{"name":"Baume traversante","natural":"cave_entrance"}},
{"type":"Feature","geometry":{"type":"LineString","coordinates":[[4.4779747,43.9027742],[4.4799649,43.9010716],[4.4799366,43.9003224],[4.4808516,43.900138],[4.4813962,43.9023755],[4.4839128,43.9019099],[4.483576,43.8990849],[4.4846201,43.898944],[4.4844745,43.8984837],[4.4843186,43.8974042],[4.4836155,43.8970854],[4.483537,43.895005],[4.4813694,43.8955469],[4.4811274,43.8983002],[4.4798613,43.8983252],[4.4762771,43.8998384],[4.4764861,43.9010601],[4.4763201,43.9020753],[4.4762204,43.9025607],[4.4779747,43.9027742]]},"properties":{"CLC:code":"321","CLC:id":"FR-220978","CLC:year":"2006","natural":"scrub","source":"Union européenne - SOeS, CORINE Land Cover, 2006."}},
{"type":"Feature","geometry":{"type":"LineString","coordinates":[[4.5316195,43.905454],[4.5307696,43.9042016],[4.5285911,43.9041096],[4.527616,43.9032033],[4.524857,43.903342],[4.5232555,43.9036238],[4.5231414,43.9030677],[4.5229775,43.9023804],[4.5225077,43.9006882],[4.521059,43.9004203],[4.5209282,43.9030039],[4.5209794,43.9043361],[4.5210306,43.9056672],[4.5227823,43.9062987],[4.5235722,43.9088638],[4.5247716,43.9100898],[4.5252321,43.9106212],[4.5255212,43.9103737],[4.5245583,43.9090435],[4.525254,43.9081063],[4.5258972,43.906609],[4.5266922,43.9053007],[4.5302657,43.9059744],[4.5308303,43.9057574],[4.5310717,43.9056646],[4.5316195,43.905454]]},"properties":{"CLC:code":"321","CLC:id":"FR-220729","CLC:year":"2006","natural":"grassland","source":"Union européenne - SOeS, CORINE Land Cover, 2006."}},
{"type":"Feature","geometry":{"type":"LineString","coordinates":[[4.4437966,43.9759167],[4.4415533,43.9737378],[4.4404751,43.972926],[4.4410783,43.9722331],[4.4392389,43.9706791],[4.4386962,43.9694343],[4.4369497,43.9702194],[4.4358668,43.9689914],[4.4345838,43.9686002],[4.4339293,43.9696122],[4.432528,43.9691389],[4.4312204,43.9697048],[4.4315458,43.9722807],[4.4343484,43.9732262],[4.4357806,43.9745307],[4.4360323,43.9751081],[4.4372601,43.9740019],[4.4377902,43.9727427],[4.438946,43.9728036],[4.4401965,43.9754448],[4.4409842,43.9763885],[4.4416541,43.9757921],[4.4427249,43.9766876],[4.4437966,43.9759167]]},"properties":{"CLC:code":"323","CLC:id":"FR-218543","CLC:year":"2006","natural":"scrub","source":"Union européenne - SOeS, CORINE Land Cover, 2006."}},
{"type":"Feature","geometry":{"type":"LineString","coordinates":[[4.4469983,43.9741332],[4.4487154,43.973407],[4.450625,43.9720367],[4.450417,43.9695428],[4.4532852,43.9691543],[4.4532136,43.9703215],[4.4538147,43.9709753],[4.4573682,43.970407],[4.457446,43.9694061],[4.4560601,43.9693499],[4.4562413,43.9680131],[4.4552538,43.9662842],[4.4551886,43.9645363],[4.4545658,43.9632995],[4.4537782,43.9607326],[4.4545512,43.9598014],[4.4557432,43.9608607],[4.4568023,43.9614235],[4.4574998,43.9615763],[4.458611,43.9604721],[4.4596826,43.9613674],[4.4606755,43.9601822],[4.4606195,43.9586837],[4.4606855,43.9573503],[4.459726,43.9563696],[4.458244,43.9568145],[4.4567029,43.9556787],[4.4555537,43.9557843],[4.4527017,43.9565896],[4.4526269,43.9576736],[4.4534643,43.9584904],[4.4534984,43.9594059],[4.4525956,43.9599226],[4.4513312,43.9600303],[4.4503819,43.9593001],[4.4496767,43.9595357],[4.4495192,43.9598137],[4.44882,43.9597674],[4.4488897,43.9594954],[4.4485885,43.9590047],[4.4492424,43.9586236],[4.4473126,43.9571398],[4.4463317,43.9564795],[4.4469148,43.9558751],[4.4467141,43.9557514],[4.4456017,43.955465],[4.4449159,43.9553299],[4.4442658,43.9548389],[4.4420567,43.9555471],[4.4398702,43.9556726],[4.4384066,43.956617],[4.4405049,43.957242],[4.4405265,43.957825],[4.4412363,43.9583104],[4.4413946,43.9594742],[4.4420951,43.9597103],[4.4425809,43.9603675],[4.442767,43.9622783],[4.4429099,43.9630254],[4.4452364,43.9635638],[4.4449529,43.9621528],[4.4475004,43.9624373],[4.4497482,43.9639754],[4.4498102,43.9656402],[4.4493838,43.9665647],[4.4477856,43.9670117],[4.4463152,43.9664934],[4.446325,43.9667574],[4.4465654,43.9675853],[4.4464916,43.9684194],[4.4465169,43.9691001],[4.4467601,43.9700037],[4.4464824,43.9709931],[4.4457858,43.9719906],[4.4463573,43.9732664],[4.4469983,43.9741332]]},"properties":{"CLC:code":"323","CLC:id":"FR-218620","CLC:year":"2006","natural":"scrub","source":"Union européenne - SOeS, CORINE Land Cover, 2006."}},
{"type":"Feature","geometry":{"type":"LineString","coordinates":[[4.4657585,43.9611577],[4.4657141,43.9606392],[4.4660133,43.9593844],[4.4641292,43.9583386],[4.4631672,43.9572737],[4.4618905,43.9570491],[4.4620431,43.9611268],[4.4621987,43.9622064],[4.4644872,43.9617457],[4.4639515,43.9628388],[4.4632757,43.9632679],[4.4606388,43.9636533],[4.4584614,43.9640285],[4.4587359,43.9651889],[4.4580602,43.9656192],[4.4583494,43.9671952],[4.4601187,43.9682433],[4.4608381,43.9689791],[4.4633571,43.968514],[4.4644473,43.9668266],[4.4645901,43.9644923],[4.4652471,43.9635633],[4.4659197,43.9630498],[4.4657585,43.9611577]]},"properties":{"CLC:code":"321","CLC:id":"FR-218812","CLC:year":"2006","natural":"grassland","source":"Union européenne - SOeS, CORINE Land Cover, 2006."}},
{"type":"Feature","geometry":{"type":"LineString","coordinates":[[4.4915155,43.9587835],[4.4900036,43.9567944],[4.4928551,43.9559881],[4.4928975,43.9540717],[4.4915088,43.9539328],[4.4893296,43.9542255],[4.4888677,43.9541996],[4.4886241,43.9544376],[4.4873432,43.955352],[4.4858282,43.9556884],[4.4859775,43.9562679],[4.4863711,43.9564506],[4.4862325,43.956498],[4.4877777,43.9573173],[4.4888848,43.95846],[4.4891525,43.9595716],[4.488593,43.9602548],[4.4881246,43.9603918],[4.4869287,43.9609314],[4.4860475,43.9620314],[4.4861854,43.962611],[4.4846033,43.9634753],[4.4853104,43.9638784],[4.484455,43.9656434],[4.4857383,43.9660351],[4.4859007,43.9672809],[4.4868574,43.9674622],[4.4881324,43.9653212],[4.4892754,43.965049],[4.4906297,43.9642724],[4.4896671,43.9632089],[4.4885919,43.9622307],[4.4883334,43.961486],[4.4889963,43.9607242],[4.4906342,43.9613573],[4.4909613,43.9608517],[4.4924779,43.9613208],[4.4925677,43.9606535],[4.4916116,43.9597562],[4.4915155,43.9587835]]},"properties":{"CLC:code":"323","CLC:id":"FR-218839","CLC:year":"2006","natural":"scrub","source":"Union européenne - SOeS, CORINE Land Cover, 2006."}},
{"type":"Feature","geometry":{"type":"LineString","coordinates":[[4.4543516,43.9529253],[4.4540566,43.9512538],[4.4530109,43.9510235],[4.4517825,43.9506101],[4.4515573,43.9491362],[4.4523108,43.9477062],[4.4533284,43.9471862],[4.4551655,43.9469841],[4.4560122,43.9449688],[4.4562012,43.9447594],[4.4547202,43.9443285],[4.4531552,43.9443589],[4.4517258,43.9443867],[4.4493884,43.943516],[4.4468572,43.9436483],[4.4454812,43.9438413],[4.4456396,43.945004],[4.4419632,43.9453247],[4.441991,43.946074],[4.4434226,43.9473784],[4.4446489,43.9493534],[4.4478644,43.9490415],[4.4488205,43.9499392],[4.4480724,43.9515365],[4.4464629,43.9516509],[4.4444859,43.951189],[4.4426906,43.9510528],[4.4428427,43.9520493],[4.4434467,43.9527874],[4.4453024,43.9530842],[4.4461763,43.9530246],[4.4460493,43.9545694],[4.4476804,43.9550369],[4.4470626,43.9558573],[4.4474459,43.9558645],[4.4477533,43.9560259],[4.4486754,43.956365],[4.4500911,43.9566604],[4.4508335,43.9559682],[4.4509064,43.9549742],[4.4520586,43.9549518],[4.4521272,43.9537016],[4.4534131,43.9541757],[4.4538269,43.9529187],[4.4543516,43.9529253]]},"properties":{"CLC:code":"323","CLC:id":"FR-219260","CLC:year":"2006","natural":"scrub","source":"Union européenne - SOeS, CORINE Land Cover, 2006."}},
{"type":"Feature","geometry":{"type":"LineString","coordinates":[[4.4651118,43.9478725],[4.4656312,43.9482691],[4.4663286,43.9501461],[4.4675946,43.9517991],[4.4678199,43.9510498],[4.469161,43.9507949],[4.4690323,43.9505014],[4.46841,43.9504551],[4.4682598,43.9500689],[4.4690537,43.9498063],[4.4694185,43.9491265],[4.4700622,43.9486244],[4.4689357,43.9476743],[4.4687748,43.9466933],[4.4688392,43.9459595],[4.4680774,43.9456891],[4.4667685,43.9455578],[4.4652772,43.9453183],[4.4639361,43.9449475],[4.4625521,43.944654],[4.461447,43.9444995],[4.4608462,43.9445767],[4.4609642,43.9440128],[4.4608937,43.9435394],[4.4598055,43.9435261],[4.4584429,43.9438815],[4.4573057,43.9440128],[4.4555998,43.9436575],[4.4535844,43.9430429],[4.4519949,43.9424024],[4.4486576,43.9422368],[4.4463313,43.9419093],[4.4437781,43.9410648],[4.442553,43.9406596],[4.4416734,43.9403686],[4.4401475,43.9398639],[4.438458,43.939106],[4.4375567,43.9391813],[4.4353133,43.9400404],[4.4376411,43.9406621],[4.4395088,43.9412916],[4.4409094,43.9417647],[4.44211,43.9430736],[4.4443137,43.9434469],[4.4454812,43.9438413],[4.4468572,43.9436483],[4.4493884,43.943516],[4.4517258,43.9443867],[4.4531552,43.9443589],[4.4547202,43.9443285],[4.4562012,43.9447594],[4.4560122,43.9449688],[4.4551655,43.9469841],[4.4533284,43.9471862],[4.4523108,43.9477062],[4.4515573,43.9491362],[4.4517825,43.9506101],[4.4530109,43.9510235],[4.4540566,43.9512538],[4.4543516,43.9529253],[4.4563646,43.9529525],[4.4563118,43.9515382],[4.4573451,43.9514349],[4.4596495,43.95139],[4.4603065,43.9504609],[4.4598199,43.9481423],[4.4593029,43.9466539],[4.4608903,43.9459563],[4.4615596,43.9466354],[4.4628599,43.9475083],[4.4651118,43.9478725]]},"properties":{"CLC:code":"321","CLC:id":"FR-219398","CLC:year":"2006","natural":"grassland","source":"Union européenne - SOeS, CORINE Land Cover, 2006."}},
{"type":"Feature","geometry":{"type":"LineString","coordinates":[[4.518782,43.9251176],[4.5169722,43.9229876],[4.5169371,43.9220721],[4.5142315,43.9206278],[4.5129076,43.9191547],[4.5109375,43.9188613],[4.5100582,43.9199614],[4.5086607,43.9195734],[4.5079165,43.9198233],[4.5083157,43.9212274],[4.5083354,43.9214444],[4.5082796,43.9218958],[4.5083154,43.9221048],[4.5084152,43.9221884],[4.5087356,43.9222548],[4.5089069,43.9223872],[4.509299,43.9223997],[4.5095753,43.9219116],[4.5099136,43.9215244],[4.510357,43.921157],[4.510599,43.9211427],[4.5109485,43.9212383],[4.5111832,43.9213815],[4.5114265,43.9216302],[4.5114873,43.9217413],[4.5114929,43.9218693],[4.5114256,43.9220215],[4.5111617,43.9222824],[4.5110521,43.922421],[4.5109913,43.9225385],[4.510901,43.922883],[4.5107134,43.9235988],[4.5104959,43.9244291],[4.5104366,43.9246212],[4.5131248,43.9253534],[4.5146279,43.9254897],[4.5160032,43.9252958],[4.5172539,43.9248537],[4.518782,43.9251176]]},"properties":{"CLC:code":"323","CLC:id":"FR-220307","CLC:year":"2006","natural":"scrub","source":"Union européenne - SOeS, CORINE Land Cover, 2006."}},
{"type":"Feature","geometry":{"type":"LineString","coordinates":[[4.5405783,43.9169966],[4.5401777,43.918517],[4.5424823,43.9182262],[4.544152,43.919692],[4.5448945,43.9210091],[4.5471376,43.9223789],[4.5487978,43.9235952],[4.5499753,43.9242368],[4.5528731,43.924678],[4.5538765,43.9238246],[4.5530479,43.923258],[4.550492,43.9227277],[4.5479807,43.9203629],[4.5454979,43.9187485],[4.5438314,43.9173658],[4.5439173,43.9166154],[4.5436486,43.9156215],[4.5438527,43.9149507],[4.5433184,43.913046],[4.5426683,43.9111436],[4.5427042,43.9111437],[4.5420333,43.9106399],[4.5418517,43.9101653],[4.5416921,43.909748],[4.5415513,43.9090843],[4.5416255,43.9081115],[4.5412729,43.9078409],[4.5401913,43.906696],[4.5401858,43.9065528],[4.5401736,43.9062384],[4.5401462,43.9055312],[4.5390119,43.9059712],[4.5367306,43.9051677],[4.5347597,43.9046198],[4.5346277,43.9043844],[4.5334291,43.9045845],[4.5316195,43.905454],[4.5310717,43.9056646],[4.5308303,43.9057574],[4.5302657,43.9059744],[4.5266922,43.9053007],[4.5258972,43.906609],[4.525254,43.9081063],[4.5245583,43.9090435],[4.5255212,43.9103737],[4.5268945,43.9125433],[4.5293704,43.9150609],[4.5324113,43.9174686],[4.5328534,43.9178186],[4.5328817,43.9175517],[4.5331387,43.9151297],[4.534857,43.9157154],[4.533501,43.9180576],[4.5344113,43.9192615],[4.534514,43.9191766],[4.5368372,43.9172553],[4.5369678,43.9144041],[4.5371364,43.9107249],[4.5353376,43.9087883],[4.5364781,43.9086121],[4.5381277,43.9094343],[4.5389698,43.9102476],[4.5382467,43.9116268],[4.5389672,43.9128773],[4.5415848,43.9129147],[4.5407653,43.9141349],[4.5405416,43.9157264],[4.5405783,43.9169966]]},"properties":{"CLC:code":"323","CLC:id":"FR-220309","CLC:year":"2006","leaf_cycle":"deciduous","leaf_type":"broadleaved","name":"Garrigues Basses","natural":"wood","source":"Union européenne - SOeS, CORINE Land Cover, 2006.;local knowledge"}},
{"type":"Feature","geometry":{"type":"LineString","coordinates":[[4.5070802,43.9196617],[4.5066779,43.919286],[4.5056822,43.9180475],[4.506324,43.9157057],[4.5054958,43.9152097],[4.5048076,43.9149549],[4.504247,43.9145678],[4.506607,43.9127919],[4.5061005,43.9120095],[4.5052377,43.9105282],[4.5044543,43.9111273],[4.500089,43.9114637],[4.5001596,43.9102966],[4.5023442,43.9101699],[4.5022839,43.9085883],[4.5012285,43.9081091],[4.5023482,43.907255],[4.50109,43.9059823],[4.5005429,43.9055185],[4.500103,43.9055262],[4.4996524,43.9058741],[4.499765,43.9065698],[4.4991589,43.9066123],[4.4988477,43.9059359],[4.4983864,43.9058006],[4.4980293,43.9057581],[4.4976351,43.9075151],[4.4992653,43.9079818],[4.4992105,43.9095657],[4.4962211,43.9097083],[4.4948113,43.9089864],[4.4943253,43.9083295],[4.4943771,43.9066636],[4.493425,43.9058495],[4.4924076,43.9063688],[4.4931551,43.9078536],[4.4917959,43.9084639],[4.4901752,43.9082454],[4.4897492,43.90917],[4.4897138,43.909753],[4.4881359,43.9097842],[4.4883123,43.9083654],[4.4858545,43.9073315],[4.4838665,43.9089535],[4.4820779,43.9104041],[4.4800059,43.910445],[4.4794581,43.9081243],[4.4787423,43.9074718],[4.4774895,43.90742],[4.4761543,43.9091055],[4.4751462,43.9098752],[4.4729529,43.9097519],[4.4732329,43.9110785],[4.4715066,43.9111124],[4.4709865,43.9095398],[4.4706842,43.9088289],[4.4703546,43.9080537],[4.4692281,43.9077022],[4.4687936,43.907621],[4.4682142,43.9081891],[4.4681069,43.9086027],[4.4677556,43.9089273],[4.4675705,43.9094027],[4.4675705,43.9096075],[4.4670716,43.9094471],[4.4658458,43.9092442],[4.464387,43.9089711],[4.4627048,43.9098684],[4.4638378,43.9124284],[4.4654491,43.9123969],[4.4657041,43.9130585],[4.4641176,43.913755],[4.4648347,43.9157341],[4.4655385,43.9156153],[4.4659126,43.9155522],[4.4657571,43.9144727],[4.4668929,43.9140346],[4.4673225,43.9131932],[4.4706422,43.9126278],[4.4710185,43.9134534],[4.4700195,43.9144724],[4.4692513,43.9154868],[4.4705365,43.9159618],[4.4729388,43.9154976],[4.474314,43.9153042],[4.4758512,43.9163566],[4.4779566,43.9145089],[4.4794987,43.9152271],[4.4812697,43.9159789],[4.4827045,43.9162172],[4.4829983,43.9162097],[4.4853814,43.9155032],[4.4875434,43.9147939],[4.4894108,43.9154235],[4.4892746,43.9179241],[4.4880238,43.9183648],[4.4870401,43.9167193],[4.4860295,43.9174048],[4.4870542,43.9201331],[4.4886658,43.9201012],[4.4891549,43.9208413],[4.4907823,43.9212251],[4.4905601,43.9183989],[4.4911981,43.9180972],[4.4920313,43.9177031],[4.4925782,43.9180089],[4.4933263,43.918427200000007],[4.494424,43.916989],[4.4949935,43.9168114],[4.4953764,43.9178031],[4.4942881,43.9194907],[4.4949081,43.9206442],[4.4956685,43.9224614],[4.4967019,43.9223578],[4.4968465,43.9201054],[4.4986952,43.9202362],[4.4984127,43.9219067],[4.4984444,43.9227391],[4.5004795,43.9229399],[4.500662,43.9222423],[4.5009107,43.9216634],[4.5011774,43.921352],[4.5016378,43.9210773],[4.5023714,43.9206398],[4.503644,43.9196718],[4.5046593,43.9195108],[4.504921,43.9196197],[4.5051521,43.9196386],[4.5054082,43.9196595],[4.5065331,43.9202065],[4.5070802,43.9196617]]},"properties":{"CLC:code":"323","CLC:id":"FR-220397","CLC:year":"2006","natural":"scrub","source":"Union européenne - SOeS, CORINE Land Cover, 2006."}},
{"type":"Feature","geometry":{"type":"LineString","coordinates":[[4.4491256,43.9088448],[4.4554844,43.9094709],[4.4557246,43.9066345],[4.4555153,43.9065674],[4.4552997,43.9064982],[4.453276,43.9058492],[4.4534571,43.9045136],[4.4552349,43.9045544],[4.4554163,43.9045586],[4.4552424,43.9029793],[4.4529221,43.9025253],[4.4510524,43.9018119],[4.4513547,43.9006403],[4.4521107,43.8992924],[4.4521575,43.8974603],[4.4536566,43.8975143],[4.4540519,43.8988387],[4.4537279,43.8994284],[4.4547761,43.9012943],[4.4562134,43.9012112],[4.4560395,43.8996329],[4.4556346,43.8992182],[4.4550811,43.8986523],[4.455019,43.8969875],[4.4550874,43.8957373],[4.4538876,43.8944286],[4.4517043,43.8945543],[4.4516733,43.8937219],[4.4489226,43.8936053],[4.4476361,43.8935508],[4.4476083,43.8928016],[4.4498429,43.8926382],[4.4507088,43.8925749],[4.4515297,43.8929749],[4.4535732,43.8921853],[4.4539903,43.8910115],[4.454423,43.8902533],[4.4561409,43.891553],[4.4572453,43.8902815],[4.4576189,43.8879428],[4.4575332,43.8874802],[4.4585,43.8873854],[4.4585949,43.8864426],[4.4580095,43.8856183],[4.4578929,43.8858949],[4.4572404,43.8858795],[4.4570404,43.8847897],[4.4558504,43.8845684],[4.4556965,43.8847965],[4.455129,43.8850864],[4.4549857,43.8851596],[4.4548911,43.88586],[4.4539846,43.885834],[4.4529852,43.886552],[4.4518897,43.8863113],[4.4516289,43.8857925],[4.4510191,43.885752599999999],[4.4503684,43.887607],[4.4487689,43.8884239],[4.447256,43.8883223],[4.4467475,43.8876337],[4.446182,43.8870334],[4.4452578,43.8865275],[4.4431514,43.8866993],[4.4409863,43.8869159],[4.4396512,43.8867234],[4.4376477,43.8864129],[4.437293,43.8856755],[4.4348002,43.886709],[4.4347675,43.8868789],[4.4348378,43.888784],[4.4345344,43.8900566],[4.4347812,43.8900518],[4.4358818,43.8917797],[4.4361578,43.8930233],[4.4378117,43.894157],[4.4375191,43.8955779],[4.4375653,43.8968271],[4.4358632,43.8975254],[4.4347725,43.896048],[4.4336811,43.8945695],[4.432179,43.8944321],[4.431438,43.8961955],[4.4286182,43.8961587],[4.4258236,43.8967867],[4.4251512,43.8981568],[4.4241784,43.8988775],[4.4245143,43.8991361],[4.4246822,43.9002416],[4.4277238,43.9001013],[4.4289817,43.9006012],[4.4289501,43.9019792],[4.4298138,43.9017782],[4.430024,43.9020023],[4.4311791,43.9018738],[4.431774,43.9023678],[4.433785,43.9020631],[4.4385102,43.9021383],[4.4412985,43.9024497],[4.4422166,43.9011504],[4.4433493,43.9006293],[4.4433061,43.8994633],[4.442327,43.8979007],[4.4406321,43.8956852],[4.4406832,43.8939351],[4.4412148,43.8927591],[4.4430285,43.8919742],[4.4440924,43.8927034],[4.4432572,43.8948338],[4.44304,43.8953879],[4.4432197,43.8971336],[4.4447219,43.8972708],[4.4458483,43.8965835],[4.4467069,43.8949009],[4.4488155,43.8958593],[4.4495493,43.8970108],[4.4495772,43.89776],[4.4493096,43.8998471],[4.4451663,43.8999275],[4.4452188,43.9013418],[4.4475513,43.9021295],[4.4498693,43.9025015],[4.4512938,43.9036395],[4.4507863,43.9054817],[4.446499,43.9048152],[4.4433125,43.9042936],[4.4414461,43.9036642],[4.4382176,43.9035592],[4.4382514,43.9044747],[4.4389636,43.9050443],[4.4428981,43.9055505],[4.4429428,43.905692],[4.4434205,43.9072063],[4.4465311,43.9072292],[4.4464501,43.9081469],[4.4491256,43.9088448]]},"properties":{"CLC:code":"323","CLC:id":"FR-220816","CLC:year":"2006","natural":"scrub","source":"Union européenne - SOeS, CORINE Land Cover, 2006."}},
{"type":"Feature","geometry":{"type":"LineString","coordinates":[[4.4378117,43.894157],[4.4361578,43.8930233],[4.4358818,43.8917797],[4.4347812,43.8900518],[4.4345344,43.8900566],[4.4337881,43.890071],[4.4310992,43.8901228],[4.4310099,43.890261],[4.4301183,43.8916402],[4.4262274,43.8912755],[4.4242254,43.891088],[4.4241886,43.8922465],[4.425355,43.8926401],[4.4291713,43.8930669],[4.4307974,43.8934515],[4.4351886,43.8938671],[4.4356553,43.8940244],[4.4378117,43.894157]]},"properties":{"CLC:code":"321","CLC:id":"FR-221230","CLC:year":"2006","natural":"grassland","source":"Union européenne - SOeS, CORINE Land Cover, 2006."}},
{"type":"Feature","geometry":{"type":"LineString","coordinates":[[4.473744,43.8782095],[4.4734405,43.8781983],[4.4735456,43.877656],[4.4737901,43.8776667],[4.473744,43.8782095]]},"properties":{"leisure":"park","name":"Square Georges et René Anguiviel","source":"cadastre-dgi-fr source : Direction Générale des Impôts - Cadastre. Mise à jour : 2010"}},
{"type":"Feature","geometry":{"type":"LineString","coordinates":[[4.4662471,43.8776647],[4.4664341,43.8767764],[4.4671737,43.876859],[4.466966,43.8777476],[4.4662471,43.8776647]]},"properties":{"leisure":"pitch","source":"cadastre-dgi-fr source : Direction Générale des Impôts - Cadastre. Mise à jour : 2010","sport":"soccer"}},
{"type":"Feature","geometry":{"type":"LineString","coordinates":[[4.5308887,43.9674401],[4.5316375,43.9673955],[4.5317125,43.9682962],[4.5309688,43.9683472],[4.5308887,43.9674401]]},"properties":{"leisure":"pitch","lit":"yes","source":"Bing","sport":"soccer","surface":"grass"}},
{"type":"Feature","geometry":{"type":"LineString","coordinates":[[4.5340984,43.9523553],[4.5348324,43.9526451],[4.5356492,43.951618],[4.5353059,43.9514532],[4.5349413,43.9513005],[4.5340984,43.9523553]]},"properties":{"fee":"yes","name":"Espace Découverte du Pont-du-Gard","tourism":"museum","wheelchair":"yes"}},
{"type":"Feature","geometry":{"type":"LineString","coordinates":[[4.5392488,43.9524198],[4.5391729,43.9523816],[4.5390573,43.952317],[4.5389637,43.9522304],[4.5388674,43.9520395],[4.5387487,43.95172],[4.5387704,43.951532],[4.5387734,43.9513521],[4.5387391,43.9511704],[4.5386741,43.9510056],[4.5385873,43.9509552],[4.538534,43.9508686],[4.5384696,43.9507657],[4.5384704,43.9506816],[4.5384666,43.9505613],[4.53848,43.9505227],[4.5384733,43.9504625],[4.5384287,43.9503844],[4.5383888,43.9502774],[4.5383931,43.9501515],[4.5384205,43.9500207],[4.5384186,43.9499363],[4.5383939,43.9498117],[4.5384119,43.9497412],[4.5382839,43.9495942],[4.5382543,43.949585],[4.5379838,43.9493351],[4.5378977,43.9492342],[4.5378482,43.94929],[4.5377729,43.9492846],[4.5377561,43.9492202],[4.5376271,43.9491072],[4.537493,43.9489759],[4.5373738,43.9488297],[4.5372808,43.9488187],[4.5371767,43.9488141],[4.5371731,43.9488109],[4.5371496,43.9487904],[4.5371362,43.9487787],[4.5371008,43.9487255],[4.5370904,43.9486958],[4.537081,43.9486689],[4.5370741,43.9486646],[4.5370117,43.9486254],[4.5370161,43.9486091],[4.5370052,43.9485777],[4.5370089,43.9485539],[4.5370095,43.9485385],[4.5369969,43.9484988],[4.5369963,43.9484489],[4.5369595,43.9484292],[4.5369086,43.9484218],[4.5369001,43.9484316],[4.5368748,43.9484641],[4.536832,43.9484945],[4.5367811,43.9485056],[4.5366943,43.9484368],[4.5367053,43.948372],[4.5365863,43.9482356],[4.5365515,43.9481757],[4.5364438,43.9481342],[4.5363726,43.9481065],[4.5362917,43.9480509],[4.5361025,43.9480205],[4.5359899,43.9478863],[4.5358735,43.9478239],[4.5357366,43.9477459],[4.5355706,43.9476055],[4.5354724,43.9475363],[4.5354139,43.9474862],[4.5353273,43.9474771],[4.5352612,43.9474561],[4.5352289,43.9474278],[4.5351707,43.9473901],[4.5351049,43.9473449],[4.5350463,43.9473058],[4.534993,43.9472459],[4.5350885,43.9472131],[4.5349693,43.9470931],[4.5348267,43.9468396],[4.534756,43.9467048],[4.5346325,43.94665],[4.5342184,43.9465066],[4.5340048,43.946352],[4.533786,43.9463259],[4.5336288,43.9462669],[4.5334623,43.9461955],[4.5332688,43.9461216],[4.5331337,43.9460537],[4.5330348,43.9459829],[4.5328814,43.9458338],[4.5327559,43.945779],[4.5326169,43.9457854],[4.5325049,43.9458241],[4.5322853,43.9458112],[4.5320477,43.9457596],[4.5318998,43.9457564],[4.5317465,43.9458376],[4.5316458,43.9458359],[4.5315224,43.9458629],[4.5315304,43.9458243],[4.5314902,43.9457451],[4.5314205,43.9457104],[4.5313776,43.9456717],[4.5312837,43.9456795],[4.5311791,43.9456292],[4.530994,43.9456659],[4.5308197,43.9456601],[4.5304844,43.9456157],[4.5302859,43.9455404],[4.5301491,43.9456447],[4.5300499,43.9456601],[4.5298862,43.9456505],[4.529787,43.9456891],[4.5297173,43.9456968],[4.5294973,43.9456312],[4.5293498,43.9456331],[4.5292854,43.9456717],[4.5292237,43.9456717],[4.5290977,43.9456292],[4.5289984,43.9456659],[4.5288992,43.9456234],[4.5287597,43.9456138],[4.5287061,43.9456543],[4.5286605,43.9456852],[4.5285505,43.94572],[4.5284647,43.9457779],[4.5283493,43.9458011],[4.5278987,43.9457779],[4.5275688,43.9457509],[4.5274481,43.9457142],[4.5273328,43.9457297],[4.527196,43.9457837],[4.5270278,43.9458009],[4.5267711,43.9458272],[4.5268285,43.9463013],[4.5270485,43.946282],[4.5274079,43.9462549],[4.5275715,43.9462163],[4.5278746,43.9461603],[4.5279738,43.946197],[4.5283145,43.9461719],[4.5284486,43.9461391],[4.5286739,43.9461198],[4.5287399,43.9461273],[4.5288777,43.9461429],[4.5290521,43.946141],[4.5296341,43.9460947],[4.5297548,43.946114],[4.5298889,43.9461178],[4.5305166,43.9461758],[4.5308921,43.9461487],[4.5310611,43.9461256],[4.5314258,43.9461584],[4.5315894,43.9462009],[4.5317343,43.9462743],[4.5318255,43.946282],[4.5319489,43.9463438],[4.532083,43.9463708],[4.5321527,43.946421],[4.5322385,43.946367],[4.532437,43.9463013],[4.5325524,43.9462897],[4.5326114,43.9462974],[4.5326999,43.9463959],[4.5327616,43.9464114],[4.5328206,43.9464094],[4.5329493,43.9463554],[4.5331693,43.94645],[4.5332283,43.9465002],[4.53334,43.9465363],[4.5333838,43.9465504],[4.5333382,43.9464944],[4.5334589,43.9465176],[4.5337138,43.9466682],[4.5337379,43.9467165],[4.5339847,43.9469057],[4.5339847,43.9469482],[4.534073,43.9470065],[4.5341346,43.9470472],[4.5342368,43.9471587],[4.534315,43.9472105],[4.5344302,43.9472353],[4.5345747,43.947348],[4.5347958,43.9474234],[4.5349028,43.9474472],[4.5349089,43.9474733],[4.5349757,43.9475801],[4.5350158,43.9476303],[4.5351382,43.9477454],[4.5352434,43.9478096],[4.5353191,43.9478644],[4.5353751,43.94791],[4.5354645,43.9480451],[4.5356144,43.9481708],[4.5357349,43.9482978],[4.5359098,43.9484119],[4.5360215,43.9485767],[4.5360735,43.9487849],[4.5361313,43.9488231],[4.5361981,43.9488672],[4.5362474,43.9489479],[4.5362971,43.9490236],[4.5363534,43.9490252],[4.5363772,43.9490064],[4.5363931,43.9489743],[4.5364425,43.9489011],[4.5364889,43.9488684],[4.5366597,43.9490801],[4.5368121,43.949177],[4.5369198,43.9491904],[4.5371393,43.9494109],[4.5373875,43.9496154],[4.5375069,43.9497739],[4.5376767,43.9499461],[4.5378164,43.9501518],[4.537861,43.9502553],[4.5380144,43.9507767],[4.5380829,43.9510601],[4.5381291,43.9512459],[4.5382496,43.9516597],[4.5383269,43.9518782],[4.5385119,43.9521764],[4.5386281,43.9523227],[4.5387249,43.9523856],[4.5387996,43.9524338],[4.5388747,43.9524717],[4.5389425,43.9525186],[4.5390547,43.952585],[4.5391553,43.952625],[4.53925,43.9526476],[4.5393772,43.952703],[4.539531,43.9527872],[4.5396308,43.9528408],[4.5396754,43.9528896],[4.5397461,43.9529018],[4.5397698,43.9529216],[4.5397941,43.9529332],[4.5398652,43.9529761],[4.5400517,43.9529637],[4.5402237,43.9529101],[4.5403998,43.9528792],[4.5406037,43.9528598],[4.5407767,43.9528405],[4.5409517,43.9527878],[4.5411339,43.9527425],[4.5412438,43.9526845],[4.5413417,43.9526112],[4.541563,43.9525156],[4.541728,43.9524547],[4.5418755,43.9524142],[4.5420344,43.95241],[4.5423347,43.9523551],[4.5424803,43.9523128],[4.5426279,43.9522925],[4.5427821,43.9522626],[4.5429712,43.9522481],[4.5431227,43.9522279],[4.5433118,43.952195],[4.5434446,43.9521699],[4.543731,43.9521183],[4.5437664,43.9521245],[4.5438067,43.9521101],[4.5438375,43.9520956],[4.5438744,43.9520569],[4.5441446,43.9519305],[4.5442833,43.9519022],[4.5444442,43.9518941],[4.5446312,43.951886],[4.5449941,43.9518483],[4.5452223,43.9517917],[4.5454467,43.9517702],[4.545862,43.9516679],[4.5461052,43.9515844],[4.5463633,43.9515117],[4.5468085,43.9514012],[4.5472911,43.9512935],[4.547957,43.951175],[4.5484502,43.951047],[4.5487319,43.9509995],[4.5489357,43.950965],[4.5491547,43.9509539],[4.5493788,43.9508974],[4.5499615,43.950849],[4.5508579,43.9508006],[4.551054,43.9508087],[4.5512557,43.9507966],[4.5513397,43.950845],[4.5515526,43.9508409],[4.5517711,43.9508046],[4.5519056,43.9507925],[4.5520233,43.950849],[4.5521577,43.9507885],[4.5522754,43.9507764],[4.552365,43.9508329],[4.5526227,43.9508248],[4.5529141,43.9507199],[4.5529197,43.9506554],[4.5530205,43.9505788],[4.553155,43.9505021],[4.5532894,43.9504658],[4.5534295,43.9504094],[4.5534911,43.9504739],[4.5536032,43.9504134],[4.5537432,43.9503327],[4.5538273,43.9502722],[4.5539393,43.9502077],[4.5541018,43.950127],[4.5542811,43.9500504],[4.5545052,43.9499899],[4.5548862,43.9498568],[4.5550598,43.9497922],[4.5551999,43.9497156],[4.5552671,43.9496511],[4.5554128,43.9496269],[4.5555753,43.9496269],[4.5557041,43.9495744],[4.5558834,43.9495018],[4.5560571,43.9494292],[4.556214,43.9493647],[4.5563821,43.9493122],[4.5565109,43.9492638],[4.5565425,43.9492547],[4.556707,43.9492074],[4.5567854,43.9491186],[4.5568807,43.9490299],[4.5570095,43.9489492],[4.5570544,43.9488847],[4.5572336,43.9488],[4.5574241,43.9486185],[4.557497,43.9484974],[4.5575586,43.9483966],[4.5576762,43.9482796],[4.5579452,43.9480215],[4.558046,43.9478924],[4.5581076,43.9477795],[4.5581469,43.9476584],[4.5581917,43.9475132],[4.5582757,43.9474084],[4.5583037,43.9473196],[4.5583878,43.9471905],[4.5584689,43.9471645],[4.558539,43.9471421],[4.5586623,43.9471341],[4.5586903,43.9472067],[4.5587799,43.9472349],[4.5588304,43.9471784],[4.558864,43.9470655],[4.5588136,43.9469324],[4.5587743,43.9468235],[4.5587743,43.9467024],[4.558808,43.9466097],[4.5589088,43.9465371],[4.5590153,43.9464806],[4.5590545,43.9463797],[4.5590713,43.9462184],[4.5591441,43.9461135],[4.5592282,43.9460409],[4.5592674,43.9459643],[4.5592954,43.9458836],[4.5593682,43.9458069],[4.5594579,43.9457101],[4.5595083,43.9456133],[4.5595419,43.9454883],[4.5595531,43.9453511],[4.5596203,43.9452422],[4.5597156,43.9451373],[4.5598108,43.9450526],[4.5598444,43.9449477],[4.5598668,43.9448065],[4.5598276,43.9447299],[4.5597828,43.9446452],[4.5597436,43.9445201],[4.5597828,43.944379],[4.5598276,43.9442539],[4.5598781,43.9441289],[4.5599061,43.9440038],[4.5598781,43.9439433],[4.559794,43.9438263],[4.559766,43.9437335],[4.5598444,43.9436367],[4.5598781,43.9435157],[4.559822,43.9433745],[4.5598388,43.94331],[4.5598556,43.9432696],[4.5597772,43.9431768],[4.5597044,43.9431123],[4.5596035,43.9430074],[4.5595755,43.9428864],[4.5595867,43.9427613],[4.5595419,43.9426322],[4.5594915,43.9424265],[4.5594635,43.9422853],[4.5593402,43.9421441],[4.5592113,43.9419949],[4.5591385,43.9418698],[4.5588696,43.9416237],[4.5587698,43.9414427],[4.5586316,43.9413059],[4.5584118,43.9411964],[4.5581973,43.9411114],[4.5580908,43.9409702],[4.557934,43.940829],[4.5578051,43.9407362],[4.5576874,43.9406313],[4.5576146,43.9405143],[4.5575456,43.9403817],[4.5574987,43.9402616],[4.5574594,43.9401274],[4.5574209,43.9400506],[4.5573617,43.9399492],[4.5572984,43.9398475],[4.557269,43.9398024],[4.5572706,43.9397271],[4.5571962,43.9396194],[4.557118,43.9393228],[4.55712,43.9392556],[4.5570001,43.9391307],[4.557004,43.9390609],[4.5570227,43.9387303],[4.5570728,43.9385873],[4.5571377,43.9384329],[4.557173,43.9383502],[4.5572923,43.9381402],[4.5573232,43.938032],[4.5573277,43.9379334],[4.5574867,43.9375707],[4.5574775,43.9375088],[4.5574866,43.9374344],[4.557514,43.9372994],[4.5575436,43.9371903],[4.5576309,43.937052],[4.5577068,43.9368329],[4.5578983,43.9366462],[4.5580668,43.9363829],[4.558291,43.9362733],[4.558475,43.9362207],[4.5585086,43.9360768],[4.5586355,43.9359993],[4.5586966,43.9359442],[4.5587921,43.9358803],[4.5588652,43.9357864],[4.5589852,43.9357038],[4.5591017,43.9356074],[4.5591968,43.9354218],[4.5594986,43.9351845],[4.5597583,43.9349877],[4.5598887,43.9348528],[4.5599258,43.934738],[4.5600924,43.9346069],[4.5602318,43.9345453],[4.5603869,43.9344481],[4.5605215,43.9344253],[4.5606229,43.9343438],[4.5607114,43.9342949],[4.560816,43.9341931],[4.5611191,43.9341076],[4.5611761,43.9340137],[4.5611517,43.9339139],[4.5612658,43.9338904],[4.5614124,43.933855200000007],[4.5615836,43.9337437],[4.5617221,43.9336498],[4.5618199,43.9335442],[4.561885,43.9334151],[4.561991,43.9333095],[4.5619956,43.9330979],[4.5623064,43.932992],[4.5626325,43.9329221],[4.5628613,43.9329372],[4.5629455,43.9329833],[4.5628223,43.9330343],[4.5626708,43.9330259],[4.5625924,43.9331033],[4.5627757,43.9332683],[4.5630985,43.9333108],[4.5632621,43.933257],[4.563352,43.9331549],[4.5633785,43.9329957],[4.563743,43.9327931],[4.564062,43.9326794],[4.5644406,43.9324399],[4.5647656,43.9320463],[4.5648509,43.9317692],[4.5647955,43.9315423],[4.5646093,43.9313391],[4.5645828,43.9311782],[4.5647434,43.930949],[4.5648266,43.9307334],[4.5650711,43.9304869],[4.5652096,43.9303108],[4.5653237,43.9301172],[4.5660009,43.9294532],[4.5668157,43.928994],[4.5671815,43.9289494],[4.5674504,43.9290022],[4.5675889,43.9289963],[4.56754,43.9288261],[4.5674667,43.9286853],[4.5676215,43.9285855],[4.5678986,43.9285444],[4.5683875,43.9284153],[4.569226,43.9283396],[4.5694645,43.9283199],[4.5697798,43.928275],[4.5703917,43.9282282],[4.5705957,43.9281982],[4.5710184,43.9281221],[4.5713007,43.9281281],[4.5717921,43.9281068],[4.572516,43.9281665],[4.5730846,43.9282226],[4.57386,43.9282185],[4.5744183,43.9279786],[4.5751178,43.9278635],[4.5755392,43.9278377],[4.5759908,43.9279639],[4.5765254,43.9279439],[4.5763322,43.9281225],[4.576068,43.9282148],[4.575405,43.9284029],[4.5745838,43.9286687],[4.5739447,43.9289728],[4.5743358,43.9289905],[4.5749225,43.9289024],[4.5753462,43.9288144],[4.575607,43.9287322],[4.5760307,43.9285738],[4.5763811,43.928474],[4.5767966,43.9283567],[4.5772285,43.9282569],[4.5779676,43.9281443],[4.5784584,43.9280083],[4.5789049,43.9277985],[4.5790138,43.9275503],[4.5790375,43.9274764],[4.5790513,43.9273448],[4.5793099,43.9271531],[4.5793715,43.9271066],[4.5794612,43.9269951],[4.5796404,43.9269775],[4.579999,43.9268602],[4.580219,43.9267252],[4.5803331,43.9266078],[4.5806345,43.9262146],[4.580716,43.9260151],[4.5806834,43.925792],[4.5807405,43.9255514],[4.580822,43.9253636],[4.5808708,43.9251113],[4.5809442,43.9248061],[4.5809279,43.9245831],[4.5809442,43.9243894],[4.5809034,43.9239316],[4.580936,43.9237849],[4.5808138,43.9236675],[4.5808138,43.9234973],[4.5808871,43.9233447],[4.5809034,43.9231334],[4.5809116,43.9229456],[4.5809849,43.9226874],[4.581099,43.9221474],[4.581262,43.9219831],[4.5813353,43.9218305],[4.5813923,43.9216016],[4.5814412,43.9213844],[4.5814072,43.9211758],[4.5815545,43.9208149],[4.5816363,43.9206547],[4.5817104,43.9205851],[4.5818756,43.9204392],[4.5820257,43.9202826],[4.5822894,43.9201075],[4.582577,43.9199283],[4.5828879,43.9197545],[4.5833266,43.9196959],[4.5836332,43.9196647],[4.5838206,43.9195062],[4.5839591,43.9193536],[4.5841058,43.919201],[4.5841873,43.9190425],[4.5842687,43.9189545],[4.5843095,43.9188606],[4.5846251,43.9186603],[4.5849623,43.9184128],[4.5852593,43.918229],[4.5856795,43.9178986],[4.5855548,43.9176549],[4.5856126,43.917508],[4.586009,43.9170561],[4.5862527,43.916878],[4.5862862,43.9170974],[4.5864281,43.9171179],[4.5864604,43.9169459],[4.5865181,43.9168091],[4.5864868,43.9167013],[4.5864525,43.9166125],[4.586591,43.9163719],[4.5867459,43.9161606],[4.5868681,43.9159669],[4.5870555,43.9157673],[4.5872022,43.9156264],[4.5873896,43.9154386],[4.5875363,43.9154033],[4.5877889,43.915374],[4.5877726,43.9153036],[4.5876503,43.9151979],[4.5875363,43.9150688],[4.587577,43.9148927],[4.5876992,43.9147518],[4.5878866,43.9145463],[4.58796,43.914382],[4.5879681,43.9142],[4.5879844,43.9139652],[4.5880252,43.9137539],[4.588074,43.9135308],[4.5881718,43.9133958],[4.5883511,43.9133019],[4.588563,43.9131258],[4.5886363,43.9130495],[4.5887504,43.9130847],[4.5888563,43.913208],[4.589003,43.9132021],[4.5890763,43.9130965],[4.5890193,43.9129262],[4.5889215,43.9128499],[4.588783,43.9129732],[4.5886607,43.9129438],[4.5884896,43.9129145],[4.5882859,43.9128382],[4.5882207,43.9126973],[4.5881963,43.9124449],[4.5881881,43.9122688],[4.5882207,43.9121338],[4.5883755,43.9122159],[4.5884407,43.9122981],[4.5885222,43.9124155],[4.5886363,43.9123921],[4.5887178,43.912257],[4.5886526,43.9121514],[4.5884407,43.9120516],[4.5879763,43.9117698],[4.5878133,43.9116407],[4.5876503,43.911488],[4.5874955,43.9112885],[4.5873488,43.9111534],[4.587194,43.9110419],[4.5870881,43.910948],[4.5869822,43.9107954],[4.5868844,43.9105958],[4.5867214,43.9104431],[4.586534,43.910314],[4.5864281,43.9101848],[4.5861592,43.9100557],[4.585931,43.909997],[4.5856458,43.9099735],[4.5853851,43.9099148],[4.5851569,43.9098209],[4.5850102,43.9097211],[4.5848554,43.9095802],[4.584725,43.9094217],[4.5846191,43.9092573],[4.5844724,43.9088757],[4.5844154,43.9086527],[4.5843991,43.9085],[4.5844236,43.9083533],[4.5844562,43.908183],[4.5845213,43.9080421],[4.5845947,43.907778],[4.5846599,43.9076194],[4.5847006,43.907414],[4.5849043,43.9071028],[4.5849776,43.9069913],[4.5850265,43.9068387],[4.5850673,43.9066919],[4.5851488,43.906551],[4.5852384,43.9063925],[4.5852873,43.906234],[4.5853036,43.9060637],[4.5853688,43.9058935],[4.5854258,43.9057232],[4.5854503,43.9055588],[4.5854279,43.9053402],[4.585382,43.905175],[4.5853247,43.9050263],[4.5852329,43.9048941],[4.5851641,43.9047205],[4.5851526,43.9045553],[4.5850724,43.90439],[4.5849921,43.9042496],[4.5849691,