{"type":"FeatureCollection","features":[
{"type":"Feature","geometry":{"type":"Point","coordinates":[7.4970107,49.0834309]},"properties":{"created_by":"JOSM"}},
{"type":"Feature","geometry":{"type":"Point","coordinates":[7.5887539,49.0851759]},"properties":{"natural":"spring"}},
{"type":"Feature","geometry":{"type":"Point","coordinates":[7.5424963,48.9165387]},"properties":{"ele":"340","mountain_pass":"yes","name":"Col Kalte Eichen","natural":"saddle"}},
{"type":"Feature","geometry":{"type":"Point","coordinates":[7.5356729,48.9248243]},"properties":{"ele":"341","mountain_pass":"yes","name":"Eselsplatz","natural":"saddle"}},
{"type":"Feature","geometry":{"type":"Point","coordinates":[7.5413821,48.9202377]},"properties":{"ele":"421","name":"Hochfirst","natural":"peak"}},
{"type":"Feature","geometry":{"type":"Point","coordinates":[7.5498498,48.9208889]},"properties":{"ele":"370","mountain_pass":"yes","name":"Col du Hochfirst","natural":"saddle"}},
{"type":"Feature","geometry":{"type":"Point","coordinates":[7.4049854,49.0100257]},"properties":{"description":"Barrière Maifelsen 10' Barrière Kaltkueche 30' Étang Hasselfurt 1h10' Croix St Hubert 15' Tombe Russe 20' Ferme Wolfsgarten 1h Bitche 1h30' Stade Hohefuerst 25' Gare S.N.C.F Mairie 45' Schoenthal 40' Lemberg 1h25' Lemberg Route de Bitche 20'","ele":"385","information":"guidepost","name":"Carrefour Pont-Neuf","name:de":"Kreuzweg Neubrücke","name:en":"Newbridge crossroad","operator":"Club vosgien Lemberg","source":"Club vosgien Lemberg","tourism":"information"}},
{"type":"Feature","geometry":{"type":"Point","coordinates":[7.4131392,49.0200945]},"properties":{"description":"Stele for a lumberjack who died there in 1903","historic":"memorial","inscription":"Hier an dieser Stelle wurde durch einen Stam getötet Josef Würtz aus Schorbach am 20 Jan. 1903 - alt 29 Jahre -","memorial":"stele","source":"Club vosgien Bitche","website":"https://lh5.googleusercontent.com/pu6qStVSvH_N5AXgESpe0AlASKtcctIbHCXcYI8wYPx1W1awJ6k57TZoxfRJjpXRPxob-lw2mMHb2Az89oZMVmYCRpjZiKY0EqttB6wH17js-AxwqhOBEwes2CI5wEwQpQ=s16383"}},
{"type":"Feature","geometry":{"type":"Point","coordinates":[7.4429696,49.0393301]},"properties":{"access":"yes","leisure":"playground"}},
{"type":"Feature","geometry":{"type":"Point","coordinates":[7.561566,48.951534]},"properties":{"ele":"348","information":"guidepost","name":"Ruine Grand Arnsbourg","name:de":"Burgruine Groß Arnsburg","name:en":"Great Arnsburg ruine","tourism":"information"}},
{"type":"Feature","geometry":{"type":"Point","coordinates":[7.5180929,48.9401708]},"properties":{"name":"Col du Baerenberg","natural":"saddle"}},
{"type":"Feature","geometry":{"type":"Point","coordinates":[7.4950682,48.9332979]},"properties":{"ele":"202","information":"guidepost","name":"Pulverbruecke","tourism":"information"}},
{"type":"Feature","geometry":{"type":"Point","coordinates":[7.4852612,48.9236489]},"properties":{"name":"S'Hersche-Brennel","natural":"spring"}},
{"type":"Feature","geometry":{"type":"Point","coordinates":[7.4820206,48.9211125]},"properties":{"amenity":"restaurant","name":"Au Soleil","outdoor_seating":"yes","tourism":"hotel"}},
{"type":"Feature","geometry":{"type":"Point","coordinates":[7.5855149,48.954169]},"properties":{"ele":"436","mountain_pass":"yes","name":"Col de l'Ungerthal","name:de":"Ungertalpass","natural":"saddle","source":"Club vosgien"}},
{"type":"Feature","geometry":{"type":"Point","coordinates":[7.5772738,48.9533481]},"properties":{"ele":"408","mountain_pass":"yes","name":"Col du Holdereck","name:de":"Holdereckpass","natural":"saddle"}},
{"type":"Feature","geometry":{"type":"Point","coordinates":[7.5214191,48.9832646]},"properties":{"name":"Galerie Militaire","natural":"cave_entrance"}},
{"type":"Feature","geometry":{"type":"Point","coordinates":[7.5245939,48.9906421]},"properties":{"ele":"299","mountain_pass":"yes","name":"Col du Petit Dunkelthal","name:de":"Klein Dunkeltaler Hals","name:en":"Little Dunkelthal pass","natural":"saddle","source":"Karte der Vogesen im Massstabe 1:50 000;Club vosgien Baerenthal"}},
{"type":"Feature","geometry":{"type":"Point","coordinates":[7.3681992,48.9538284]},"properties":{"addr:city":"Meisenthal","addr:postcode":"57960","addr:street":"D37/D37a","alt_name":"Breitenstein","archaeological_site":"megalith","description":"Menhir christianisé","historic":"archaeological_site","image":"File:Pierre_des_12_apôtres_1.JPG","megalith_type":"menhir","name":"Pierre des 12 Apôtres","name:de":"Zwölfapostelstein","name:fr":"Pierre des 12 Apôtres","wikidata":"Q245203","wikipedia":"fr:Pierre des douze Apôtres de Meisenthal"}},
{"type":"Feature","geometry":{"type":"Point","coordinates":[7.5358135,49.0127657]},"properties":{"barrier":"gate","bicycle":"yes","foot":"yes"}},
{"type":"Feature","geometry":{"type":"Point","coordinates":[7.369482,48.9155702]},"properties":{"caravans":"yes","name":"Camping Municipal","tents":"yes","tourism":"camp_site","website":"https://www.wingensurmoder.fr/DECOUVRIR/Tourisme/Camping-municipal.html"}},
{"type":"Feature","geometry":{"type":"Point","coordinates":[7.528514,48.9411189]},"properties":{"ele":"335","mountain_pass":"yes","name":"Col de Steige","name:de":"Steigpass","natural":"saddle"}},
{"type":"Feature","geometry":{"type":"Point","coordinates":[7.5280907,48.931899]},"properties":{"ele":"331","name":"Source Mitteleck","natural":"spring"}},
{"type":"Feature","geometry":{"type":"Point","coordinates":[7.5628446,49.0039016]},"properties":{"tourism":"picnic_site"}},
{"type":"Feature","geometry":{"type":"Point","coordinates":[7.5618044,48.9847995]},"properties":{"tourism":"picnic_site"}},
{"type":"Feature","geometry":{"type":"Point","coordinates":[7.3856139,49.0054135]},"properties":{"barrier":"cycle_barrier","bicycle":"designated","cycle_barrier":"double","foot":"permissive","motor_vehicle":"no"}},
{"type":"Feature","geometry":{"type":"Point","coordinates":[7.4515811,48.9680809]},"properties":{"historic":"boundary_stone","inscription":"Hanau coat of arms on the southern side","ref":"466","source":"gps;survey"}},
{"type":"Feature","geometry":{"type":"Point","coordinates":[7.5328545,48.9892496]},"properties":{"ele":"291","mountain_pass":"yes","name":"Col du Grand Dunkelthal","name:de":"Groß Dunkeltaler Hals","name:en":"Great Dunkelthal pass","natural":"saddle","source":"Karte der Vogesen im Massstabe 1:50 000;Club vosgien Baerenthal"}},
{"type":"Feature","geometry":{"type":"Point","coordinates":[7.5704624,49.0443026]},"properties":{"ele":"365","name":"Col de la Rondelle","name:de":"Rondell","natural":"saddle","source":"Wikiloc","source:url":"https://fr.wikiloc.com/itineraires-randonnee/marathon-autour-du-camp-militaire-de-bitche-3419838"}},
{"type":"Feature","geometry":{"type":"Point","coordinates":[7.5310313,48.9106675]},"properties":{"check_date":"2022-12-25","information":"board","tourism":"information"}},
{"type":"Feature","geometry":{"type":"Point","coordinates":[7.5228131,48.9685383]},"properties":{"access":"private","addr:city":"Baerenthal","addr:postcode":"57230","name":"La Pinède","tourism":"camp_site"}},
{"type":"Feature","geometry":{"type":"Point","coordinates":[7.3932961,49.040383]},"properties":{"highway":"turning_circle"}},
{"type":"Feature","geometry":{"type":"Point","coordinates":[7.4488334,49.016661]},"properties":{"ele":"368","name":"Col du Widerschall","name:de":"Widerschaller Hals","name:en":"Widerschall pass","natural":"saddle","note":"Also spelled \"Wiederschall\"","source":"Club vosgien Bitche;IGN"}},
{"type":"Feature","geometry":{"type":"Point","coordinates":[7.5274833,49.1035635]},"properties":{"description":"in Stein gemeißelte Darstellung der römischen Jagdgöttin Diana inmitten zweier Hunde sowie des Kriegsgottes Mars (zu ihrer Rechten) und des Waldgottes Silvanus (zu ihrer Linken)","historic":"wayside_shrine","name":"Dianabild","name:fr":"Rocher de Diane","religion":"roman"}},
{"type":"Feature","geometry":{"type":"Point","coordinates":[7.5590707,49.1009685]},"properties":{"waterway":"weir"}},
{"type":"Feature","geometry":{"type":"Point","coordinates":[7.5592827,49.1009892]},"properties":{"waterway":"weir"}},
{"type":"Feature","geometry":{"type":"Point","coordinates":[7.5608839,49.1065911]},"properties":{"waterway":"weir"}},
{"type":"Feature","geometry":{"type":"Point","coordinates":[7.561538,49.1134345]},"properties":{"waterway":"weir"}},
{"type":"Feature","geometry":{"type":"Point","coordinates":[7.369002,49.0668746]},"properties":{"historic":"ruins","name":"Simserhof bloc 5 - Ligne Maginot","tourism":"attraction"}},
{"type":"Feature","geometry":{"type":"Point","coordinates":[7.3766174,49.0672253]},"properties":{"historic":"ruins","tourism":"attraction"}},
{"type":"Feature","geometry":{"type":"Point","coordinates":[7.3724761,49.0662525]},"properties":{"historic":"ruins","tourism":"attraction"}},
{"type":"Feature","geometry":{"type":"Point","coordinates":[7.373388,49.0661999]},"properties":{"historic":"ruins","tourism":"attraction"}},
{"type":"Feature","geometry":{"type":"Point","coordinates":[7.3816171,49.0801926]},"properties":{"historic":"ruins","name":"Casemate Ligne Maginot"}},
{"type":"Feature","geometry":{"type":"Point","coordinates":[7.5239371,48.9106383]},"properties":{"tourism":"picnic_site"}},
{"type":"Feature","geometry":{"type":"Point","coordinates":[7.487752,48.9213449]},"properties":{"heritage":"2","heritage:operator":"mhs","historic":"castle","mhs:inscription_date":"1878","name":"Château de Lichtenberg","name:de":"Burg Lichtenberg","ref:mhs":"PA00084776","source":"data.gouv.fr:Ministère de la Culture - 08/2011","tourism":"attraction","website":"http://www.chateaudelichtenberg.com/","wikidata":"Q1012942","wikipedia":"fr:Château de Lichtenberg"}},
{"type":"Feature","geometry":{"type":"Point","coordinates":[7.429873,49.059334]},"properties":{"historic":"ruins","name":"Fort Saint-Sébastien"}},
{"type":"Feature","geometry":{"type":"Point","coordinates":[7.5524165,49.0936632]},"properties":{"description":"Ehem. Waldbauernhof in einem Seitental des Stüdenbachtals bei Eppenbrunn. Nach dem Besitzer benannter Hof, der 1867 niedergelegt wurde.","historic":"memorial","image":"https://upload.wikimedia.org/wikipedia/commons/b/b1/Ritterstein_37_R_Kaleseyerhof.JPG","inscription":"R. Kaleseyerhof \n1855 \nPWV.","material":"sandstone","memorial":"stone","name":"Ritterstein 37 \"R. Kaleseyerhof 1855\"","ref":"37","source:name":"Nummer der Literatur entnommen: W. Eitelmann & E. Kimmel - Rittersteine im Pfälzerwald","tourism":"attraction","wikidata":"Q1850870","wikipedia":"de:Liste der Rittersteine"}},
{"type":"Feature","geometry":{"type":"Point","coordinates":[7.5379357,49.0963475]},"properties":{"historic":"boundary_stone","inscription":"Lotrin(g)","year":"1605"}},
{"type":"Feature","geometry":{"type":"Point","coordinates":[7.5420548,49.09036]},"properties":{"historic":"boundary_stone","inscription":"B, F","year":"1826"}},
{"type":"Feature","geometry":{"type":"Point","coordinates":[7.5287696,49.0970585]},"properties":{"historic":"boundary_stone","inscription":"B, F","year":"1826"}},
{"type":"Feature","geometry":{"type":"Point","coordinates":[7.4835004,48.9985913]},"properties":{"fee":"no","natural":"cave_entrance"}},
{"type":"Feature","geometry":{"type":"Point","coordinates":[7.442146,49.040019]},"properties":{"waterway":"weir"}},
{"type":"Feature","geometry":{"type":"Point","coordinates":[7.4019354,49.0488012]},"properties":{"ele":"390","name":"Col du Schimberg","natural":"saddle"}},
{"type":"Feature","geometry":{"type":"Point","coordinates":[7.4395575,49.0212596]},"properties":{"ele":"315","name":"Source de la Horn","name:de":"Hornbach Quelle","name:en":"Horn spring","natural":"spring","source":"Club vosgien Bitche","wikidata":"Q1592334","wikipedia":"fr:Horn (Schwarzbach)"}},
{"type":"Feature","geometry":{"type":"Point","coordinates":[7.4068351,49.0638183]},"properties":{"historic":"memorial","name":"Bayerngrab","name:fr":"Tombe Bavaroise"}},
{"type":"Feature","geometry":{"type":"Point","coordinates":[7.5127301,48.911462]},"properties":{"ele":"367","name":"Buchwalderkopf","natural":"peak"}},
{"type":"Feature","geometry":{"type":"Point","coordinates":[7.4973251,48.9162925]},"properties":{"ele":"326","name":"Le Schaenzel","name:de":"Schänzel","natural":"peak"}},
{"type":"Feature","geometry":{"type":"Point","coordinates":[7.5476774,48.9150896]},"properties":{"ele":"374","name":"Matzenstein","natural":"peak"}},
{"type":"Feature","geometry":{"type":"Point","coordinates":[7.5052063,48.9155586]},"properties":{"ele":"368","name":"Rothkopf","natural":"peak"}},
{"type":"Feature","geometry":{"type":"Point","coordinates":[7.5206244,48.908259]},"properties":{"name":"Scheibenberg","natural":"peak"}},
{"type":"Feature","geometry":{"type":"Point","coordinates":[7.5576362,48.9208891]},"properties":{"ele":"409","natural":"peak"}},
{"type":"Feature","geometry":{"type":"Point","coordinates":[7.4657516,48.9067112]},"properties":{"name":"Bellenberg","natural":"peak"}},
{"type":"Feature","geometry":{"type":"Point","coordinates":[7.4650043,48.9272681]},"properties":{"ele":"306","name":"Buxenberg","natural":"peak"}},
{"type":"Feature","geometry":{"type":"Point","coordinates":[7.5026176,48.9425531]},"properties":{"ele":"415","name":"Dietrichskopf","natural":"peak","source":"Führer und Karte zu den Sehenswuerdigkeiten des Wasgaubades Niederbronn;IGN"}},
{"type":"Feature","geometry":{"type":"Point","coordinates":[7.4606161,48.9117307]},"properties":{"ele":"349","name":"Hagelsberg","natural":"peak"}},
{"type":"Feature","geometry":{"type":"Point","coordinates":[7.529926,48.9558012]},"properties":{"ele":"342","name":"Hausberg","natural":"peak","source":"Karte der Vogesen im Massstabe 1:50 000;IGN"}},
{"type":"Feature","geometry":{"type":"Point","coordinates":[7.4797838,48.9537283]},"properties":{"ele":"423","name":"Hoch Ebersberg","natural":"peak","source":"IGN"}},
{"type":"Feature","geometry":{"type":"Point","coordinates":[7.5096622,48.9612823]},"properties":{"ele":"410","name":"Hohe Ehl","name:de":"Hohöl","natural":"peak","source":"Karte der Vogesen im Massstabe 1:50 000;IGN"}},
{"type":"Feature","geometry":{"type":"Point","coordinates":[7.5123668,48.9708751]},"properties":{"ele":"300","name":"Huettenberg","name:de":"Hüttenberg","natural":"peak","note":"The IGN map puts it further northwest.","source":"Cadastre 1838"}},
{"type":"Feature","geometry":{"type":"Point","coordinates":[7.5089322,48.9569087]},"properties":{"ele":"368","fixme":"Probably mistaken by the source with the other Huettenberg located just a bit north.","name":"Huettenberg","name:de":"Hüttenberg","name:fr":"Huttenberg","natural":"peak","source":"IGN"}},
{"type":"Feature","geometry":{"type":"Point","coordinates":[7.4339677,48.9184707]},"properties":{"name":"Kienberg","natural":"peak"}},
{"type":"Feature","geometry":{"type":"Point","coordinates":[7.4481953,48.9290706]},"properties":{"ele":"362","name":"Kirchberg","natural":"peak"}},
{"type":"Feature","geometry":{"type":"Point","coordinates":[7.5069412,48.9747436]},"properties":{"ele":"328","name":"Kirchberg","natural":"peak"}},
{"type":"Feature","geometry":{"type":"Point","coordinates":[7.4949135,48.9591797]},"properties":{"ele":"401","name":"Muehlberg","name:de":"Mühlberg","natural":"peak","source":"Karte der Vogesen im Massstabe 1:50 000;IGN"}},
{"type":"Feature","geometry":{"type":"Point","coordinates":[7.4618342,48.9425096]},"properties":{"name":"Petit Schweintich","natural":"peak"}},
{"type":"Feature","geometry":{"type":"Point","coordinates":[7.518786,48.9588133]},"properties":{"ele":"384","name":"Schwarzenberg","natural":"peak","source":"Karte der Vogesen im Massstabe 1:50 000;IGN"}},
{"type":"Feature","geometry":{"type":"Point","coordinates":[7.459999,48.9449916]},"properties":{"alt_name":"Schweintich","ele":"389","name":"Schweinestich","natural":"peak"}},
{"type":"Feature","geometry":{"type":"Point","coordinates":[7.4948681,48.9289957]},"properties":{"ele":"285","natural":"peak"}},
{"type":"Feature","geometry":{"type":"Point","coordinates":[7.4699049,48.9369871]},"properties":{"ele":"304","natural":"peak"}},
{"type":"Feature","geometry":{"type":"Point","coordinates":[7.4877983,48.9391725]},"properties":{"ele":"328","natural":"peak"}},
{"type":"Feature","geometry":{"type":"Point","coordinates":[7.4726584,48.9408095]},"properties":{"ele":"337","natural":"peak"}},
{"type":"Feature","geometry":{"type":"Point","coordinates":[7.5134954,48.9420569]},"properties":{"ele":"405","natural":"peak"}},
{"type":"Feature","geometry":{"type":"Point","coordinates":[7.4860996,48.9422015]},"properties":{"ele":"335","natural":"peak"}},
{"type":"Feature","geometry":{"type":"Point","coordinates":[7.485542,48.9448531]},"properties":{"ele":"339","natural":"peak"}},
{"type":"Feature","geometry":{"type":"Point","coordinates":[7.4752073,48.9483766]},"properties":{"ele":"412","natural":"peak"}},
{"type":"Feature","geometry":{"type":"Point","coordinates":[7.4854024,48.9516475]},"properties":{"ele":"418","fixme":"Named probably misspelled by the source. And even miscopied on this map.","name":"Eckmannsberg","natural":"peak","source":"Cadastre 1838"}},
{"type":"Feature","geometry":{"type":"Point","coordinates":[7.4815907,48.9634572]},"properties":{"ele":"414","natural":"peak"}},
{"type":"Feature","geometry":{"type":"Point","coordinates":[7.5010838,48.9679488]},"properties":{"ele":"415","natural":"peak"}},
{"type":"Feature","geometry":{"type":"Point","coordinates":[7.4950003,48.9463312]},"properties":{"ele":"364","natural":"peak"}},
{"type":"Feature","geometry":{"type":"Point","coordinates":[7.4503561,48.9752456]},"properties":{"ele":"336","name":"Bocksberg","name:de":"Bockskopf","name:fr":"Boxberg","natural":"peak","source":"Karte der Vogesen im Massstabe 1:50 000;IGN"}},
{"type":"Feature","geometry":{"type":"Point","coordinates":[7.4073295,48.9349288]},"properties":{"ele":"375","name":"Hinter Horstberg","natural":"peak"}},
{"type":"Feature","geometry":{"type":"Point","coordinates":[7.4064858,48.9283728]},"properties":{"ele":"373","name":"Hochkopf","natural":"peak"}},
{"type":"Feature","geometry":{"type":"Point","coordinates":[7.4078393,48.9232408]},"properties":{"ele":"324","name":"Horstberg","natural":"peak"}},
{"type":"Feature","geometry":{"type":"Point","coordinates":[7.3906368,48.9128449]},"properties":{"ele":"308","name":"Kirchberg","natural":"peak"}},
{"type":"Feature","geometry":{"type":"Point","coordinates":[7.4153283,48.9741577]},"properties":{"ele":"414","name":"Lehmenkopf","natural":"peak","source":"IGN"}},
{"type":"Feature","geometry":{"type":"Point","coordinates":[7.4405648,48.9811542]},"properties":{"ele":"323","name":"Muehlenkopf","name:de":"Mühlenkopf","natural":"peak","source":"Karte der Vogesen im Massstabe 1:50 000;IGN","source:url":"http://gallica.bnf.fr/ark:/12148/btv1b10223996p"}},
{"type":"Feature","geometry":{"type":"Point","coordinates":[7.4083778,48.9698722]},"properties":{"ele":"309","name":"Steingleisel","natural":"peak","source":"IGN"}},
{"type":"Feature","geometry":{"type":"Point","coordinates":[7.4002925,48.9751796]},"properties":{"ele":"393","name":"Tannenberg","natural":"peak","source":"IGN"}},
{"type":"Feature","geometry":{"type":"Point","coordinates":[7.3769963,48.9104598]},"properties":{"ele":"314","natural":"peak"}},
{"type":"Feature","geometry":{"type":"Point","coordinates":[7.4201225,48.9189452]},"properties":{"ele":"308","natural":"peak"}},
{"type":"Feature","geometry":{"type":"Point","coordinates":[7.4220893,48.9235837]},"properties":{"ele":"333","name":"Rebberg","natural":"peak"}},
{"type":"Feature","geometry":{"type":"Point","coordinates":[7.4222709,48.9287249]},"properties":{"ele":"359","natural":"peak"}},
{"type":"Feature","geometry":{"type":"Point","coordinates":[7.4301083,48.9753299]},"properties":{"ele":"340","natural":"peak","source":"IGN"}},
{"type":"Feature","geometry":{"type":"Point","coordinates":[7.421177,48.9797247]},"properties":{"ele":"423","name":"Hollaenderberg","name:de":"Holländerberg","natural":"peak","note":"Source : Carte du Comté de Bitche levée par le Sr. Jaquet, chevalier de l'ordre militaire de St. Louis et aide major des ville et château de Bitche en l'année 1749","source":"Carte du comté de Bitche 1749;IGN"}},
{"type":"Feature","geometry":{"type":"Point","coordinates":[7.4073644,48.9804325]},"properties":{"ele":"410","natural":"peak"}},
{"type":"Feature","geometry":{"type":"Point","coordinates":[7.4254571,48.9823515]},"properties":{"ele":"406","natural":"peak"}},
{"type":"Feature","geometry":{"type":"Point","coordinates":[7.3815838,48.9506062]},"properties":{"ele":"418","name":"Kaesberg","natural":"peak"}},
{"type":"Feature","geometry":{"type":"Point","coordinates":[7.3800444,48.928223]},"properties":{"ele":"343","natural":"peak"}},
{"type":"Feature","geometry":{"type":"Point","coordinates":[7.3802685,48.9375128]},"properties":{"ele":"381","natural":"peak"}},
{"type":"Feature","geometry":{"type":"Point","coordinates":[7.4044337,48.9457399]},"properties":{"ele":"391","natural":"peak"}},
{"type":"Feature","geometry":{"type":"Point","coordinates":[7.5383832,48.9671483]},"properties":{"ele":"366","name":"Grasberg","natural":"peak"}},
{"type":"Feature","geometry":{"type":"Point","coordinates":[7.5555384,48.9884115]},"properties":{"ele":"299","name":"Hausberg","natural":"peak","wikidata":"Q31674791"}},
{"type":"Feature","geometry":{"type":"Point","coordinates":[7.5458213,48.9782934]},"properties":{"ele":"359","name":"Lindenkopf","natural":"peak","source":"Führer und Karte zu den Sehenswuerdigkeiten des Wasgaubades Niederbronn;IGN"}},
{"type":"Feature","geometry":{"type":"Point","coordinates":[7.5724099,48.9666432]},"properties":{"ele":"435","natural":"peak"}},
{"type":"Feature","geometry":{"type":"Point","coordinates":[7.5644227,48.9649389]},"properties":{"ele":"431","name":"Schlangenberg","natural":"peak","source":"Carte des Vosges à l'échelle 1/50 000"}},
{"type":"Feature","geometry":{"type":"Point","coordinates":[7.5589996,48.9679001]},"properties":{"ele":"433","name":"Teufelsberg","natural":"peak","source":"Carte des Vosges à l'échelle 1/50 000"}},
{"type":"Feature","geometry":{"type":"Point","coordinates":[7.5410295,48.9699635]},"properties":{"ele":"363","natural":"peak"}},
{"type":"Feature","geometry":{"type":"Point","coordinates":[7.5511856999999999,48.9746175]},"properties":{"ele":"335","natural":"peak"}},
{"type":"Feature","geometry":{"type":"Point","coordinates":[7.5811457,48.97955]},"properties":{"ele":"427","natural":"peak"}},
{"type":"Feature","geometry":{"type":"Point","coordinates":[7.5720817,48.9842206]},"properties":{"ele":"306","name":"Muehlkoepfel","name:de":"Mühlköpfel","natural":"peak","source":"Carte des Vosges à l'échelle 1/50 000"}},
{"type":"Feature","geometry":{"type":"Point","coordinates":[7.5689757,48.9903135]},"properties":{"ele":"302","name":"Weiherskoepfel","name:de":"Weihersköpfel","natural":"peak","source":"IGN"}},
{"type":"Feature","geometry":{"type":"Point","coordinates":[7.4550255,48.9583521]},"properties":{"ele":"381","name":"Badbronneneck","natural":"peak"}},
{"type":"Feature","geometry":{"type":"Point","coordinates":[7.4350196,48.9483757]},"properties":{"ele":"356","name":"Forlenkopf","natural":"peak"}},
{"type":"Feature","geometry":{"type":"Point","coordinates":[7.4255061,48.9562159]},"properties":{"ele":"404","name":"Le Hochburg","name:de":"Hochburg","natural":"peak"}},
{"type":"Feature","geometry":{"type":"Point","coordinates":[7.4273888,48.9592172]},"properties":{"ele":"412","name":"Le Spitzeck","name:de":"Spitzeck","natural":"peak"}},
{"type":"Feature","geometry":{"type":"Point","coordinates":[7.4545205,48.953885]},"properties":{"name":"Rundenkopf","natural":"peak"}},
{"type":"Feature","geometry":{"type":"Point","coordinates":[7.4342333,48.9538396]},"properties":{"ele":"404","name":"Tannenkopf","natural":"peak"}},
{"type":"Feature","geometry":{"type":"Point","coordinates":[7.4651145,48.9547314]},"properties":{"ele":"347","natural":"peak"}},
{"type":"Feature","geometry":{"type":"Point","coordinates":[7.4146118,48.9586159]},"properties":{"ele":"405","natural":"peak"}},
{"type":"Feature","geometry":{"type":"Point","coordinates":[7.5709755,48.9545183]},"properties":{"name":"Gruenschaft","name:de":"Grünschaft","source":"survey","tourism":"picnic_site"}},
{"type":"Feature","geometry":{"type":"Point","coordinates":[7.5656578,48.9616241]},"properties":{"ele":"296","image":"https://nsm01.casimages.com/img/2009/02/20//090220070805180123183088.jpg","name":"Col du Schlangenthal","name:de":"Schlangentaler Hals","name:en":"Schlangenthal pass","natural":"saddle","source":"Karte der Vogesen im Massstabe 1:50 000;Club vosgien"}},
{"type":"Feature","geometry":{"type":"Point","coordinates":[7.5511056,49.0232479]},"properties":{"addr:city":"Éguelshardt","addr:postcode":"57230","name":"Erbsenfelsen","name:de":"Erbsenfelsen","name:en":"Erbsenfelsen Rock","name:fr":"Rocher de l'Erbsenfelsen","tourism":"attraction","wheelchair":"no"}},
{"type":"Feature","geometry":{"type":"Point","coordinates":[7.4072061,48.9585179]},"properties":{"description":"Croix élevée en 1864 (date portée), à l'emplacement où Christiana Jonas, femme de Christophe Altenburger, fut tuée par la chute d'un arbre. Restaurée vers 1982, se trouve à la limite de la Lorraine et de l'Alsace.","historic":"wayside_cross","inscription":"Hier an diesem Orte erhielt Christina Jonas, Ehefrau von Cristoph Altenbürger plotzlich von eim Baum getroffen, ihren Todtes Streich, der Her hat vollzogen was ersagt der Mensch weiß sein Ende nicht - ihr alle die vorubergehet, haltet euch bereit, denn...","name":"Croix Stoffel","name:de":"Stoffel Kreuz","name:en":"Stoffel Cross","source":"IGN","start_date":"1864","tourism":"attraction","website":"http://img.over-blog-kiwi.com/0/42/75/65/20170317/ob_2ba493_20170316-141849.jpg"}},
{"type":"Feature","geometry":{"type":"Point","coordinates":[7.4870109,48.9206068]},"properties":{"board_type":"history","check_date":"2021-03-03","information":"board","tourism":"information"}},
{"type":"Feature","geometry":{"type":"Point","coordinates":[7.4860522,48.9207698]},"properties":{"tourism":"picnic_site"}},
{"type":"Feature","geometry":{"type":"Point","coordinates":[7.4858751,48.9210527]},"properties":{"tourism":"viewpoint"}},
{"type":"Feature","geometry":{"type":"Point","coordinates":[7.4858609,48.9210085]},"properties":{"tourism":"picnic_site"}},
{"type":"Feature","geometry":{"type":"Point","coordinates":[7.521648,48.9834783]},"properties":{"name":"Galerie Militaire","natural":"cave_entrance"}},
{"type":"Feature","geometry":{"type":"Point","coordinates":[7.463799,48.9617709]},"properties":{"ele":"340","mountain_pass":"yes","name":"Col du Kammbuehl","name:de":"Kammbühler Hals","name:en":"Kammbuehl pass","name:fr":"Col du Kammbuhl","natural":"saddle"}},
{"type":"Feature","geometry":{"type":"Point","coordinates":[7.5055546,48.9816373]},"properties":{"leisure":"fishing","name":"Étang de Baerenthal","name:de":"Bärentaler Weiher"}},
{"type":"Feature","geometry":{"type":"Point","coordinates":[7.5062083,48.9811955]},"properties":{"tourism":"picnic_site"}},
{"type":"Feature","geometry":{"type":"Point","coordinates":[7.5063112,48.9813607]},"properties":{"tourism":"picnic_site"}},
{"type":"Feature","geometry":{"type":"Point","coordinates":[7.5064847,48.9815901]},"properties":{"tourism":"picnic_site"}},
{"type":"Feature","geometry":{"type":"Point","coordinates":[7.5203217,48.9816972]},"properties":{"fixme":"displayed information","hiking":"yes","information":"guidepost","operator":"Club vosgien Baerenthal","source":"Club vosgien Baerenthal;streetlevel imagery;survey","tourism":"information"}},
{"type":"Feature","geometry":{"type":"Point","coordinates":[7.5066395,48.9819335]},"properties":{"waterway":"weir"}},
{"type":"Feature","geometry":{"type":"Point","coordinates":[7.5251127,48.9906007]},"properties":{"direction":"355","tourism":"viewpoint"}},
{"type":"Feature","geometry":{"type":"Point","coordinates":[7.5227663,48.9845845]},"properties":{"natural":"cave_entrance"}},
{"type":"Feature","geometry":{"type":"Point","coordinates":[7.5226935,48.9846368]},"properties":{"tourism":"viewpoint"}},
{"type":"Feature","geometry":{"type":"Point","coordinates":[7.5455564,49.0660062]},"properties":{"tourism":"viewpoint"}},
{"type":"Feature","geometry":{"type":"Point","coordinates":[7.5386868,49.0084812]},"properties":{"name":"Hôtel Beau-Rivage","tourism":"hotel"}},
{"type":"Feature","geometry":{"type":"Point","coordinates":[7.5479995,49.0228868]},"properties":{"name":"L'Arche de Grès","tourism":"attraction","wheelchair":"no"}},
{"type":"Feature","geometry":{"type":"Point","coordinates":[7.526303,49.0170346]},"properties":{"tourism":"viewpoint"}},
{"type":"Feature","geometry":{"type":"Point","coordinates":[7.5266626,49.0174868]},"properties":{"tourism":"viewpoint"}},
{"type":"Feature","geometry":{"type":"Point","coordinates":[7.5272353,49.0179594]},"properties":{"natural":"cave_entrance"}},
{"type":"Feature","geometry":{"type":"Point","coordinates":[7.5495002,49.0230601]},"properties":{"format":"squared_stone","format:top":"flat","historic":"boundary_stone","inscription":"302 / 309"}},
{"type":"Feature","geometry":{"type":"Point","coordinates":[7.3967628,49.0414893]},"properties":{"historic":"wayside_cross","name":"Croix de Schimbeck","name:de":"Schimbecker Kreuz"}},
{"type":"Feature","geometry":{"type":"Point","coordinates":[7.3722645,49.0367444]},"properties":{"historic":"wayside_cross","name":"Lauers Kreuz","source":"IGN"}},
{"type":"Feature","geometry":{"type":"Point","coordinates":[7.4066469,49.0089805]},"properties":{"addr:city":"Mouterhouse","addr:postcode":"57620","description":"Stone memorial carved by a member of the Club vosgien Lemberg in 1995 and erected on the spot of soldier Maurice Lloyd's foxhole. Officially inaugurated in September of the same year, in presence of the main civilian, military and religious figures (...)","historic":"memorial","inscription":"VII ARMEE U.S CENTURY","memorial":"war_memorial","name":"Stèle américaine","name:de":"Amerikanische Saüle","name:en":"American stele","note":"In 1976 someone from Lemberg discovered Maurice E. Lloyd's remains on this site. The army dates his death to January 1st 1945, during a German counter-attack. Pfc. Lloyd's division was holding ground on the east-side of the Bitche-Lemberg railway line.","source":"Club vosgien Lemberg;survey","start_date":"1995","website":"https://www.club-vosgien-lemberg.net"}},
{"type":"Feature","geometry":{"type":"Point","coordinates":[7.4056519,49.0047387]},"properties":{"description":"Niedriger Unterstand (man kann dort nicht aufrecht gehen).","ele":"380","fee":"no","name":"Grotte du Krippenfelsen","name:de":"Krippenfelsenhöhle","natural":"cave_entrance","note":"Auf dem „Grottenrundgang“ : Chorfelsen – Hasslingerfelsen – (man muß unbedingt den Waldweg verlassen, sobald der markierte Pfad zum Abhang hin  davon abzeigt!).","source":"Club vosgien Lemberg;ritterstein.de"}},
{"type":"Feature","geometry":{"type":"Point","coordinates":[7.4177517,49.0165546]},"properties":{"historic":"tomb","name":"Tombe Russe","name:de":"Russische Grabsteine","name:en":"Russian Grave","source":"Club vosgien Lemberg","tomb":"tombstone"}},
{"type":"Feature","geometry":{"type":"Point","coordinates":[7.4156159,49.0136784]},"properties":{"ele":"420","historic":"wayside_cross","name":"Croix Saint-Hubert","name:de":"St. Hubertus Kreuz","name:en":"St. Hubertus Cross","source":"Club vosgien Lemberg"}},
{"type":"Feature","geometry":{"type":"Point","coordinates":[7.3982629,49.0013632]},"properties":{"description":"Wand zur Höhe eines sehr langen Abhangs hin. Der Rand des Unterstandes ist teilweise durch große Geröll verschlossen. In der Mitte, auf dem Boden, befinden sich wahrscheinlich alte Eingravierungen.","fee":"no","name":"Grotte du Chorfelsen","name:de":"Chorfelsenhöhle","natural":"cave_entrance","note":"Häufige Besetzungen: zahlreiche Objekte und einige nicht näher bestimmte Einrichtugsgegenstände. Zufluchtsort der Einwohner von Lemberg während des 1870- er Krieges. Auch Korrfelsen geschrieben.","source":"ritterstein.de"}},
{"type":"Feature","geometry":{"type":"Point","coordinates":[7.3620686,48.9265922]},"properties":{"name":"Musée Lalique","opening_hours":"Mo-Su 10:00-19:00","phone":"+33 3 88 89 08 14","ref:FR:museofile":"M1162","source":"Ministère de la Culture - Muséofile - 09/2019","toilets:wheelchair":"yes","tourism":"museum","website":"https://www.musee-lalique.com","wheelchair":"yes","wikidata":"Q3329234","wikipedia":"fr:Musée Lalique"}},
{"type":"Feature","geometry":{"type":"Point","coordinates":[7.44709,48.9240765]},"properties":{"board_type":"nature","information":"board","tourism":"information"}},
{"type":"Feature","geometry":{"type":"Point","coordinates":[7.4248154,49.0507853]},"properties":{"information":"office","tourism":"information"}},
{"type":"Feature","geometry":{"type":"Point","coordinates":[7.384,49.0104]},"properties":{"alt_name:fr":"Le Schwalbach","name":"Schwalb","natural":"spring","ref:sandre":"A93-0220"}},
{"type":"Feature","geometry":{"type":"Point","coordinates":[7.3738,49.0895]},"properties":{"name":"Ruisseau Backelbach","natural":"spring"}},
{"type":"Feature","geometry":{"type":"Point","coordinates":[7.3869866,49.0584858]},"properties":{"name":"Flegelsbrunnen","name:de":"Source du Flegelsbach","natural":"spring","source":"Cadastre 1838;IGN"}},
{"type":"Feature","geometry":{"type":"Point","coordinates":[7.3595,49.0698]},"properties":{"name":"Ruisseau Herschbach","natural":"spring"}},
{"type":"Feature","geometry":{"type":"Point","coordinates":[7.359474,49.089544]},"properties":{"name":"Ruisseau Korbach","natural":"spring","ref:sandre":"A9340940"}},
{"type":"Feature","geometry":{"type":"Point","coordinates":[7.3803,49.0806]},"properties":{"name":"Ruisseau Scheberbach","natural":"spring"}},
{"type":"Feature","geometry":{"type":"Point","coordinates":[7.3967,49.0158]},"properties":{"name":"Schwangerbach","name:de":"Quelle Schwangerbach","name:fr":"Ruisseau Schwangerbach","natural":"spring"}},
{"type":"Feature","geometry":{"type":"Point","coordinates":[7.371,49.0762]},"properties":{"name":"Ruisseau de Bitche","natural":"spring","ref:sandre":"PK 997974"}},
{"type":"Feature","geometry":{"type":"Point","coordinates":[7.3702418,49.0583906]},"properties":{"name":"Ruisseau du Grossthal","natural":"spring"}},
{"type":"Feature","geometry":{"type":"Point","coordinates":[7.3746429,49.0649267]},"properties":{"name":"Ruisseau du Kleinthal","natural":"spring"}},
{"type":"Feature","geometry":{"type":"Point","coordinates":[7.4862746,48.9208634]},"properties":{"tourism":"viewpoint"}},
{"type":"Feature","geometry":{"type":"Point","coordinates":[7.4878273,48.92121]},"properties":{"natural":"tree"}},
{"type":"Feature","geometry":{"type":"Point","coordinates":[7.487668,48.921395]},"properties":{"fireplace":"no","tourism":"picnic_site"}},
{"type":"Feature","geometry":{"type":"Point","coordinates":[7.4822459,48.9214047]},"properties":{"amenity":"restaurant","cuisine":"regional","name":"Au Château","tourism":"hotel"}},
{"type":"Feature","geometry":{"type":"Point","coordinates":[7.4871072,48.9212219]},"properties":{"information":"map","map_type":"toposcope","tourism":"information"}},
{"type":"Feature","geometry":{"type":"Point","coordinates":[7.5432342,48.9072052]},"properties":{"access":"yes","leisure":"playground"}},
{"type":"Feature","geometry":{"type":"Point","coordinates":[7.575542,49.0245538]},"properties":{"castle_type":"defensive","historic":"castle","name":"Château de Rothenbourg","name:de":"Rothenburg","name:en":"Rothenburg Castle","opening_hours":"24/7","ruins":"yes","wheelchair":"no","wikidata":"Q179549","wikipedia":"fr:Château de Rothenbourg","wikipedia:de":"Rothenburg (Lothringen)"}},
{"type":"Feature","geometry":{"type":"Point","coordinates":[7.5685671,49.0051917]},"properties":{"historic":"ruins","historic:civilization":"middle-ages","name":"Ruines du château du Helfenstein","name:de":"Burgruine Helfenstein","name:en":"Helfenstein Castle ruines","ruins":"yes","wikidata":"Q939432","wikipedia":"fr:Château du Helfenstein"}},
{"type":"Feature","geometry":{"type":"Point","coordinates":[7.5798733,49.0834828]},"properties":{"description":"Südlich Eppenbrunn am Nordwesthang des Erlenkopfes. Untergegangene Siedlung am Erlenkopf südlich von Eppenbrunn.","historic":"memorial","image":"https://upload.wikimedia.org/wikipedia/commons/9/9a/Ritterstein_195_Ehemals_Erlenkopfer-Hof.JPG","inscription":"EHEMALS \nERLENKOPFER-HOF \nP.W.V.","material":"sandstone","memorial":"stone","name":"Ritterstein 195 \"Ehemals Erlenkopfer-Hof\"","ref":"195","source:name":"Nummer der Literatur entnommen: W. Eitelmann & E. Kimmel - Rittersteine im Pfälzerwald","tourism":"attraction","wikidata":"Q1850870","wikipedia":"de:Liste der Rittersteine"}},
{"type":"Feature","geometry":{"type":"Point","coordinates":[7.4152452,48.9122042]},"properties":{"historic":"wayside_shrine","religion":"christian"}},
{"type":"Feature","geometry":{"type":"Point","coordinates":[7.4966618,49.0101877]},"properties":{"historic":"wayside_cross","source":"Direction Générale des Finances Publiques - cadastre. Mise à jour 2013"}},
{"type":"Feature","geometry":{"type":"Point","coordinates":[7.4916355,49.0188254]},"properties":{"historic":"wayside_cross"}},
{"type":"Feature","geometry":{"type":"Point","coordinates":[7.4911925,49.0210782]},"properties":{"historic":"wayside_cross"}},
{"type":"Feature","geometry":{"type":"Point","coordinates":[7.5616027,49.1135661]},"properties":{"waterway":"weir"}},
{"type":"Feature","geometry":{"type":"Point","coordinates":[7.5826432,49.0827217]},"properties":{"ele":"472","name":"Erlenkopf","natural":"peak","wikidata":"Q31547920"}},
{"type":"Feature","geometry":{"type":"Point","coordinates":[7.5700718,49.0819552]},"properties":{"natural":"spring"}},
{"type":"Feature","geometry":{"type":"Point","coordinates":[7.5784034,49.0849595]},"properties":{"natural":"spring"}},
{"type":"Feature","geometry":{"type":"Point","coordinates":[7.5593441,49.0857191]},"properties":{"natural":"spring"}},
{"type":"Feature","geometry":{"type":"Point","coordinates":[7.5806066,49.0887574]},"properties":{"natural":"spring"}},
{"type":"Feature","geometry":{"type":"Point","coordinates":[7.5778757,49.0890423]},"properties":{"natural":"spring"}},
{"type":"Feature","geometry":{"type":"Point","coordinates":[7.577348,49.0890726]},"properties":{"natural":"spring"}},
{"type":"Feature","geometry":{"type":"Point","coordinates":[7.5584045,49.0894791]},"properties":{"waterway":"weir"}},
{"type":"Feature","geometry":{"type":"Point","coordinates":[7.5517443,49.0884746]},"properties":{"ele":"353","name":"Schwarzerd","natural":"peak"}},
{"type":"Feature","geometry":{"type":"Point","coordinates":[7.5550872,49.0845746]},"properties":{"ele":"419","name":"Staffelskopf","natural":"peak","wikidata":"Q31394452"}},
{"type":"Feature","geometry":{"type":"Point","coordinates":[7.5249799,49.1070904]},"properties":{"ele":"402.8","name":"Obere Höhe","natural":"peak","wikidata":"Q32152115"}},
{"type":"Feature","geometry":{"type":"Point","coordinates":[7.3776439,49.0162357]},"properties":{"ele":"365","name":"Col des deux Schlossberg","name:de":"Zwei-Schlossbergen-Pass","name:en":"Two Schlossberg Pass","natural":"saddle","source":"Club vosgien Lemberg;IGN"}},
{"type":"Feature","geometry":{"type":"Point","coordinates":[7.3783935,49.0176649]},"properties":{"natural":"spring","source":"IGN"}},
{"type":"Feature","geometry":{"type":"Point","coordinates":[7.3862277,49.0215831]},"properties":{"ele":"320","name":"Rocher des 3 Figures","name:de":"Dreibilderfels","name:en":"Three Faces Rock","source":"Club vosgien","tourism":"attraction"}},
{"type":"Feature","geometry":{"type":"Point","coordinates":[7.5323282,49.0987184]},"properties":{"description":"Modellierter Baumstamm","name":"Himmelsblick","tourism":"attraction"}},
{"type":"Feature","geometry":{"type":"Point","coordinates":[7.4300861,49.0524845]},"properties":{"name":"Citadelle de Bitche","tourism":"viewpoint","wheelchair":"no"}},
{"type":"Feature","geometry":{"type":"Point","coordinates":[7.4293388,49.0518092]},"properties":{"direction":"SSE","historic":"cannon"}},
{"type":"Feature","geometry":{"type":"Point","coordinates":[7.428972,49.0521665]},"properties":{"direction":"NNW","historic":"cannon"}},
{"type":"Feature","geometry":{"type":"Point","coordinates":[7.4304445,49.0528458]},"properties":{"direction":"NNW","historic":"cannon"}},
{"type":"Feature","geometry":{"type":"Point","coordinates":[7.5902718,48.9197015]},"properties":{"denomination":"catholic","historic":"wayside_cross","name":"calvaire","religion":"christian","source":"cadastre-dgi-fr source : Direction Générale des Impôts - Cadastre. Mise à jour : 2013"}},
{"type":"Feature","geometry":{"type":"Point","coordinates":[7.3715861,49.0587349]},"properties":{"entrance":"main"}},
{"type":"Feature","geometry":{"type":"Point","coordinates":[7.5765322,49.0259865]},"properties":{"abandoned":"yes","building":"bunker","bunker_type":"Infantriekasematte_mit_GFM_Glocke","description":"Casemate double CORF - Ligne Maginot","disused":"yes","historic":"yes","military":"bunker","name":"Ligne Maginot Rothenbourg","opening_hours":"24/7","wheelchair":"limited"}},
{"type":"Feature","geometry":{"type":"Point","coordinates":[7.4020071,49.0489477]},"properties":{"historic":"wayside_cross"}},
{"type":"Feature","geometry":{"type":"Point","coordinates":[7.427397,49.0483376]},"properties":{"historic":"memorial"}},
{"type":"Feature","geometry":{"type":"Point","coordinates":[7.5312821,49.0977651]},"properties":{"bench":"yes","description":"2 Sitzgarnituren, gestiftet vom Fremdenverkehrs- und Kneippverein Eppenbrunn","leisure":"picnic_table","lit":"no","material":"wood"}},
{"type":"Feature","geometry":{"type":"Point","coordinates":[7.5312675,49.0977434]},"properties":{"tourism":"viewpoint"}},
{"type":"Feature","geometry":{"type":"Point","coordinates":[7.5293305,49.1021917]},"properties":{"board_type":"history","information":"board","name":"Das Dianabild - l'image / le portrait de Diane","name:de":"Das Dianabild","name:fr":"l'image / le portrait de Diane","tourism":"information"}},
{"type":"Feature","geometry":{"type":"Point","coordinates":[7.5234191,49.1059441]},"properties":{"denomination":"roman_catholic","historic":"wayside_cross","inscription":"Dieses Kreuz ist aufgerichtet worden zum Lob Gottes durch Friedrich Schunk Ehemann von Magdalena Bertel von Liederschiedt 1859","start_date":"1859"}},
{"type":"Feature","geometry":{"type":"Point","coordinates":[7.3715076,49.0587534]},"properties":{"email":"resa.simserhof@cc-paysdebitche.fr","museum":"history","name":"Simserhof","phone":"+33 3 87 96 39 40","tourism":"museum"}},
{"type":"Feature","geometry":{"type":"Point","coordinates":[7.4114386,49.0622055]},"properties":{"building":"bunker","bunker_type":"gun_emplacement","description":"Bloc d'ouvrage Maginot - 2x81mm + 1 GFM + 1 JM","military":"bunker","name":"B4"}},
{"type":"Feature","geometry":{"type":"Point","coordinates":[7.407158,49.0612919]},"properties":{"building":"bunker","bunker_type":"gun_emplacement","description":"Bloc d'ouvrage Maginot - Tourelle de 81mm + 1 GFM + 1 JM","military":"bunker","name":"B1"}},
{"type":"Feature","geometry":{"type":"Point","coordinates":[7.410221,49.0619963]},"properties":{"building":"bunker","bunker_type":"bloc d'infanterie","description":"Bloc d'ouvrage Maginot - Tourelle mitrailleuses + 1 GFM","military":"bunker","name":"Schiesseck - B6"}},
{"type":"Feature","geometry":{"type":"Point","coordinates":[7.4092654,49.0631774]},"properties":{"building":"bunker","bunker_type":"bloc d'infanterie","description":"Bloc d'ouvrage Maginot - Casemate d'infanterie simple flanquant gauche + 1 GFM, 2 JM et 1 VDP","military":"bunker","name":"B2"}},
{"type":"Feature","geometry":{"type":"Point","coordinates":[7.4115828,49.0637049]},"properties":{"building":"bunker","bunker_type":"bloc d'infanterie","description":"Bloc d'ouvrage Maginot - casemate cuirassée - 1GFM + 2 JM","military":"bunker","name":"B3"}},
{"type":"Feature","geometry":{"type":"Point","coordinates":[7.4121085,49.0615046]},"properties":{"building":"bunker","bunker_type":"bloc d'infanterie","description":"Bloc d'ouvrage Maginot - Casemate cuirassée flanquant droit - 2 GFM + 1 JM","military":"bunker","name":"B5"}},
{"type":"Feature","geometry":{"type":"Point","coordinates":[7.5530586,49.0618773]},"properties":{"ele":"418","name":"Fahnen Eiche","tourism":"viewpoint"}},
{"type":"Feature","geometry":{"type":"Point","coordinates":[7.4187504,48.9102702]},"properties":{"heritage:operator":"mhs","mhs:inscription_date":"1984","name":"Maison Scherer et moulin à huile","ref:mhs":"PA00085237","source":"data.gouv.fr:Ministère de la Culture - 08/2011","tourism":"attraction","wikidata":"Q15952836","wikipedia":"fr:Moulin à huile de Wimmenau"}},
{"type":"Feature","geometry":{"type":"Point","coordinates":[7.3711312,48.9232024]},"properties":{"historic":"memorial","memorial":"war_memorial","name":"Monument aux Morts"}},
{"type":"Feature","geometry":{"type":"Point","coordinates":[7.4656531,48.9322926]},"properties":{"name":"Les Sources de Reipertswiller","natural":"spring"}},
{"type":"Feature","geometry":{"type":"Point","coordinates":[7.4647011,48.9333512]},"properties":{"hiking":"yes","information":"map","map_size":"site","map_type":"scheme","tourism":"information"}},
{"type":"Feature","geometry":{"type":"Point","coordinates":[7.4634195,48.9315619]},"properties":{"historic":"wayside_cross"}},
{"type":"Feature","geometry":{"type":"Point","coordinates":[7.5610608,48.9671921]},"properties":{"ele":"380","mountain_pass":"yes","name":"Col du Grand Hirschthal","name:de":"Groß Hirschtaler Hals","name:en":"Great Hirschthal pass","natural":"saddle","source":"Club vosgien","website":"https://nsm01.casimages.com/img/2009/02/20//090220070806180123183100.jpg"}},
{"type":"Feature","geometry":{"type":"Point","coordinates":[7.4954342,49.082371]},"properties":{"barrier":"gate"}},
{"type":"Feature","geometry":{"type":"Point","coordinates":[7.4630552,48.9307198]},"properties":{"email":"contact@hotel-la-couronne-67.com","fax":"+33 3 88 89 98 22","internet_access":"wlan","internet_access:fee":"no","name":"La Couronne","phone":"+33 3 88 89 96 21","source":"cadastre-dgi-fr source : Direction Générale des Impôts - Cadastre. Mise à jour : 2013","stars":"2","tourism":"hotel","website":"http://www.hotel-la-couronne-67.com","wheelchair":"no"}},
{"type":"Feature","geometry":{"type":"Point","coordinates":[7.4816657,48.9217624]},"properties":{"historic":"memorial","memorial":"war_memorial","name":"Monument aux Morts"}},
{"type":"Feature","geometry":{"type":"Point","coordinates":[7.3944321,49.0010916]},"properties":{"addr:city":"Lemberg","addr:postcode":"57620","name":"Bildmuehlerthal","name:de":"Bildmühlertal","name:en":"Bildmuehle Valley","name:fr":"Vallée de la Bildmuehle","tourism":"picnic_site"}},
{"type":"Feature","geometry":{"type":"Point","coordinates":[7.3785474,49.001573]},"properties":{"historic":"wayside_cross","name":"Calvaire"}},
{"type":"Feature","geometry":{"type":"Point","coordinates":[7.3827655,49.0078014]},"properties":{"historic":"wayside_cross","name":"Calvaire"}},
{"type":"Feature","geometry":{"type":"Point","coordinates":[7.4004585,48.9970488]},"properties":{"description":"Am Grund des Unterstandes kleine Öffnung zum Gipfel hin. Innen recht feucht, besonders am Boden. In der Mitte, nach vorne zu, befindet sich in einer kleinen Spalte eine künstliche Höhle mit einer Statue. Kleine Eingravierungen auf dem Stein im Vordergrun","fee":"no","name":"Grotte du Hasslingerfelsen","name:de":"Hasslingerfelsenhöhle","natural":"cave_entrance","note":"Auf dem malerischen „Grottenrundgang“ : Krippenfelsen – Chorfelsen – Bildmühle – Wasserfelsen.  Im Dezember 1944 hatten sich wegen Kämpfen zur Befreiung von Lemberg ca. 30 Einwohner in diese „Grotte“ geflüchtet."}},
{"type":"Feature","geometry":{"type":"Point","coordinates":[7.5655065,49.0061071]},"properties":{"name":"Landersbergfelsen 1","name:en":"Landersberg Rock n°1","name:fr":"Rocher du Landersberg n°1","natural":"rock","source":"data.gouv.fr:Le ministère des droits des femmes, de la ville, de la jeunesse et des sports - 2014","sport":"climbing"}},
{"type":"Feature","geometry":{"type":"Point","coordinates":[7.5668635,49.0097985]},"properties":{"name":"Landersbergfelsen 2","name:en":"Landersberg Rock n°2","name:fr":"Rocher du Landersberg n°2","natural":"rock","source":"data.gouv.fr:Le ministère des droits des femmes, de la ville, de la jeunesse et des sports - 2014","sport":"climbing"}},
{"type":"Feature","geometry":{"type":"Point","coordinates":[7.3800037,49.000297]},"properties":{"addr:city":"Lemberg","addr:postcode":"57620","addr:street":"Rue de Mouterhouse","ele":"391","hiking":"yes","information":"guidepost","name":"Lemberg poste","operator":"Club vosgien Lemberg","source":"Club vosgien Lemberg","tourism":"information"}},
{"type":"Feature","geometry":{"type":"Point","coordinates":[7.5921945,48.9844853]},"properties":{"historic":"boundary_stone","inscription":"32","source":"survey"}},
{"type":"Feature","geometry":{"type":"Point","coordinates":[7.5295246,48.9741276]},"properties":{"access":"private","leisure":"playground"}},
{"type":"Feature","geometry":{"type":"Point","coordinates":[7.5288564,48.9746179]},"properties":{"access":"private","leisure":"playground","sport":"climbing"}},
{"type":"Feature","geometry":{"type":"Point","coordinates":[7.4541627,48.981359]},"properties":{"historic":"memorial","source":"Bing Sat"}},
{"type":"Feature","geometry":{"type":"Point","coordinates":[7.3773685,48.9939726]},"properties":{"ele":"393.8"}},
{"type":"Feature","geometry":{"type":"Point","coordinates":[7.4067226,48.9369878]},"properties":{"ele":"320","name":"Col de Kindsbronn","name:de":"Kindsbronnerpass","name:en":"Kindsbronn pass","natural":"saddle","source":"Club vosgien"}},
{"type":"Feature","geometry":{"type":"Point","coordinates":[7.5524324,48.9149736]},"properties":{"name":"Rocher du Blohn","tourism":"viewpoint"}},
{"type":"Feature","geometry":{"type":"Point","coordinates":[7.424396,49.050355]},"properties":{"access":"yes","leisure":"playground"}},
{"type":"Feature","geometry":{"type":"Point","coordinates":[7.424518,49.049847]},"properties":{"tourism":"picnic_site"}},
{"type":"Feature","geometry":{"type":"Point","coordinates":[7.365258,48.9186355]},"properties":{"addr:housenumber":"18","source":"cadastre-dgi-fr source : Direction Générale des Finances Publiques - Cadastre. Mise à jour : 2015"}},
{"type":"Feature","geometry":{"type":"Point","coordinates":[7.5591983,49.0822048]},"properties":{"leisure":"picnic_table"}},
{"type":"Feature","geometry":{"type":"Point","coordinates":[7.4221726,49.0531776]},"properties":{"historic":"wayside_cross","religion":"christian"}},
{"type":"Feature","geometry":{"type":"Point","coordinates":[7.3720383,49.1049315]},"properties":{"historic":"wayside_cross","religion":"christian"}},
{"type":"Feature","geometry":{"type":"Point","coordinates":[7.4870404,48.92117]},"properties":{"ele":"417","tourism":"viewpoint"}},
{"type":"Feature","geometry":{"type":"Point","coordinates":[7.3756889,48.9934956]},"properties":{"ele":"389.9"}},
{"type":"Feature","geometry":{"type":"Point","coordinates":[7.3759763,48.993576]},"properties":{"ele":"391.1"}},
{"type":"Feature","geometry":{"type":"Point","coordinates":[7.3761561,48.9936221]},"properties":{"ele":"391.9"}},
{"type":"Feature","geometry":{"type":"Point","coordinates":[7.3763327,48.9936733]},"properties":{"ele":"392.5"}},
{"type":"Feature","geometry":{"type":"Point","coordinates":[7.3765273,48.9937257]},"properties":{"ele":"393.3"}},
{"type":"Feature","geometry":{"type":"Point","coordinates":[7.3767207,48.9937779]},"properties":{"ele":"393.5"}},
{"type":"Feature","geometry":{"type":"Point","coordinates":[7.3769254,48.9938352]},"properties":{"ele":"394.4"}},
{"type":"Feature","geometry":{"type":"Point","coordinates":[7.3770956,48.9938884]},"properties":{"ele":"394.4"}},
{"type":"Feature","geometry":{"type":"Point","coordinates":[7.3772181,48.9939249]},"properties":{"ele":"394.5"}},
{"type":"Feature","geometry":{"type":"Point","coordinates":[7.3796971,49.0956541]},"properties":{"historic":"wayside_cross"}},
{"type":"Feature","geometry":{"type":"Point","coordinates":[7.5631701,49.0828182]},"properties":{"name":"Schemmereck","natural":"peak"}},
{"type":"Feature","geometry":{"type":"Point","coordinates":[7.5249771,48.942395]},"properties":{"ele":"393","name":"La Redoute","natural":"peak"}},
{"type":"Feature","geometry":{"type":"Point","coordinates":[7.529473,48.990203]},"properties":{"ele":"361","name":"Hasenkopf","natural":"peak","source":"Karte der Vogesen im Massstabe 1:50 000"}},
{"type":"Feature","geometry":{"type":"Point","coordinates":[7.470292,48.9758192]},"properties":{"direction":"0","tourism":"viewpoint"}},
{"type":"Feature","geometry":{"type":"Point","coordinates":[7.4592127,48.9712798]},"properties":{"historic":"boundary_stone","inscription":"Hanaw Lotring 1605","ref":"469","source":"gps;survey","start_date":"1608"}},
{"type":"Feature","geometry":{"type":"Point","coordinates":[7.5327535,48.9259661]},"properties":{"ele":"385","name":"Weidenseel","natural":"peak"}},
{"type":"Feature","geometry":{"type":"Point","coordinates":[7.5264991,49.0173287]},"properties":{"tourism":"viewpoint"}},
{"type":"Feature","geometry":{"type":"Point","coordinates":[7.5275017,49.0181945]},"properties":{"tourism":"viewpoint"}},
{"type":"Feature","geometry":{"type":"Point","coordinates":[7.5879182,48.9350743]},"properties":{"ele":"493","name":"Immenkopf","natural":"peak"}},
{"type":"Feature","geometry":{"type":"Point","coordinates":[7.5843085,48.9527093]},"properties":{"name":"Source du Lauterbaeckel","natural":"spring"}},
{"type":"Feature","geometry":{"type":"Point","coordinates":[7.5312708,48.9646977]},"properties":{"natural":"spring"}},
{"type":"Feature","geometry":{"type":"Point","coordinates":[7.458673,48.9382897]},"properties":{"name":"Gïte d'étape du Kiesbächel","source":"data.gouv.fr:Le ministère des droits des femmes, de la ville, de la jeunesse et des sports - 2014","tourism":"alpine_hut"}},
{"type":"Feature","geometry":{"type":"Point","coordinates":[7.3646834,48.9849768]},"properties":{"ele":"372","name":"Brunnenkopf","natural":"peak"}},
{"type":"Feature","geometry":{"type":"Point","coordinates":[7.3628724,48.9795493]},"properties":{"ele":"357","name":"Muehlberg","name:de":"Mühlberg","natural":"peak","source":"IGN"}},
{"type":"Feature","geometry":{"type":"Point","coordinates":[7.3733566,49.0168571]},"properties":{"ele":"400","name":"Schlossberg","natural":"peak","source":"IGN","wikidata":"Q28496650","wikipedia":"fr:Schlossberg (Lemberg)"}},
{"type":"Feature","geometry":{"type":"Point","coordinates":[7.3772371,49.0348017]},"properties":{"ele":"407","name":"Bitscherberg","natural":"peak","source":"IGN"}},
{"type":"Feature","geometry":{"type":"Point","coordinates":[7.3830942,49.0057681]},"properties":{"ele":"426","name":"Beerenberg","natural":"peak","source":"IGN"}},
{"type":"Feature","geometry":{"type":"Point","coordinates":[7.3788423,49.0064535]},"properties":{"name":"Brunnenberg","natural":"peak","source":"Cadastre"}},
{"type":"Feature","geometry":{"type":"Point","coordinates":[7.3723362,49.0073832]},"properties":{"ele":"396","name":"Rosskopf","natural":"peak","source":"Cadastre;IGN"}},
{"type":"Feature","geometry":{"type":"Point","coordinates":[7.3742019,49.0099271]},"properties":{"name":"Fritzenberg","natural":"peak","source":"Cadastre"}},
{"type":"Feature","geometry":{"type":"Point","coordinates":[7.3872392,49.0129094]},"properties":{"ele":"416","natural":"peak","source":"IGN"}},
{"type":"Feature","geometry":{"type":"Point","coordinates":[7.413978,49.013002]},"properties":{"ele":"420","name":"Kreuzberg","natural":"peak","source":"IGN"}},
{"type":"Feature","geometry":{"type":"Point","coordinates":[7.4043947,49.0165666]},"properties":{"ele":"406","name":"Rundenkopf","natural":"peak","source":"Cadastre 1838;IGN"}},
{"type":"Feature","geometry":{"type":"Point","coordinates":[7.4094902,49.0120381]},"properties":{"ele":"421","name":"Staengelberg","name:de":"Stängelberg","name:fr":"Staengelberg","natural":"peak","source":"Cadastre"}},
{"type":"Feature","geometry":{"type":"Point","coordinates":[7.3893957,49.0004964]},"properties":{"name":"Heidenkoepfel","name:de":"Heidenköpfel","name:pfl":"Heidenkeppel","natural":"peak","source":"IGN"}},
{"type":"Feature","geometry":{"type":"Point","coordinates":[7.3887811,49.0070478]},"properties":{"name":"Wackenberg","natural":"peak","source":"Cadastre"}},
{"type":"Feature","geometry":{"type":"Point","coordinates":[7.4828048,48.9218741]},"properties":{"internet_access":"wlan","internet_access:fee":"no","name":"Gîte d’étape Lichtenberg","operator":"Commune de Lichtenberg","tourism":"chalet"}},
{"type":"Feature","geometry":{"type":"Point","coordinates":[7.4822308,48.9213735]},"properties":{"addr:city":"Lichtenberg","name":"Au Chateau","tourism":"hotel"}},
{"type":"Feature","geometry":{"type":"Point","coordinates":[7.4445527,48.9892284]},"properties":{"description":"schlankes Sandsteinkreuz mit Kreuzifix auf Sockel mit Relieffiguren","heritage":"yes","historic":"wayside_cross"}},
{"type":"Feature","geometry":{"type":"Point","coordinates":[7.4444599,48.9892524]},"properties":{"entrance":"main"}},
{"type":"Feature","geometry":{"type":"Point","coordinates":[7.4982173,48.9698804]},"properties":{"direction":"20","source":"survey","tourism":"viewpoint"}},
{"type":"Feature","geometry":{"type":"Point","coordinates":[7.5417861,49.0434751]},"properties":{"direction":"135","tourism":"viewpoint"}},
{"type":"Feature","geometry":{"type":"Point","coordinates":[7.5636444,49.0802741]},"properties":{"historic":"boundary_stone"}},
{"type":"Feature","geometry":{"type":"Point","coordinates":[7.5579809,49.0827363]},"properties":{"historic":"boundary_stone"}},
{"type":"Feature","geometry":{"type":"Point","coordinates":[7.5795917,49.0834772]},"properties":{"genus":"Quercus","genus:de":"Edelkastanie","genus:lat":"Castanea sativa","leaf_type":"broadleaved","natural":"tree"}},
{"type":"Feature","geometry":{"type":"Point","coordinates":[7.5185838,49.0285959]},"properties":{"ele":"345","name":"Col du Sandkopf","name:de":"Sandkopfer Hals","name:en":"Sandkopf pass","natural":"saddle","source":"Club vosgien Bitche"}},
{"type":"Feature","geometry":{"type":"Point","coordinates":[7.4567415,48.9408031]},"properties":{"name":"Source Kiesbaechel","natural":"spring"}},
{"type":"Feature","geometry":{"type":"Point","coordinates":[7.5700691,48.9562722]},"properties":{"ele":"479","name":"Arnsberg","natural":"peak","note":"Also known as \"Arnsburger Schlossberg\" on the cadastral maps.","source":"Cadastre 1838"}},
{"type":"Feature","geometry":{"type":"Point","coordinates":[7.4555668,48.9477929]},"properties":{"historic":"tomb"}},
{"type":"Feature","geometry":{"type":"Point","coordinates":[7.3788961,48.940179]},"properties":{"name":"Schuhmacherfelsen","natural":"cave_entrance"}},
{"type":"Feature","geometry":{"type":"Point","coordinates":[7.3690401,48.9291217]},"properties":{"name":"Felsenbrunnen","natural":"spring"}},
{"type":"Feature","geometry":{"type":"Point","coordinates":[7.4350066,49.1137846]},"properties":{"alt_name:de":"Burg Gendersberg;Burg Gentersberg","alt_name:fr":"Château de Gentersberg","building":"yes","heritage":"3","heritage:operator":"mhs","historic":"castle","mhs:inscription_date":"1984-06-27","name":"Château de Gendersberg","name:de":"Schloss Gendersberg","ref:mhs":"PA00106777","source:heritage":"data.gouv.fr, Ministère de la Culture - 2016","start_date":"C18","wikidata":"Q2969307","wikipedia":"fr:Château de Gendersberg"}},
{"type":"Feature","geometry":{"type":"Point","coordinates":[7.4930923,49.007068]},"properties":{"historic":"castle","name":"Schloesschen Bellerstein","name:de":"Schlösschen Bellerstein","name:fr":"Château de Bellerstein","website":"https://www.wanderparadies-wasgau.de/bellerstein.php"}},
{"type":"Feature","geometry":{"type":"Point","coordinates":[7.456592,49.0012123]},"properties":{"historic":"castle","name":"Château de Hohweyersberg","name:de":"Burg Hohe Weihersberg","source":"gps;survey","status":"remains","website":"https://www.wanderparadies-wasgau.de/hohweyersberg.php","wikidata":"Q2971717","wikipedia":"fr:Château du Hohe Weyersberg"}},
{"type":"Feature","geometry":{"type":"Point","coordinates":[7.4554925,49.0010117]},"properties":{"ele":"415","name":"Gruenberg","name:de":"Grünberg","natural":"peak","source":"IGN"}},
{"type":"Feature","geometry":{"type":"Point","coordinates":[7.4435126,48.9890801]},"properties":{"description":"Château construit en 1505 pour Reinhard, comte de Deux-Ponts, seigneur de Bitche, au bord de la Moderbach, détruit en 1633 par les Suédois puis en 1944 ; avant cette date, il subsistait les vestiges d'une tour polygonale et de la courtine, aujourd'hui...","historic":"castle","name":"Château de Mouterhouse","name:de":"Wasserburg Mutterhausen","name:en":"Mouterhouse Castle","start_date":"1505","status":"remains","website":"https://wanderparadies-wasgau.de/mouterhouse.php","wikidata":"Q2970079"}},
{"type":"Feature","geometry":{"type":"Point","coordinates":[7.4699232,48.9963363]},"properties":{"alt_name:fr":"Duerrbergkopf","ele":"421","name":"Duerrberg","name:de":"Der Dürre Hohweyersberg","natural":"peak","note":"Named \"Klein Holtzweyerberg\" (Klein Hohweihersberg) on the 1749 county of Bitche map, \"Der Duerre Hohweyersberg\" on the 1903 Vogesenclub map and \"Duerrbergkopf\" on the IGN map.","source":"Cadastre;Karte der Vogesen im Massstabe 1:50 000;IGN"}},
{"type":"Feature","geometry":{"type":"Point","coordinates":[7.4779683,48.9971294]},"properties":{"name":"Karlsfels","name:fr":"Carlsfels","natural":"rock","source":"Karte der Vogesen im Massstabe 1:50 000;Meßtischblatt 3583 : Saareinsberg 1914"}},
{"type":"Feature","geometry":{"type":"Point","coordinates":[7.3798922,48.9239101]},"properties":{"ele":"330","name":"Heidenkopf","natural":"peak"}},
{"type":"Feature","geometry":{"type":"Point","coordinates":[7.3694356,49.0595421]},"properties":{"leisure":"picnic_table"}},
{"type":"Feature","geometry":{"type":"Point","coordinates":[7.3694705,49.0596568]},"properties":{"entrance":"yes"}},
{"type":"Feature","geometry":{"type":"Point","coordinates":[7.3908811,49.0604621]},"properties":{"historic":"wayside_cross"}},
{"type":"Feature","geometry":{"type":"Point","coordinates":[7.3883868,48.9654268]},"properties":{"ele":"400","name":"Plackenberg","natural":"peak","source":"Cadastre"}},
{"type":"Feature","geometry":{"type":"Point","coordinates":[7.4421792,49.0430709]},"properties":{"name":"Tépacap Village Aventure Bitche","tourism":"attraction"}},
{"type":"Feature","geometry":{"type":"Point","coordinates":[7.493585,49.0159171]},"properties":{"historic":"wayside_cross"}},
{"type":"Feature","geometry":{"type":"Point","coordinates":[7.4468315,49.0469929]},"properties":{"artwork_type":"sculpture","tourism":"artwork"}},
{"type":"Feature","geometry":{"type":"Point","coordinates":[7.4249265,49.0524126]},"properties":{"bicycle":"yes","direction_northwest":"Hanviller 7.1 km;Pirmasens 31 km","information":"guidepost","lcn":"yes","network":"lcn","tourism":"information"}},
{"type":"Feature","geometry":{"type":"Point","coordinates":[7.4233112,49.0529347]},"properties":{"bicycle":"yes","direction_north":"Hanviller 7 km;Pirmasens 30.9 km","information":"guidepost","lcn":"yes","network":"lcn","tourism":"information"}},
{"type":"Feature","geometry":{"type":"Point","coordinates":[7.5158782,48.9788606]},"properties":{"information":"map","tourism":"information"}},
{"type":"Feature","geometry":{"type":"Point","coordinates":[7.514053,48.9814598]},"properties":{"leisure":"picnic_table"}},
{"type":"Feature","geometry":{"type":"Point","coordinates":[7.5138089,48.9813366]},"properties":{"leisure":"picnic_table"}},
{"type":"Feature","geometry":{"type":"Point","coordinates":[7.5139564,48.9813595]},"properties":{"leisure":"picnic_table"}},
{"type":"Feature","geometry":{"type":"Point","coordinates":[7.5143748,48.9811764]},"properties":{"leisure":"picnic_table"}},
{"type":"Feature","geometry":{"type":"Point","coordinates":[7.5145546,48.9811113]},"properties":{"leisure":"picnic_table"}},
{"type":"Feature","geometry":{"type":"Point","coordinates":[7.5147665,48.9810285]},"properties":{"leisure":"picnic_table"}},
{"type":"Feature","geometry":{"type":"Point","coordinates":[7.5141683,48.9812257]},"properties":{"leisure":"picnic_table"}},
{"type":"Feature","geometry":{"type":"Point","coordinates":[7.5139081,48.9812081]},"properties":{"leisure":"picnic_table"}},
{"type":"Feature","geometry":{"type":"Point","coordinates":[7.513935,48.9834613]},"properties":{"leisure":"picnic_table"}},
{"type":"Feature","geometry":{"type":"Point","coordinates":[7.5146618,48.9838415]},"properties":{"leisure":"picnic_table"}},
{"type":"Feature","geometry":{"type":"Point","coordinates":[7.4281901,49.0557041]},"properties":{"historic":"wayside_cross"}},
{"type":"Feature","geometry":{"type":"Point","coordinates":[7.4234158,49.0527748]},"properties":{"bicycle":"yes","direction_southeast":"Office de Tourisme 0.3 km;Lemberg 9.8 km","information":"guidepost","lcn":"yes","network":"lcn","tourism":"information"}},
{"type":"Feature","geometry":{"type":"Point","coordinates":[7.5455806,48.949801]},"properties":{"description":"Untermuhlthal\nPulverbrucke 1h30\nLichtenberg 2h\nR. Grand Arnsbourg 45'\nRuine Wasenbourg 3h\nNiederbronn 3h45","ele":"198","information":"guidepost","name":"Muhltal","name:de":"Mühltal","operator":"Club vosgien Baerenthal","source":"Club vosgien Baerenthal;survey","tourism":"information"}},
{"type":"Feature","geometry":{"type":"Point","coordinates":[7.5600556,48.9618158]},"properties":{"natural":"rock"}},
{"type":"Feature","geometry":{"type":"Point","coordinates":[7.5602138,48.9619391]},"properties":{"natural":"rock"}},
{"type":"Feature","geometry":{"type":"Point","coordinates":[7.4865831,48.9216489]},"properties":{"tourism":"viewpoint"}},
{"type":"Feature","geometry":{"type":"Point","coordinates":[7.4818665,48.9217264]},"properties":{"hiking":"yes","information":"map","map_type":"topo","tourism":"information"}},
{"type":"Feature","geometry":{"type":"Point","coordinates":[7.481725,48.9212689]},"properties":{"information":"map","map_type":"topo","tourism":"information"}},
{"type":"Feature","geometry":{"type":"Point","coordinates":[7.4346207,49.0498769]},"properties":{"email":"info@hoteldurelais-bitche.com","name":"Le Relais des Châteaux Forts","phone":"+33 3 87 96 14 14","stars":"3","tourism":"hotel","website":"https://www.hoteldurelais-bitche.com/"}},
{"type":"Feature","geometry":{"type":"Point","coordinates":[7.4795509,49.0269265]},"properties":{"name":"Pêcher aux Forelles","name:fr":"Pêcher aux Forelles","tourism":"attraction"}},
{"type":"Feature","geometry":{"type":"Point","coordinates":[7.3604275,48.9573932]},"properties":{"addr:city":"Meisenthal","addr:postcode":"57960","ele":"403","name":"La Colonne","source":"Club vosgien Soucht;IGN","tourism":"attraction","wikidata":"Q2984307","wikipedia":"fr:Colonne de Meisenthal"}},
{"type":"Feature","geometry":{"type":"Point","coordinates":[7.3606887,48.9681555]},"properties":{"ele":"372","name":"Mailaenderberg","name:de":"Mailänderberg","natural":"peak","source":"IGN"}},
{"type":"Feature","geometry":{"type":"Point","coordinates":[7.3700627,48.9688769]},"properties":{"ele":"410","name":"Klosterberg","natural":"peak","source":"IGN"}},
{"type":"Feature","geometry":{"type":"Point","coordinates":[7.3836376,48.9586294]},"properties":{"ele":"386","name":"Rebsteckerkopf","name:de":"Rebsteckenkopf","natural":"peak","source":"Cadastre;IGN;Meßtischblatt 3583 : Saareinsberg 1914"}},
{"type":"Feature","geometry":{"type":"Point","coordinates":[7.4068904,48.9640074]},"properties":{"ele":"334","name":"Metschkopf","natural":"peak","note":"Source : Carte du Comté de Bitche levée par le Sr. Jaquet, chevalier de l'ordre militaire de St. Louis et aide major des ville et château de Bitche en l'année 1749","source":"Carte du comté de Bitche 1749"}},
{"type":"Feature","geometry":{"type":"Point","coordinates":[7.4850551,49.0017218]},"properties":{"ele":"381","name":"Bellersteinberg","natural":"peak","source":"Cadastre"}},
{"type":"Feature","geometry":{"type":"Point","coordinates":[7.4866435,48.9905632]},"properties":{"ele":"364","name":"Gross Eichelsberg","name:de":"Groß Eichelsberg","natural":"peak","note":"Source : Carte du Comté de Bitche levée par le Sr. Jaquet, chevalier de l'ordre militaire de St. Louis et aide major des ville et château de Bitche en l'année 1749","source":"Carte du comté de Bitche 1749;IGN"}},
{"type":"Feature","geometry":{"type":"Point","coordinates":[7.4736813,49.0183928]},"properties":{"ele":"356","name":"Grossmuehlberg","name:de":"Großmühlberg","natural":"peak","source":"Cadastre"}},
{"type":"Feature","geometry":{"type":"Point","coordinates":[7.4766141,49.0236848]},"properties":{"ele":"344","name":"Kleinmuehlberg","name:de":"Kleinmühlberg","natural":"peak","source":"IGN"}},
{"type":"Feature","geometry":{"type":"Point","coordinates":[7.4548443,49.0213698]},"properties":{"ele":"429","name":"Hochkopf","natural":"peak","source":"Club vosgien Bitche;IGN","wikidata":"Q48748946","wikipedia":"fr:Hochkopf (Bitche)"}},
{"type":"Feature","geometry":{"type":"Point","coordinates":[7.4225771,48.9931734]},"properties":{"ele":"296","name":"Gross Schwarzenkopf","name:de":"Groß Schwarzenkopf","natural":"peak","source":"Cadastre"}},
{"type":"Feature","geometry":{"type":"Point","coordinates":[7.4127464,48.9904954]},"properties":{"name":"Vogelsberg","natural":"peak","note":"Name of the peak almost a further kilometer north according to the 1914 Meßtischblatt Saareinsberg and IGN.","source":"Cadastre 1839"}},
{"type":"Feature","geometry":{"type":"Point","coordinates":[7.4207493,49.0057162]},"properties":{"ele":"329","name":"Klein Schwarzenkopf","natural":"peak","source":"Cadastre"}},
{"type":"Feature","geometry":{"type":"Point","coordinates":[7.4510812,48.9863813]},"properties":{"ele":"276","name":"Hammerkopf","natural":"peak","source":"Cadastre"}},
{"type":"Feature","geometry":{"type":"Point","coordinates":[7.4915764,48.9978609]},"properties":{"ele":"343","name":"Klein Eichelsberg","natural":"peak","note":"Source : Carte du Comté de Bitche levée par le Sr. Jaquet, chevalier de l'ordre militaire de St. Louis et aide major des ville et château de Bitche en l'année 1749","source":"Carte du comté de Bitche 1749;IGN"}},
{"type":"Feature","geometry":{"type":"Point","coordinates":[7.4835992,49.0098913]},"properties":{"ele":"357","name":"Schindelberg","natural":"peak","note":"Source : Carte du Comté de Bitche levée par le Sr. Jaquet, chevalier de l'ordre militaire de St. Louis et aide major des ville et château de Bitche en l'année 1749","source":"Cadastre;Carte du comté de Bitche 1749"}},
{"type":"Feature","geometry":{"type":"Point","coordinates":[7.4599427,48.9868454]},"properties":{"ele":"312","name":"Gross Heckenberg","name:de":"Groß Heckenberg","natural":"peak","note":"Simply named \"Heckenberg\" on the Karte der Vogesen im Massstabe 1:50 000.\nSource : Carte du Comté de Bitche levée par le Sr. Jaquet, chevalier de l'ordre militaire de St. Louis et aide major des ville et château de Bitche en l'année 1749.","source":"Carte du comté de Bitche 1749;Cadastre;Karte der Vogesen im Massstabe 1:50 000;IGN"}},
{"type":"Feature","geometry":{"type":"Point","coordinates":[7.4706673,48.986783]},"properties":{"ele":"285","name":"Klein Heckenberg","name:de":"Der Grüner Hohweyersberg","natural":"peak","note":"Named \"Der Grüner Hohweyersberg\" on the Karte der Vogesen im Massstabe 1:50 000.","source":"Carte du comté de Bitche 1749;Karte der Vogesen im Massstabe 1:50 000;IGN"}},
{"type":"Feature","geometry":{"type":"Point","coordinates":[7.4583758,48.9924589]},"properties":{"ele":"333","name":"Sauberg","natural":"peak","source":"IGN"}},
{"type":"Feature","geometry":{"type":"Point","coordinates":[7.4612695,49.0157675]},"properties":{"ele":"335","name":"Hirschberg","natural":"peak","source":"Cadastre;IGN"}},
{"type":"Feature","geometry":{"type":"Point","coordinates":[7.4057158,49.0064516]},"properties":{"ele":"405","name":"Krippenberg","natural":"peak","source":"IGN"}},
{"type":"Feature","geometry":{"type":"Point","coordinates":[7.3862878,48.9947143]},"properties":{"ele":"409","name":"Schweissberg","name:de":"Schweißberg","natural":"peak","note":"Source : Carte du Comté de Bitche levée par le Sr. Jaquet, chevalier de l'ordre militaire de St. Louis et aide major des ville et château de Bitche en l'année 1749","source":"Carte du comté de Bitche 1749;IGN"}},
{"type":"Feature","geometry":{"type":"Point","coordinates":[7.4055593,48.9989404]},"properties":{"ele":"377","name":"Winterberg","natural":"peak","source":"IGN"}},
{"type":"Feature","geometry":{"type":"Point","coordinates":[7.4381112,48.9946563]},"properties":{"ele":"323","name":"Rohrmattenberg","natural":"peak","source":"Cadastre;IGN"}},
{"type":"Feature","geometry":{"type":"Point","coordinates":[7.4454846,48.9882835]},"properties":{"name":"Schindelberg","natural":"peak","source":"Cadastre"}},
{"type":"Feature","geometry":{"type":"Point","coordinates":[7.4491273,48.9934374]},"properties":{"ele":"342","name":"Kirchberg","natural":"peak","note":"Source : Carte du Comté de Bitche levée par le Sr. Jaquet, chevalier de l'ordre militaire de St. Louis et aide major des ville et château de Bitche en l'année 1749","source":"Carte du comté de Bitche 1749"}},
{"type":"Feature","geometry":{"type":"Point","coordinates":[7.4089817,48.9839789]},"properties":{"ele":"402","name":"Stechlappsberg","natural":"peak","source":"IGN"}},
{"type":"Feature","geometry":{"type":"Point","coordinates":[7.4101973,49.0109533]},"properties":{"historic":"memorial","image":"http://www.clubvosgienbitche.fr/wa_p_albums/p_album_iyu54d4j0/iyu5qzxb4bfcf4/hasselfurth%20schwangerbach%20(25).jpg","inscription":"VIRION GARD GÉNÉRAL PIERRON CURÉ VIRION MARCHA ND DE VIN","name":"Maifelsen","source":"IGN"}},
{"type":"Feature","geometry":{"type":"Point","coordinates":[7.4905976,49.0108061]},"properties":{"name":"Bellersteiner Felsen","name:fr":"Roches de Bellerstein","natural":"rock","source":"IGN"}},
{"type":"Feature","geometry":{"type":"Point","coordinates":[7.4441175,48.9709682]},"properties":{"ele":"330","name":"Perichberg","name:de":"Pferchberg","natural":"peak","source":"Karte der Vogesen im Massstabe 1:50 000;IGN"}},
{"type":"Feature","geometry":{"type":"Point","coordinates":[7.4161723,48.9648426]},"properties":{"ele":"350","name":"Rundenkopf","natural":"peak","source":"IGN"}},
{"type":"Feature","geometry":{"type":"Point","coordinates":[7.3951639,48.9677272]},"properties":{"ele":"370","name":"Schoenthalerkopf","name:de":"Schöntalerkopf","natural":"peak","source":"IGN"}},
{"type":"Feature","geometry":{"type":"Point","coordinates":[7.508343,48.9940187]},"properties":{"ele":"352","name":"Silberberg","natural":"peak","source":"Karte der Vogesen im Massstabe 1:50 000;IGN"}},
{"type":"Feature","geometry":{"type":"Point","coordinates":[7.3875909,48.9657523]},"properties":{"description":"CROIX WALTER - dit S'Althorner Kreitz - Crucifix érigé en 1813 par WALTER Pierre et son épouse Catherine pour leur 50ème anniversaire de mariage. [mariés à Soucht le 08-02-1763]. Monument avec un bas relief ici St. Michel et un fût droit typique au pays d","historic":"wayside_cross","name":"S'Althorner Kreitz","name:de":"Althorner Kreuz","name:fr":"Croix Walter d'Althorn","note":"Croix érigée à l'occasion des noces d'or des époux Walter Pierre et Catherine en l'an 1813","source":"Club vosgien Lemberg;IGN"}},
{"type":"Feature","geometry":{"type":"Point","coordinates":[7.4925475,49.011065]},"properties":{"historic":"boundary_stone","source":"survey"}},
{"type":"Feature","geometry":{"type":"Point","coordinates":[7.4721914,49.0102804]},"properties":{"historic":"boundary_stone","source":"survey"}},
{"type":"Feature","geometry":{"type":"Point","coordinates":[7.4190517,48.9735706]},"properties":{"description":"Unterstand unter dem Felsen dessen Dimensionen ungewöhnlich sind: 22m lang und durchschnitlich 3m tief. Zahlreiche Objekte und Feuerspuren zeugen von einer häufigen Besetzung.","ele":"317","name":"Pilgerfelsen","natural":"rock","note":"Ganz außen am Westrand, rechts von der Markierung gibt es 3 Wetzrillen, die zwar breit und tief, aber rau und regelmäßig geformt sind. Zahlreiche Graffiti, darunter etliche alte.","source":"Club vosgien Bitche;Club vosgien Lemberg;ritterstein.de","website":"https://www.google.com/maps/d/viewer?mid=1cLGn2cfnSm0VRjvFuYFJkn_XApk&ll=48.97314324059618%2C7.422114937625793&z=16"}},
{"type":"Feature","geometry":{"type":"Point","coordinates":[7.3826773,49.0436002]},"properties":{"denotation":"natural_monument","leaf_type":"leafless","name":"Chêne des Suédois","name:de":"Eiche der Schweden","natural":"tree"}},
{"type":"Feature","geometry":{"type":"Point","coordinates":[7.3974092,48.98666]},"properties":{"alt_name:de":"Schwarzen Zollberg","ele":"376","name":"Gross Heckenkopf","name:de":"Groß Heckenkopf","natural":"peak","note":"Named \"Schwartz Holtz\" on the 1749 map, Schwarzen Zollberg on the 1839 cadastral map, \"Geheckenkopf\" on the 1903 Vogesenclub map and \"Gross Heckenkopf\" on the 1914 Meßtischblatt Saareinsberg.","source":"Cadastre 1839;Karte der Vogesen im Massstabe 1:50 000;Meßtischblatt 3583 : Saareinsberg 1914;IGN","source:url":"http://gallica.bnf.fr/ark:/12148/btv1b10223996p"}},
{"type":"Feature","geometry":{"type":"Point","coordinates":[7.3851208,48.9999202]},"properties":{"name":"Buchbrunnen","natural":"spring","source":"Cadastre"}},
{"type":"Feature","geometry":{"type":"Point","coordinates":[7.4706499,49.0099532]},"properties":{"historic":"boundary_stone","inscription":"65 - 62","source":"survey"}},
{"type":"Feature","geometry":{"type":"Point","coordinates":[7.4413885,49.0074689]},"properties":{"natural":"spring","source":"Cadastre"}},
{"type":"Feature","geometry":{"type":"Point","coordinates":[7.417632,49.0164295]},"properties":{"description":"Croix Saint Hubert 10' Carrefour Pont Neuf 20' Lemberg Châlet Club vosgien 45' Carrefour Gros Hêtre 15' Ferme Wolfsgarten 1h Bitche 1h15'","ele":"400","information":"guidepost","name":"Tombe Russe","name:de":"Russische Grabsteine","name:en":"Russian Grave","operator":"Club vosgien Lemberg","source":"Club vosgien Lemberg","tourism":"information"}},
{"type":"Feature","geometry":{"type":"Point","coordinates":[7.4221565,49.0248924]},"properties":{"addr:city":"Bitche","addr:postcode":"57230","description":"Étang Hasselfurth 40'\nBitche Centre 1h15'\nSchwangerbach 20'\nLemberg poste 2h\nCarrefour gros hêtre 8'\nBarrière SNCF Kaltkueche 25'","ele":"300","information":"guidepost","name":"Maison forestière Wolfsbronn","name:de":"Forsthaus Wolfsbronn","operator":"Club vosgien Lemberg","source":"Club vosgien Lemberg","tourism":"information"}},
{"type":"Feature","geometry":{"type":"Point","coordinates":[7.4239566,49.0272795]},"properties":{"ele":"374","name":"Gross Schiberling","name:de":"Groß Schiberling","natural":"peak","source":"IGN"}},
{"type":"Feature","geometry":{"type":"Point","coordinates":[7.4248497,49.0333965]},"properties":{"ele":"365","name":"Klein Schiberling","natural":"peak","source":"IGN"}},
{"type":"Feature","geometry":{"type":"Point","coordinates":[7.4023539,49.0318882]},"properties":{"name":"Spitzenberg","natural":"peak","source":"Club vosgien;IGN"}},
{"type":"Feature","geometry":{"type":"Point","coordinates":[7.3808804,49.0401465]},"properties":{"name":"Steinkopf","natural":"peak","source":"Club vosgien;IGN"}},
{"type":"Feature","geometry":{"type":"Point","coordinates":[7.3842176,49.033089]},"properties":{"ele":"427","name":"Berg","natural":"peak","source":"IGN"}},
{"type":"Feature","geometry":{"type":"Point","coordinates":[7.3810944,49.0280202]},"properties":{"ele":"429","natural":"peak","source":"IGN"}},
{"type":"Feature","geometry":{"type":"Point","coordinates":[7.4125217,49.0412704]},"properties":{"name":"Stadtbrunnen","natural":"spring","source":"IGN"}},
{"type":"Feature","geometry":{"type":"Point","coordinates":[7.3984589,49.0002017]},"properties":{"description":"Bildmuehle 25' Lemberg Poste 1h Grotte du Chorfelsen 10' Grotte du Krippenfelsen 20' Châlet Club vosgien 1h15' Cascade des Ondines 40' Grotte du Hasslingerfelsen 10'","ele":"330","information":"guidepost","name":"Carrefour Handenkoepfel","name:de":"Kreuzweg Handenköpfel","name:en":"Handenkoepfel crossroad","operator":"Club vosgien Lemberg","source":"Club vosgien Lemberg;survey","tourism":"information"}},
{"type":"Feature","geometry":{"type":"Point","coordinates":[7.4199067,49.0168284]},"properties":{"ele":"412","name":"Hahnenkoepfel","name:de":"Hahnenköpfel","natural":"peak","source":"Cadastre"}},
{"type":"Feature","geometry":{"type":"Point","coordinates":[7.3965627,49.0121069]},"properties":{"name":"Kohlkoepfel","name:de":"Kohlköpfel","natural":"peak","source":"Cadastre"}},
{"type":"Feature","geometry":{"type":"Point","coordinates":[7.4488406,49.0166628]},"properties":{"description":"Croix 1727 5' Chapelle 1505 45' Mouterhouse 1h15' Entenbaechel 20' Étg. Hasselfurth 45'","ele":"368","information":"guidepost","name":"Col du Widerschall","name:de":"Widerschaller Hals","name:en":"Widerschall pass","operator":"Club vosgien Bitche","source":"Club vosgien Bitche;survey","tourism":"information"}},
{"type":"Feature","geometry":{"type":"Point","coordinates":[7.4585977,49.0415141]},"properties":{"ele":"355","name":"Klein Lehmberg","name:de":"Klein Lehmberg","natural":"peak","source":"Carte des Vosges à l'échelle 1/50 000;IGN;Plan v. Tr.P. Bitsch"}},
{"type":"Feature","geometry":{"type":"Point","coordinates":[7.4555902,49.0365912]},"properties":{"ele":"350","name":"Gross Lehmberg","name:de":"Groß Lehmberg","natural":"peak","source":"Carte des Vosges à l'échelle 1/50 000;IGN;Plan v. Tr.P. Bitsch"}},
{"type":"Feature","geometry":{"type":"Point","coordinates":[7.4478692,49.0147531]},"properties":{"historic":"wayside_cross","inscription":"Geweser Fachor zv Mvterhavsen Anno 1727 den 30. Dezember","name":"Croix 1727","name:de":"1727 Kreuz","name:en":"1727 Cross","name:fr":"Croix du facteur","source":"Club vosgien Bitche;IGN;gps;survey","start_date":"1727"}},
{"type":"Feature","geometry":{"type":"Point","coordinates":[7.4679483,49.0200746]},"properties":{"name":"Carola Quelle","name:en":"Carola spring","name:fr":"Source Carola","natural":"spring","source":"Club vosgien Bitche","start_date":"1910"}},
{"type":"Feature","geometry":{"type":"Point","coordinates":[7.4322573,49.0253111]},"properties":{"ele":"394","name":"Sommerkopf","natural":"peak","source":"Club vosgien;IGN"}},
{"type":"Feature","geometry":{"type":"Point","coordinates":[7.4116327,49.0277817]},"properties":{"ele":"335","name":"Klein Speckkopf","natural":"peak","source":"Club vosgien;IGN"}},
{"type":"Feature","geometry":{"type":"Point","coordinates":[7.4185507,49.0223662]},"properties":{"name":"Gross Speckkopf","name:de":"Groß Speckkopf","natural":"peak","source":"Club vosgien"}},
{"type":"Feature","geometry":{"type":"Point","coordinates":[7.4171224,49.0391061]},"properties":{"ele":"395","name":"Schoenberg","name:de":"Schönberg","natural":"peak","source":"Club vosgien"}},
{"type":"Feature","geometry":{"type":"Point","coordinates":[7.4190837,49.0418413]},"properties":{"name":"Dragonnerbrunnen","name:fr":"Fontaine des Dragons","natural":"spring","source":"IGN"}},
{"type":"Feature","geometry":{"type":"Point","coordinates":[7.4055349,49.045807]},"properties":{"ele":"406","name":"Schimberg","natural":"peak","source":"Club vosgien;IGN"}},
{"type":"Feature","geometry":{"type":"Point","coordinates":[7.4069054,48.9926014]},"properties":{"ele":"345","name":"Dunkelwaldberg","natural":"peak","source":"Club vosgien"}},
{"type":"Feature","geometry":{"type":"Point","coordinates":[7.4973914,48.9720077]},"properties":{"name":"Adlerskopf","natural":"peak","source":"IGN"}},
{"type":"Feature","geometry":{"type":"Point","coordinates":[7.5157608,49.0254329]},"properties":{"ele":"335","name":"Schweizerkoepfel","name:de":"Schweizerköpfel","natural":"peak","source":"IGN"}},
{"type":"Feature","geometry":{"type":"Point","coordinates":[7.5100859,49.0265244]},"properties":{"ele":"400","name":"Igelsberg","natural":"peak","source":"IGN"}},
{"type":"Feature","geometry":{"type":"Point","coordinates":[7.5266159,49.0267887]},"properties":{"ele":"372","name":"Sandkopf","natural":"peak","source":"IGN"}},
{"type":"Feature","geometry":{"type":"Point","coordinates":[7.5446483,49.0234875]},"properties":{"ele":"399","name":"Erbsenberg","natural":"peak","source":"IGN","wikidata":"Q31674207"}},
{"type":"Feature","geometry":{"type":"Point","coordinates":[7.5286594,49.0138072]},"properties":{"historic":"wayside_cross","inscription":"ES IST VOLLBRACHT! DIESES KREUZ HABEN ERRICHTEN LASSEN ZUR GRÖSSEREN EHRE GOTTES DIE GESCHWISTER JOHANN, CHRISTINE u. MAGDALENA WÜRTZ IM JAHRE 1925","source":"IGN;survey 2018-01-21","start_date":"1925"}},
{"type":"Feature","geometry":{"type":"Point","coordinates":[7.5441459,49.00696]},"properties":{"ele":"344","name":"Kachler","natural":"peak","source":"IGN","wikidata":"Q31394663"}},
{"type":"Feature","geometry":{"type":"Point","coordinates":[7.5688964,49.0096322]},"properties":{"ele":"335","name":"Landersberg","natural":"peak","source":"IGN","wikidata":"Q31394659"}},
{"type":"Feature","geometry":{"type":"Point","coordinates":[7.5834529,49.0043582]},"properties":{"ele":"391","name":"Falkenberg","natural":"peak","source":"IGN","wikidata":"Q34868049"}},
{"type":"Feature","geometry":{"type":"Point","coordinates":[7.5708125,48.9994743]},"properties":{"ele":"342","name":"Muckenkopf","natural":"peak","source":"IGN","wikidata":"Q31394658"}},
{"type":"Feature","geometry":{"type":"Point","coordinates":[7.5918518,48.9975039]},"properties":{"ele":"451","name":"Weihersberg","natural":"peak","source":"IGN","wikidata":"Q31674139"}},
{"type":"Feature","geometry":{"type":"Point","coordinates":[7.5921944,48.9844854]},"properties":{"historic":"boundary_stone","source":"survey"}},
{"type":"Feature","geometry":{"type":"Point","coordinates":[7.5921943,48.9844854]},"properties":{"historic":"boundary_stone","source":"survey"}},
{"type":"Feature","geometry":{"type":"Point","coordinates":[7.386228,49.0038095]},"properties":{"addr:city":"Lemberg","addr:postcode":"57620","ele":"355","name":"Lavoir du Helloch","operator":"Club vosgien Lemberg","source":"Club vosgien Lemberg","tourism":"attraction"}},
{"type":"Feature","geometry":{"type":"Point","coordinates":[7.3764292,48.9979641]},"properties":{"historic":"wayside_cross","name":"S'Weissekreitz","name:de":"Weissen Kreuz","name:en":"White Cross","source":"IGN"}},
{"type":"Feature","geometry":{"type":"Point","coordinates":[7.4506381,48.9677124]},"properties":{"historic":"boundary_stone","note":"Not part of the Hanau-Lorraine boundary stones","source":"gps;survey"}},
{"type":"Feature","geometry":{"type":"Point","coordinates":[7.4506302,48.9677021]},"properties":{"historic":"boundary_stone","inscription":"none","note":"has the same shape as the other Hanau-Lorraine boundary stones","ref":"390","source":"gps;survey"}},
{"type":"Feature","geometry":{"type":"Point","coordinates":[7.4493297,48.9671632]},"properties":{"historic":"boundary_stone","inscription":"none","note":"has the same shape as the other Hanau-Lorraine boundary stones","ref":"389","source":"gps;survey"}},
{"type":"Feature","geometry":{"type":"Point","coordinates":[7.4481802,48.9666486]},"properties":{"historic":"boundary_stone","inscription":"Hanaw Lotring","ref":"388","source":"gps;survey"}},
{"type":"Feature","geometry":{"type":"Point","coordinates":[7.4472377,48.9661409]},"properties":{"historic":"boundary_stone","inscription":"none","note":"has the same shape as the other Hanau-Lorraine boundary stones","ref":"387","source":"gps;survey"}},
{"type":"Feature","geometry":{"type":"Point","coordinates":[7.443371,48.9640122]},"properties":{"historic":"boundary_stone","inscription":"Hanaw Lotring","source":"gps;survey"}},
{"type":"Feature","geometry":{"type":"Point","coordinates":[7.4433844,48.9639958]},"properties":{"historic":"boundary_stone","note":"Not part of the Hanau-Lorraine boundary stones","source":"gps;survey"}},
{"type":"Feature","geometry":{"type":"Point","coordinates":[7.4417997,48.9642675]},"properties":{"historic":"boundary_stone","inscription":"Lorraine cross on the northern side","source":"gps;survey"}},
{"type":"Feature","geometry":{"type":"Point","coordinates":[7.4363913,48.9634058]},"properties":{"historic":"boundary_stone","note":"bends over","source":"gps;survey"}},
{"type":"Feature","geometry":{"type":"Point","coordinates":[7.4309133,48.9611827]},"properties":{"historic":"boundary_stone","inscription":"Hanaw Lotring","source":"gps;survey"}},
{"type":"Feature","geometry":{"type":"Point","coordinates":[7.4221002,48.9602284]},"properties":{"historic":"boundary_stone","inscription":"none","note":"has the same shape as the other Hanau-Lorraine boundary stones","ref":"370","source":"gps;survey"}},
{"type":"Feature","geometry":{"type":"Point","coordinates":[7.4218287,48.9602463]},"properties":{"historic":"boundary_stone","inscription":"Lorraine cross on the eastern side","source":"gps;survey"}},
{"type":"Feature","geometry":{"type":"Point","coordinates":[7.4125903,48.9588826]},"properties":{"historic":"boundary_stone","note":"Not part of the Hanau-Lorraine boundary stones","source":"gps;survey"}},
{"type":"Feature","geometry":{"type":"Point","coordinates":[7.4115574,48.9590459]},"properties":{"historic":"boundary_stone","note":"Not part of the Hanau-Lorraine boundary stones","source":"gps;survey"}},
{"type":"Feature","geometry":{"type":"Point","coordinates":[7.4104769,48.9591595]},"properties":{"historic":"boundary_stone","note":"Not part of the Hanau-Lorraine boundary stones","source":"gps;survey"}},
{"type":"Feature","geometry":{"type":"Point","coordinates":[7.4065753,48.9587451]},"properties":{"description":"Pierre des 12 Apôtres (Breitenstein) 50' Althorn 45' Melch 50' Mouterhouse 1'4h","information":"guidepost","name":"Chemin des Bornes","source":"survey","tourism":"information"}},
{"type":"Feature","geometry":{"type":"Point","coordinates":[7.4066607,48.9587361]},"properties":{"description":"Wildenguth 1h15 Chalet CVR 1h45 Croix Stoffel 20m","information":"guidepost","source":"survey","tourism":"information"}},
{"type":"Feature","geometry":{"type":"Point","coordinates":[7.4017534,48.9573817]},"properties":{"historic":"boundary_stone","note":"knocked over","source":"gps;survey"}},
{"type":"Feature","geometry":{"type":"Point","coordinates":[7.4004535,48.9570165]},"properties":{"historic":"boundary_stone","note":"Not part of the Hanau-Lorraine boundary stones","source":"gps;survey"}},
{"type":"Feature","geometry":{"type":"Point","coordinates":[7.4004646,48.9570223]},"properties":{"historic":"boundary_stone","inscription":"Hanaw Lotring","source":"gps;survey"}},
{"type":"Feature","geometry":{"type":"Point","coordinates":[7.400477,48.9570235]},"properties":{"description":"Bornes posées en 1608 pour marquer la limite entre la Seigneurie de Hanau-Lichtenberg et le Duché de Lorraine","information":"guidepost","operator":"Club vosgien","source":"Club vosgien","tourism":"information"}},
{"type":"Feature","geometry":{"type":"Point","coordinates":[7.4979441,48.9963026]},"properties":{"historic":"boundary_stone","inscription":"Hanaw Lotring","source":"streetlevel imagery;survey"}},
{"type":"Feature","geometry":{"type":"Point","coordinates":[7.4193883,48.9801984]},"properties":{"historic":"wayside_cross","source":"IGN"}},
{"type":"Feature","geometry":{"type":"Point","coordinates":[7.4226107,48.964503]},"properties":{"name":"Sand Plackenberg","natural":"peak","source":"Cadastre 1839"}},
{"type":"Feature","geometry":{"type":"Point","coordinates":[7.4628417,48.9782697]},"properties":{"name":"Ochsenhuebel","name:de":"Ochsenhübel","natural":"peak","source":"IGN"}},
{"type":"Feature","geometry":{"type":"Point","coordinates":[7.4900653,49.0016077]},"properties":{"name":"Spitzfels","natural":"rock","source":"Cadastre 1839"}},
{"type":"Feature","geometry":{"type":"Point","coordinates":[7.4909524,48.9942452]},"properties":{"name":"Jaegerfels","name:de":"Jägerfels","natural":"rock","source":"Cadastre 1839"}},
{"type":"Feature","geometry":{"type":"Point","coordinates":[7.4697434,48.9965738]},"properties":{"name":"Arbre de Mouterhouse","name:de":"Mutterhauser Baum","name:en":"Mouterhouse Tree","natural":"tree","source":"Cadastre 1839"}},
{"type":"Feature","geometry":{"type":"Point","coordinates":[7.3899716,49.0221763]},"properties":{"ele":"371","name":"Dreibilderkopf","name:fr":"Tête des 3 Figures","natural":"peak","note":"misspelled \"Treypilerkopf\" on the 1838 cadastral map","source":"Cadastre 1838;IGN"}},
{"type":"Feature","geometry":{"type":"Point","coordinates":[7.4829178,48.9532759]},"properties":{"description":"small black cross with flowers under a tree","historic":"wayside_cross","source":"survey"}},
{"type":"Feature","geometry":{"type":"Point","coordinates":[7.3604603,48.9572302]},"properties":{"historic":"wayside_cross","source":"IGN"}},
{"type":"Feature","geometry":{"type":"Point","coordinates":[7.4596571,49.0092415]},"properties":{"ele":"343","name":"Weiherberg","natural":"peak","note":"Misspelled \"Heÿersberg\" or \"Hoÿersberg\" on the 1749 county of Bitche map. Named \"Grand Hirschberg\" on the 1950 IGN map.","source":"Carte du comté de Bitche 1749;IGN;Office National des Forêts"}},
{"type":"Feature","geometry":{"type":"Point","coordinates":[7.379618,48.9240463]},"properties":{"direction":"250","tourism":"viewpoint"}},
{"type":"Feature","geometry":{"type":"Point","coordinates":[7.3798922,48.9239101]},"properties":{"direction":"180","tourism":"viewpoint"}},
{"type":"Feature","geometry":{"type":"Point","coordinates":[7.3792725,48.9360694]},"properties":{"name":"Source du Schwartzbaechel","natural":"spring"}},
{"type":"Feature","geometry":{"type":"Point","coordinates":[7.3619243,49.0206559]},"properties":{"historic":"wayside_cross"}},
{"type":"Feature","geometry":{"type":"Point","coordinates":[7.3773121,49.0280685]},"properties":{"historic":"wayside_cross"}},
{"type":"Feature","geometry":{"type":"Point","coordinates":[7.3657439,49.0447597]},"properties":{"addr:city":"Siersthal","addr:postcode":"57410","name":"Notre-Dame de Bitscherthal","source":"IGN","tourism":"attraction"}},
{"type":"Feature","geometry":{"type":"Point","coordinates":[7.5035928,49.0527897]},"properties":{"ele":"372.8","name":"Gross Hohekirkel","name:de":"Groß Hohekirkel","name:fr":"Grand Hohékirkel","natural":"peak","source":"Karte der Vogesen im Massstabe 1:50 000"}},
{"type":"Feature","geometry":{"type":"Point","coordinates":[7.4789703,49.057274]},"properties":{"ele":"331","name":"Klein Hohekirkel","name:fr":"Petit-Hohekirkel","natural":"peak","source":"Karte der Vogesen im Massstabe 1:50 000;IGN"}},
{"type":"Feature","geometry":{"type":"Point","coordinates":[7.5083001,49.0153158]},"properties":{"ele":"380","name":"Armsberg","natural":"peak","source":"Atlas du comté de Bitche;Karte der Vogesen im Massstabe 1:50 000;IGN"}},
{"type":"Feature","geometry":{"type":"Point","coordinates":[7.5267109,49.0176558]},"properties":{"ele":"320","name":"Schlossberg","natural":"peak","source":"Atlas du comté de Bitche;IGN"}},
{"type":"Feature","geometry":{"type":"Point","coordinates":[7.519992,49.0045857]},"properties":{"ele":"356","name":"Gauchsberg","natural":"peak","source":"IGN"}},
{"type":"Feature","geometry":{"type":"Point","coordinates":[7.590263,49.0288057]},"properties":{"ele":"358","name":"Nonnenkopf","natural":"peak","source":"Führer und Karte zu den Sehenswuerdigkeiten des Wasgaubades Niederbronn"}},
{"type":"Feature","geometry":{"type":"Point","coordinates":[7.5831376,49.0334167]},"properties":{"name":"Abrahamfels","name:de":"Abrahamsfelsen","natural":"rock","source":"Führer und Karte zu den Sehenswuerdigkeiten des Wasgaubades Niederbronn;IGN;gps"}},
{"type":"Feature","geometry":{"type":"Point","coordinates":[7.5693623,49.0389326]},"properties":{"ele":"381","name":"Abstberg","natural":"peak","source":"Carte des Vosges à l'échelle 1/50 000;IGN"}},
{"type":"Feature","geometry":{"type":"Point","coordinates":[7.5341748,49.0294476]},"properties":{"ele":"347","name":"Kantelberg","natural":"peak","source":"Führer und Karte zu den Sehenswuerdigkeiten des Wasgaubades Niederbronn"}},
{"type":"Feature","geometry":{"type":"Point","coordinates":[7.5384821,48.9425014]},"properties":{"ele":"366","name":"Grossenberg","name:de":"Großenberg","natural":"peak","source":"Führer und Karte zu den Sehenswuerdigkeiten des Wasgaubades Niederbronn;IGN"}},
{"type":"Feature","geometry":{"type":"Point","coordinates":[7.5341436,48.9306065]},"properties":{"ele":"402","name":"Friedrichskopf","natural":"peak","source":"Führer und Karte zu den Sehenswuerdigkeiten des Wasgaubades Niederbronn;IGN"}},
{"type":"Feature","geometry":{"type":"Point","coordinates":[7.559461,48.9810732]},"properties":{"ele":"314","name":"Krappenberg","natural":"peak","source":"Cadastre 1838;Führer und Karte zu den Sehenswuerdigkeiten des Wasgaubades Niederbronn;IGN"}},
{"type":"Feature","geometry":{"type":"Point","coordinates":[7.3783252,48.9920049]},"properties":{"natural":"spring"}},
{"type":"Feature","geometry":{"type":"Point","coordinates":[7.5234546,48.9852943]},"properties":{"addr:city":"Baerenthal","addr:postcode":"57230","ele":"282","name":"Schlossberg","name:de":"Schloßberg","natural":"peak","source":"Karte der Vogesen im Massstabe 1:50 000"}},
{"type":"Feature","geometry":{"type":"Point","coordinates":[7.490466,48.9765209]},"properties":{"ele":"331","name":"Huettenberg","name:de":"Hüttenberg","natural":"peak","source":"Karte der Vogesen im Massstabe 1:50 000;Carte des Vosges à l'échelle 1/50 000;IGN"}},
{"type":"Feature","geometry":{"type":"Point","coordinates":[7.4694162,48.9831004]},"properties":{"ele":"262","name":"Schneidberg","natural":"peak","source":"Carte des Vosges à l'échelle 1/50 000;IGN;Meßtischblatt 3583 : Saareinsberg 1914"}},
{"type":"Feature","geometry":{"type":"Point","coordinates":[7.5474764,49.0022781]},"properties":{"ele":"302","name":"Hasselkopf","name:fr":"Hasselberg","natural":"peak","note":"Named \"Hasselberg\" on one map and \"Hasselkopf\" on the other","source":"Carte des Vosges à l'échelle 1/50 000;IGN","wikidata":"Q31394669"}},
{"type":"Feature","geometry":{"type":"Point","coordinates":[7.5457259,49.0197528]},"properties":{"collection":"no","description:de":"gut erhalten","format":"squared_stone","format:top":"spherical","height":"0.6","heritage":"no","historic":"boundary_stone"}},
{"type":"Feature","geometry":{"type":"Point","coordinates":[7.5292722,49.0166549]},"properties":{"historic":"wayside_cross","inscription":"ZUM LOB GOTTES HABE DISES CREUTZ AUF GERICHTET CAROLUS MISCHLER UND JOHANNES GAUSLER UND JOSEPH SCHMIT","material":"sandstone"}},
{"type":"Feature","geometry":{"type":"Point","coordinates":[7.5330833,49.011199]},"properties":{"collection":"no","format":"squared_stone","format:top":"flat","heritage":"no","historic":"boundary_stone"}},
{"type":"Feature","geometry":{"type":"Point","coordinates":[7.5504369,48.9835707]},"properties":{"ele":"285","name":"Spitzenberg","natural":"peak","source":"Cadastre 1838;IGN"}},
{"type":"Feature","geometry":{"type":"Point","coordinates":[7.5629813,48.9770381]},"properties":{"ele":"290","name":"Dunkelberg","natural":"peak","source":"Cadastre 1838;IGN"}},
{"type":"Feature","geometry":{"type":"Point","coordinates":[7.5439141,48.9848458]},"properties":{"ele":"270","name":"Lattenberg","natural":"peak","source":"Cadastre 1838;IGN"}},
{"type":"Feature","geometry":{"type":"Point","coordinates":[7.5388017,48.9894848]},"properties":{"ele":"345","name":"Betzenberg","natural":"peak","source":"Cadastre 1838;IGN"}},
{"type":"Feature","geometry":{"type":"Point","coordinates":[7.4981556,48.996268]},