{"type":"FeatureCollection","features":[
{"type":"Feature","geometry":{"type":"Point","coordinates":[2.9871007,43.6063071]},"properties":{"ele":"1091","name":"La Tour","natural":"peak","wikidata":"Q3321726"}},
{"type":"Feature","geometry":{"type":"Point","coordinates":[3.0026372,43.6154847]},"properties":{"ele":"802","mountain_pass":"yes","name":"Col des Avels","natural":"saddle"}},
{"type":"Feature","geometry":{"type":"Point","coordinates":[3.0203499,43.6186693]},"properties":{"ele":"691","mountain_pass":"yes","name":"Col de Madale","natural":"saddle"}},
{"type":"Feature","geometry":{"type":"Point","coordinates":[2.97101,43.5837]},"properties":{"ele":"670","name":"Col de Bartouyre","natural":"saddle"}},
{"type":"Feature","geometry":{"type":"Point","coordinates":[2.9790966,43.5903667]},"properties":{"hiking":"yes","information":"map","map_type":"toposcope","name":"Table d'orientation du Caroux","tourism":"information"}},
{"type":"Feature","geometry":{"type":"Point","coordinates":[2.9698585,43.6085018]},"properties":{"ele":"946","name":"Col de l'Airole","natural":"saddle"}},
{"type":"Feature","geometry":{"type":"Point","coordinates":[2.94378,43.5960168]},"properties":{"ele":"641","mountain_pass":"yes","name":"Col de Bardou","natural":"saddle"}},
{"type":"Feature","geometry":{"type":"Point","coordinates":[3.0147741,43.5999911]},"properties":{"tourism":"viewpoint"}},
{"type":"Feature","geometry":{"type":"Point","coordinates":[2.9121772,43.5568394]},"properties":{"name":"Auberge au Fil de l'Eau","phone":"+33 4 67 97 19 59","tourism":"hotel"}},
{"type":"Feature","geometry":{"type":"Point","coordinates":[2.911963,43.555089]},"properties":{"information":"office","name":"Office Tourisme ot-Caroux","tourism":"information"}},
{"type":"Feature","geometry":{"type":"Point","coordinates":[2.9568475,43.5821022]},"properties":{"ele":"575","name":"Col de l’Auge","natural":"saddle"}},
{"type":"Feature","geometry":{"type":"Point","coordinates":[2.9366999,43.5943337]},"properties":{"ele":"625","name":"Col de Grousset","natural":"saddle"}},
{"type":"Feature","geometry":{"type":"Point","coordinates":[2.9543186,43.5836842]},"properties":{"ele":"605","name":"Col de Coulaïgo","natural":"saddle"}},
{"type":"Feature","geometry":{"type":"Point","coordinates":[2.9597045,43.5666226]},"properties":{"board_type":"notice","information":"board","name":"Mons-la-Trivalle","tourism":"information"}},
{"type":"Feature","geometry":{"type":"Point","coordinates":[3.0056456,43.578609]},"properties":{"historic":"wayside_cross"}},
{"type":"Feature","geometry":{"type":"Point","coordinates":[3.0117891,43.5810036]},"properties":{"information":"guidepost","tourism":"information"}},
{"type":"Feature","geometry":{"type":"Point","coordinates":[3.0164525,43.5981959]},"properties":{"direction_west":"escalade paroi d'arles","information":"guidepost","tourism":"information"}},
{"type":"Feature","geometry":{"type":"Point","coordinates":[2.9408932,43.5654173]},"properties":{"covered":"no","leisure":"picnic_table"}},
{"type":"Feature","geometry":{"type":"Point","coordinates":[2.959592,43.5664567]},"properties":{"historic":"memorial","memorial":"war_memorial","memorial:conflict":"WW1;WW2","ref:FR:MemorialGenWeb":"64776","source":"cadastre-dgi-fr source : Direction Générale des Impôts - Cadastre ; mise à jour : 2012"}},
{"type":"Feature","geometry":{"type":"Point","coordinates":[2.95623,43.5948]},"properties":{"ele":"685","name":"Col de La Narquoise","natural":"saddle"}},
{"type":"Feature","geometry":{"type":"Point","coordinates":[2.9628938,43.5945413]},"properties":{"ele":"1034","name":"Roc du Caroux","natural":"peak"}},
{"type":"Feature","geometry":{"type":"Point","coordinates":[2.96388,43.5823]},"properties":{"name":"Gorges d'Héric","tourism":"attraction"}},
{"type":"Feature","geometry":{"type":"Point","coordinates":[2.9397889,43.5349665]},"properties":{"ele":"619","name":"Col de la Bacoulette","natural":"saddle"}},
{"type":"Feature","geometry":{"type":"Point","coordinates":[2.9118207,43.5571012]},"properties":{"name":"Pont du Diable","tourism":"attraction"}},
{"type":"Feature","geometry":{"type":"Point","coordinates":[2.97253,43.6102]},"properties":{"ele":"907","information":"guidepost","tourism":"information"}},
{"type":"Feature","geometry":{"type":"Point","coordinates":[2.9753231,43.6107556]},"properties":{"distance":"8","hiking":"yes","information":"guidepost","name":"Départ du circuit Le Sommet du Caroux","operator":"CD34","roundtrip":"yes","tourism":"information"}},
{"type":"Feature","geometry":{"type":"Point","coordinates":[2.9771189,43.5958329]},"properties":{"hiking":"yes","information":"guidepost","map_size":"region","map_type":"scheme","tourism":"information"}},
{"type":"Feature","geometry":{"type":"Point","coordinates":[2.983009,43.6012945]},"properties":{"board_type":"nature","description":"panneau d'information","information":"board","tourism":"information"}},
{"type":"Feature","geometry":{"type":"Point","coordinates":[2.98389,43.6017596]},"properties":{"board_type":"nature","description":"panneau d'information","information":"board","tourism":"information"}},
{"type":"Feature","geometry":{"type":"Point","coordinates":[2.9857249,43.5725911]},"properties":{"information":"guidepost","name":"Saint-Martin-de-l'Arçon","tourism":"information"}},
{"type":"Feature","geometry":{"type":"Point","coordinates":[2.9748788,43.5836826]},"properties":{"ele":"710","information":"guidepost","name":"Carrefour de Saint-Martin","tourism":"information"}},
{"type":"Feature","geometry":{"type":"Point","coordinates":[2.9763928,43.5839877]},"properties":{"name":"Col de l'Ours","natural":"saddle"}},
{"type":"Feature","geometry":{"type":"Point","coordinates":[2.9995887,43.588523]},"properties":{"ele":"780","name":"Col de la Baume de Rouquayrol","natural":"saddle"}},
{"type":"Feature","geometry":{"type":"Point","coordinates":[2.9592385,43.5810707]},"properties":{"ele":"559","name":"Col de Peyris","natural":"saddle"}},
{"type":"Feature","geometry":{"type":"Point","coordinates":[2.9546565,43.5815504]},"properties":{"ele":"680","information":"guidepost","name":"Col de Roujas","tourism":"information"}},
{"type":"Feature","geometry":{"type":"Point","coordinates":[2.9546357,43.5815448]},"properties":{"ele":"680","name":"Col de Roujas","natural":"saddle"}},
{"type":"Feature","geometry":{"type":"Point","coordinates":[2.9698495,43.6084746]},"properties":{"ele":"946","information":"guidepost","tourism":"information"}},
{"type":"Feature","geometry":{"type":"Point","coordinates":[2.9897015,43.5423635]},"properties":{"ele":"520","name":"Roc Traucat","natural":"peak","source":"GPS"}},
{"type":"Feature","geometry":{"type":"Point","coordinates":[3.0067051,43.5439828]},"properties":{"ele":"655","historic":"castle","name":"Tour du Pin","ruins":"yes","source":"GPS"}},
{"type":"Feature","geometry":{"type":"Point","coordinates":[2.9740246,43.539859]},"properties":{"historic":"memorial","memorial":"plaque","name":"A Roger Gailhard"}},
{"type":"Feature","geometry":{"type":"Point","coordinates":[2.9900584,43.54207]},"properties":{"description":"Arche naturelle","name":"Arche du Roc Traucat","natural":"arch"}},
{"type":"Feature","geometry":{"type":"Point","coordinates":[2.9740251,43.5397966]},"properties":{"name":"Mimosas","natural":"tree"}},
{"type":"Feature","geometry":{"type":"Point","coordinates":[2.9740231,43.5397814]},"properties":{"name":"Pressoir","tourism":"attraction"}},
{"type":"Feature","geometry":{"type":"Point","coordinates":[2.987979,43.5413823]},"properties":{"historic":"ruins","name":"San Julio"}},
{"type":"Feature","geometry":{"type":"Point","coordinates":[3.00672,43.544]},"properties":{"ele":"666","name":"Tour du Pin","tourism":"viewpoint"}},
{"type":"Feature","geometry":{"type":"Point","coordinates":[2.9774565,43.54157]},"properties":{"access":"yes","historic":"ruins","name":"Tour","ruins":"tower"}},
{"type":"Feature","geometry":{"type":"Point","coordinates":[2.9764634,43.5410722]},"properties":{"artwork_type":"sculpture","name":"Tête sculptée dans une alcove murale","tourism":"artwork"}},
{"type":"Feature","geometry":{"type":"Point","coordinates":[2.9739401,43.5398128]},"properties":{"covered":"no","leisure":"picnic_table","material":"stone"}},
{"type":"Feature","geometry":{"type":"Point","coordinates":[2.9739743,43.5398276]},"properties":{"covered":"no","leisure":"picnic_table","material":"stone"}},
{"type":"Feature","geometry":{"type":"Point","coordinates":[2.9763329,43.5410156]},"properties":{"colour":"black","height":"4","historic":"wayside_cross","material":"metal"}},
{"type":"Feature","geometry":{"type":"Point","coordinates":[2.9760338,43.5413092]},"properties":{"colour":"black","historic":"wayside_cross","material":"metal"}},
{"type":"Feature","geometry":{"type":"Point","coordinates":[2.9918434,43.5414152]},"properties":{"historic":"ruins","source":"GPS"}},
{"type":"Feature","geometry":{"type":"Point","coordinates":[2.9826281,43.5434059]},"properties":{"historic":"ruins","source":"GPS"}},
{"type":"Feature","geometry":{"type":"Point","coordinates":[2.9851242,43.5458415]},"properties":{"historic":"ruins","source":"GPS"}},
{"type":"Feature","geometry":{"type":"Point","coordinates":[2.9954263,43.5518862]},"properties":{"historic":"ruins","source":"GPS"}},
{"type":"Feature","geometry":{"type":"Point","coordinates":[2.9969231,43.5520208]},"properties":{"historic":"ruins","source":"GPS"}},
{"type":"Feature","geometry":{"type":"Point","coordinates":[2.9539633,43.6169768]},"properties":{"ele":"754","information":"guidepost","name":"Col du Salis","tourism":"information"}},
{"type":"Feature","geometry":{"type":"Point","coordinates":[2.9540036,43.6169494]},"properties":{"ele":"754","name":"Col du Salis","natural":"saddle"}},
{"type":"Feature","geometry":{"type":"Point","coordinates":[2.98239,43.5856]},"properties":{"ele":"720","name":"Col Est des Jonquilles","natural":"saddle"}},
{"type":"Feature","geometry":{"type":"Point","coordinates":[2.98719,43.586411]},"properties":{"ele":"802","name":"Portail des Cades","natural":"rock"}},
{"type":"Feature","geometry":{"type":"Point","coordinates":[2.9940062,43.5825922]},"properties":{"ele":"490","name":"Col de la Pomarède","natural":"saddle"}},
{"type":"Feature","geometry":{"type":"Point","coordinates":[2.9740454,43.6111179]},"properties":{"name":"Maison du Mouflon","tourism":"museum"}},
{"type":"Feature","geometry":{"type":"Point","coordinates":[2.9788885,43.6143134]},"properties":{"historic":"memorial","image":"https://www.memorialgenweb.org/photos/34/34-9214.jpg","memorial":"stele","memorial:conflict":"WW2","name":"Stèle maquis Bir-Hakeim 10 septembre 1943","ref:FR:MemorialGenWeb":"9214","war_memorial":"yes"}},
{"type":"Feature","geometry":{"type":"Point","coordinates":[2.9752327,43.6107584]},"properties":{"hiking":"yes","information":"guidepost","name":"Départ du Circuit Le Vialais","operator":"CD34","tourism":"information"}},
{"type":"Feature","geometry":{"type":"Point","coordinates":[2.9734757,43.6108238]},"properties":{"board_type":"nature","information":"board","name":"Hameau de Douch","tourism":"information"}},
{"type":"Feature","geometry":{"type":"Point","coordinates":[2.9554444,43.5995576]},"properties":{"ele":"518","hiking":"yes","information":"guidepost","name":"Héric","tourism":"information"}},
{"type":"Feature","geometry":{"type":"Point","coordinates":[2.9753997,43.6107217]},"properties":{"hiking":"yes","information":"map","map_size":"region","map_type":"topo","name":"Itinéraires de Randonnée Tours dans la Montagne du Haut-Languedoc","tourism":"information"}},
{"type":"Feature","geometry":{"type":"Point","coordinates":[2.9740408,43.6110812]},"properties":{"artwork_type":"sculpture","name":"Tête de Mouflon","tourism":"artwork"}},
{"type":"Feature","geometry":{"type":"Point","coordinates":[2.9730347,43.6108247]},"properties":{"colour":"brown","historic":"wayside_cross","material":"metal"}},
{"type":"Feature","geometry":{"type":"Point","coordinates":[2.9735421,43.6112455]},"properties":{"hiking":"yes","information":"guidepost","tourism":"information"}},
{"type":"Feature","geometry":{"type":"Point","coordinates":[2.9573265,43.6244375]},"properties":{"natural":"rock"}},
{"type":"Feature","geometry":{"type":"Point","coordinates":[2.9137576,43.5561898]},"properties":{"historic":"memorial","inscription":"A la mémoires glorieuse des enfants d'Olargues morts pour la France","memorial":"war_memorial","memorial:conflict":"WW1;WW2","ref:FR:MemorialGenWeb":"61327"}},
{"type":"Feature","geometry":{"type":"Point","coordinates":[2.9618466,43.5898151]},"properties":{"ele":"700","name":"Col du Curé","natural":"saddle"}},
{"type":"Feature","geometry":{"type":"Point","coordinates":[2.9300763,43.565504]},"properties":{"tourism":"picnic_site"}},
{"type":"Feature","geometry":{"type":"Point","coordinates":[2.929862,43.5655802]},"properties":{"colour":"gray","historic":"wayside_cross","material":"metal"}},
{"type":"Feature","geometry":{"type":"Point","coordinates":[2.9305005,43.565637]},"properties":{"christ":"yes","christ:colour":"white","historic":"wayside_cross","wayside_cross":"calvary"}},
{"type":"Feature","geometry":{"type":"Point","coordinates":[2.9310729,43.5658029]},"properties":{"historic":"memorial","inscription":"Nuit du 4 août 1789 - Abolition des privilèges","memorial":"plaque"}},
{"type":"Feature","geometry":{"type":"Point","coordinates":[2.9312525,43.565855]},"properties":{"colour":"gray","historic":"wayside_cross","material":"concrete"}},
{"type":"Feature","geometry":{"type":"Point","coordinates":[2.931166,43.5659234]},"properties":{"leisure":"picnic_table"}},
{"type":"Feature","geometry":{"type":"Point","coordinates":[2.9277639,43.5184196]},"properties":{"ele":"764","name":"Farrials","natural":"peak"}},
{"type":"Feature","geometry":{"type":"Point","coordinates":[2.9062633,43.5161069]},"properties":{"ele":"661","name":"La Serre","natural":"peak"}},
{"type":"Feature","geometry":{"type":"Point","coordinates":[2.960321,43.549927]},"properties":{"ele":"404","name":"Bessebis","natural":"peak"}},
{"type":"Feature","geometry":{"type":"Point","coordinates":[2.9586,43.5428]},"properties":{"ele":"427","name":"Col de Courbou","natural":"saddle"}},
{"type":"Feature","geometry":{"type":"Point","coordinates":[2.9475039,43.5494913]},"properties":{"ele":"462","name":"Costeplane","natural":"peak"}},
{"type":"Feature","geometry":{"type":"Point","coordinates":[2.95056,43.5594983]},"properties":{"ele":"257","name":"Serre d'Ornac","natural":"peak"}},
{"type":"Feature","geometry":{"type":"Point","coordinates":[2.9414138,43.557419]},"properties":{"ele":"366","name":"Carnoulet","natural":"peak"}},
{"type":"Feature","geometry":{"type":"Point","coordinates":[2.938414,43.540114]},"properties":{"ele":"632","name":"Puech Calvel","natural":"peak"}},
{"type":"Feature","geometry":{"type":"Point","coordinates":[2.9412704,43.5388053]},"properties":{"ele":"610","name":"Col du Lauzet","natural":"saddle"}},
{"type":"Feature","geometry":{"type":"Point","coordinates":[2.9495209,43.5369122]},"properties":{"ele":"753","name":"Naudech","natural":"peak"}},
{"type":"Feature","geometry":{"type":"Point","coordinates":[2.90695,43.5436839]},"properties":{"ele":"507","name":"Montagne de Sainte-Croix","natural":"peak"}},
{"type":"Feature","geometry":{"type":"Point","coordinates":[2.9178305,43.5578657]},"properties":{"tourism":"viewpoint"}},
{"type":"Feature","geometry":{"type":"Point","coordinates":[2.9206783,43.5576334]},"properties":{"covered":"no","leisure":"picnic_table"}},
{"type":"Feature","geometry":{"type":"Point","coordinates":[2.9128189,43.5907848]},"properties":{"ele":"922","information":"guidepost","name":"col de Peyre Azent","tourism":"information"}},
{"type":"Feature","geometry":{"type":"Point","coordinates":[2.9183393,43.5567091]},"properties":{"covered":"no","leisure":"picnic_table"}},
{"type":"Feature","geometry":{"type":"Point","coordinates":[2.960383,43.5815371]},"properties":{"ele":"595","name":"Roc de Peyris","natural":"peak","sport":"climbing"}},
{"type":"Feature","geometry":{"type":"Point","coordinates":[2.9668156,43.5760763]},"properties":{"name":"Beylot-Ferran","sport":"climbing"}},
{"type":"Feature","geometry":{"type":"Point","coordinates":[2.95559,43.592078]},"properties":{"ele":"695","name":"Le Pouce","natural":"peak"}},
{"type":"Feature","geometry":{"type":"Point","coordinates":[2.9752421,43.6107998]},"properties":{"artwork_type":"statue","tourism":"artwork"}},
{"type":"Feature","geometry":{"type":"Point","coordinates":[2.9707504,43.582507]},"properties":{"ele":"709","name":"Roc Bartouyre","natural":"peak"}},
{"type":"Feature","geometry":{"type":"Point","coordinates":[2.9553822,43.5929771]},"properties":{"ele":"731","name":"Main de Farrières","natural":"peak"}},
{"type":"Feature","geometry":{"type":"Point","coordinates":[2.9207003,43.594072]},"properties":{"historic":"ruins"}},
{"type":"Feature","geometry":{"type":"Point","coordinates":[2.9089884,43.5883752]},"properties":{"tourism":"viewpoint"}},
{"type":"Feature","geometry":{"type":"Point","coordinates":[3.00815,43.6102]},"properties":{"capacity":"25","description":"Le Hameau de la Fage est un gite d'étape et de séjour situé à 800 m d'altitude au coeur du Caroux, dans le site exceptionnel des Gorges de Colombières.","email":"hameaudelafage@yahoo.fr","mobile":"+33 6 89 35 40 86;+33 7 71 79 41 48","name":"Gîte d'étape de La Fage","ref:refuges.info":"5788","shower":"yes","tourism":"alpine_hut","website":"https://www.hameau-la-fage.fr/"}},
{"type":"Feature","geometry":{"type":"Point","coordinates":[2.921682,43.5974306]},"properties":{"historic":"ruins"}},
{"type":"Feature","geometry":{"type":"Point","coordinates":[2.9282427,43.5873853]},"properties":{"natural":"rock"}},
{"type":"Feature","geometry":{"type":"Point","coordinates":[2.9245198,43.5853997]},"properties":{"name":"Fenêtre de Tirecos","natural":"cave_entrance"}},
{"type":"Feature","geometry":{"type":"Point","coordinates":[3.0172652,43.5212398]},"properties":{"historic":"ruins"}},
{"type":"Feature","geometry":{"type":"Point","coordinates":[2.9673298,43.6140199]},"properties":{"ele":"988","name":"Col du Tirondel","natural":"saddle"}},
{"type":"Feature","geometry":{"type":"Point","coordinates":[2.9169679,43.5565312]},"properties":{"covered":"no","leisure":"picnic_table"}},
{"type":"Feature","geometry":{"type":"Point","coordinates":[2.9880032,43.6232856]},"properties":{"ele":"1049","name":"Gioulet","natural":"peak"}},
{"type":"Feature","geometry":{"type":"Point","coordinates":[2.9201578,43.599947]},"properties":{"ele":"1049","name":"Mont Gros","natural":"peak"}},
{"type":"Feature","geometry":{"type":"Point","coordinates":[2.9790965,43.5903634]},"properties":{"information":"map","map_type":"toposcope","name":"Table d’orientation du Caroux","name:fr":"Table d’orientation du Caroux","surface":"paved","tourism":"viewpoint"}},
{"type":"Feature","geometry":{"type":"Point","coordinates":[2.9627831,43.5865474]},"properties":{"ele":"587","name":"Le clocher du Rieu tort","natural":"peak"}},
{"type":"Feature","geometry":{"type":"Point","coordinates":[2.97388,43.5902]},"properties":{"ele":"1010","name":"Rocher de Lucet","natural":"peak"}},
{"type":"Feature","geometry":{"type":"Point","coordinates":[2.9098974,43.5897164]},"properties":{"ele":"1053","name":"Montahut","natural":"peak"}},
{"type":"Feature","geometry":{"type":"Point","coordinates":[3.01515,43.6076]},"properties":{"ele":"901","name":"La Cabrière","natural":"peak"}},
{"type":"Feature","geometry":{"type":"Point","coordinates":[3.0228613,43.5915186]},"properties":{"ele":"579","name":"Saucani","natural":"peak"}},
{"type":"Feature","geometry":{"type":"Point","coordinates":[2.9776267,43.6046548]},"properties":{"ele":"1085","name":"Roc Gros","natural":"peak"}},
{"type":"Feature","geometry":{"type":"Point","coordinates":[3.01541,43.5976]},"properties":{"ele":"833","name":"Roc de Brétouyre","natural":"peak"}},
{"type":"Feature","geometry":{"type":"Point","coordinates":[3.0133401,43.5907393]},"properties":{"ele":"628","name":"Roc de la Tchaque","natural":"peak"}},
{"type":"Feature","geometry":{"type":"Point","coordinates":[2.9528374,43.5966894]},"properties":{"ele":"598","name":"Roc del Touissas","natural":"peak"}},
{"type":"Feature","geometry":{"type":"Point","coordinates":[2.9583884,43.5960034]},"properties":{"ele":"855","name":"Roc de la Sièjo","natural":"peak"}},
{"type":"Feature","geometry":{"type":"Point","coordinates":[2.94367,43.5908]},"properties":{"ele":"652","name":"Col du Renard","natural":"saddle"}},
{"type":"Feature","geometry":{"type":"Point","coordinates":[2.94734,43.5864]},"properties":{"ele":"625","name":"Col de la Maure","natural":"saddle"}},
{"type":"Feature","geometry":{"type":"Point","coordinates":[2.9449013,43.5874678]},"properties":{"ele":"699","name":"La Belo","natural":"peak"}},
{"type":"Feature","geometry":{"type":"Point","coordinates":[2.969434,43.5763334]},"properties":{"name":"Roc de l’Homme","natural":"peak"}},
{"type":"Feature","geometry":{"type":"Point","coordinates":[3.0045019,43.6221958]},"properties":{"colour":"brown","leisure":"picnic_table","material":"wood"}},
{"type":"Feature","geometry":{"type":"Point","coordinates":[2.9988,43.5415]},"properties":{"name":"La Baume","natural":"peak"}},
{"type":"Feature","geometry":{"type":"Point","coordinates":[2.99295,43.5418]},"properties":{"name":"Col du Roc Traucat","natural":"saddle"}},
{"type":"Feature","geometry":{"type":"Point","coordinates":[2.9995317,43.5405679]},"properties":{"natural":"cave_entrance"}},
{"type":"Feature","geometry":{"type":"Point","coordinates":[2.98259,43.5263]},"properties":{"ele":"450","name":"l’Ayrolle","natural":"peak"}},
{"type":"Feature","geometry":{"type":"Point","coordinates":[2.98509,43.5219]},"properties":{"ele":"451","name":"Le Cayre","natural":"peak"}},
{"type":"Feature","geometry":{"type":"Point","coordinates":[2.93756,43.5271]},"properties":{"ele":"742","name":"Le Boscaldel","natural":"peak"}},
{"type":"Feature","geometry":{"type":"Point","coordinates":[2.94355,43.525]},"properties":{"ele":"598","name":"Le Sérieys","natural":"peak"}},
{"type":"Feature","geometry":{"type":"Point","coordinates":[2.9333206,43.524709]},"properties":{"mountain_pass":"yes","name":"Col Sarrat","natural":"saddle"}},
{"type":"Feature","geometry":{"type":"Point","coordinates":[2.9891759,43.6039126]},"properties":{"name":"Le Caroux","natural":"mountain_range"}},
{"type":"Feature","geometry":{"type":"Point","coordinates":[2.9148719,43.556471]},"properties":{"artwork_type":"statue","name":"Buste d'Alexandre Laissac","tourism":"artwork"}},
{"type":"Feature","geometry":{"type":"Point","coordinates":[2.9153867,43.557017]},"properties":{"historic":"wayside_cross","name":"Calvaire"}},
{"type":"Feature","geometry":{"type":"Point","coordinates":[2.91412,43.591]},"properties":{"ele":"905","name":"Col de Peyre Azent","natural":"saddle"}},
{"type":"Feature","geometry":{"type":"Point","coordinates":[2.9255,43.593]},"properties":{"ele":"782","name":"Col des Landres","natural":"saddle"}},
{"type":"Feature","geometry":{"type":"Point","coordinates":[2.93476,43.5995]},"properties":{"ele":"879","name":"Roc de Tauteylle","natural":"peak"}},
{"type":"Feature","geometry":{"type":"Point","coordinates":[2.93687,43.5936]},"properties":{"ele":"642","name":"Roustias","natural":"peak"}},
{"type":"Feature","geometry":{"type":"Point","coordinates":[2.90786,43.5912]},"properties":{"ele":"1004","name":"Col de Montahut","natural":"saddle"}},
{"type":"Feature","geometry":{"type":"Point","coordinates":[2.92284,43.6023]},"properties":{"ele":"950","name":"Le Barbatouse","natural":"peak"}},
{"type":"Feature","geometry":{"type":"Point","coordinates":[2.91646,43.6107]},"properties":{"ele":"1043","name":"Belvédère de la Garrigue","natural":"peak"}},
{"type":"Feature","geometry":{"type":"Point","coordinates":[2.91207,43.584]},"properties":{"ele":"852","name":"Cabrignous","natural":"peak"}},
{"type":"Feature","geometry":{"type":"Point","coordinates":[2.92837,43.6111]},"properties":{"ele":"1056","name":"La Ferrière","natural":"peak"}},
{"type":"Feature","geometry":{"type":"Point","coordinates":[2.94004,43.5784]},"properties":{"ele":"385","name":"Roc du Barri","natural":"peak"}},
{"type":"Feature","geometry":{"type":"Point","coordinates":[2.928192,43.5883863]},"properties":{"ele":"756","name":"Roc des Pièges","natural":"peak"}},
{"type":"Feature","geometry":{"type":"Point","coordinates":[2.9481994,43.579445]},"properties":{"name":"Col de Coupiac","natural":"saddle"}},
{"type":"Feature","geometry":{"type":"Point","coordinates":[2.9336384,43.5819758]},"properties":{"ele":"554","name":"Roque Longue","natural":"peak"}},
{"type":"Feature","geometry":{"type":"Point","coordinates":[2.9730637,43.610584]},"properties":{"bench":"yes","colour":"gray","leisure":"picnic_table","material":"stone","operator":"Douch"}},
{"type":"Feature","geometry":{"type":"Point","coordinates":[2.9600297,43.521678]},"properties":{"ele":"278","name":"Col de Mézeilles","natural":"saddle"}},
{"type":"Feature","geometry":{"type":"Point","coordinates":[2.9738051,43.5273447]},"properties":{"ele":"249","highway":"crossing","name":"Col du Bac","natural":"saddle"}},
{"type":"Feature","geometry":{"type":"Point","coordinates":[2.9327891,43.6054591]},"properties":{"ele":"1023","name":"Chandelle de la Roque","natural":"peak"}},
{"type":"Feature","geometry":{"type":"Point","coordinates":[2.9536033,43.6208859]},"properties":{"ele":"886","name":"Roc du Mayne","natural":"peak"}},
{"type":"Feature","geometry":{"type":"Point","coordinates":[2.9456298,43.6216562]},"properties":{"ele":"933","name":"Le Poustisse","natural":"peak"}},
{"type":"Feature","geometry":{"type":"Point","coordinates":[2.9517285,43.6163262]},"properties":{"ele":"780","name":"Roc du Salis","natural":"peak"}},
{"type":"Feature","geometry":{"type":"Point","coordinates":[2.9386275,43.6136178]},"properties":{"name":"Le Mascar","natural":"peak"}},
{"type":"Feature","geometry":{"type":"Point","coordinates":[2.9408204,43.6127263]},"properties":{"ele":"996","name":"Col de la Muraille","natural":"saddle"}},
{"type":"Feature","geometry":{"type":"Point","coordinates":[2.944929,43.6086442]},"properties":{"ele":"965","name":"Fourcat d'Héric","natural":"peak"}},
{"type":"Feature","geometry":{"type":"Point","coordinates":[2.9560569,43.6123408]},"properties":{"ele":"936","name":"Roc Noir","natural":"peak"}},
{"type":"Feature","geometry":{"type":"Point","coordinates":[2.9588271,43.6116842]},"properties":{"name":"Lioussès","natural":"peak"}},
{"type":"Feature","geometry":{"type":"Point","coordinates":[2.9556953,43.5975048]},"properties":{"name":"Roc des Coulets","natural":"peak"}},
{"type":"Feature","geometry":{"type":"Point","coordinates":[2.98066,43.6303]},"properties":{"ele":"920","name":"Col de la Plane","natural":"saddle"}},
{"type":"Feature","geometry":{"type":"Point","coordinates":[2.96922,43.6151]},"properties":{"ele":"991","name":"La Tourelle","natural":"peak"}},
{"type":"Feature","geometry":{"type":"Point","coordinates":[2.94532,43.6224]},"properties":{"name":"Col de l’Aygue Jolie","natural":"saddle"}},
{"type":"Feature","geometry":{"type":"Point","coordinates":[2.9737802,43.621238]},"properties":{"ele":"1008","name":"Roc Laurès","natural":"peak"}},
{"type":"Feature","geometry":{"type":"Point","coordinates":[2.96271,43.6211]},"properties":{"ele":"1010","name":"Coulet d’Estrets","natural":"saddle"}},
{"type":"Feature","geometry":{"type":"Point","coordinates":[2.97248,43.6252]},"properties":{"ele":"963","name":"Col d’Auscaus","natural":"saddle"}},
{"type":"Feature","geometry":{"type":"Point","coordinates":[3.0205108,43.6247323]},"properties":{"ele":"804","name":"Le Mouscaillou","natural":"peak"}},
{"type":"Feature","geometry":{"type":"Point","coordinates":[3.0170077,43.624335]},"properties":{"ele":"811","name":"Massaral","natural":"peak"}},
{"type":"Feature","geometry":{"type":"Point","coordinates":[2.99683,43.6325]},"properties":{"ele":"1029","name":"La Plane","natural":"peak"}},
{"type":"Feature","geometry":{"type":"Point","coordinates":[2.98601,43.6184]},"properties":{"ele":"982","name":"Roc Cadenague","natural":"peak"}},
{"type":"Feature","geometry":{"type":"Point","coordinates":[2.9491,43.6307]},"properties":{"access":"no","name":"Point Sublime","tourism":"viewpoint"}},
{"type":"Feature","geometry":{"type":"Point","coordinates":[2.96313,43.6193]},"properties":{"name":"Candès","natural":"peak"}},
{"type":"Feature","geometry":{"type":"Point","coordinates":[3.0218764,43.5931648]},"properties":{"name":"Source du Carouch","natural":"spring"}},
{"type":"Feature","geometry":{"type":"Point","coordinates":[3.01817,43.5874952]},"properties":{"ele":"392","natural":"spring","ref:refuges.info":"6616"}},
{"type":"Feature","geometry":{"type":"Point","coordinates":[2.9155656,43.5234282]},"properties":{"name":"Grotte du Rautély","natural":"cave_entrance","wikidata":"Q66389124"}},
{"type":"Feature","geometry":{"type":"Point","coordinates":[3.0061128,43.5740081]},"properties":{"addr:city":"Colombières-sur-Orb","addr:postcode":"34390","addr:street":"Chemin du Prigoul","fee":"yes","name":"Camping à la ferme","payment:cash":"yes","phone":"+33614231534","tourism":"camp_site"}},
{"type":"Feature","geometry":{"type":"Point","coordinates":[3.0085163,43.5966484]},"properties":{"name":"Fontaine d'Arles","natural":"spring"}},
{"type":"Feature","geometry":{"type":"Point","coordinates":[3.0002726,43.5971688]},"properties":{"name":"Col de la Siège","natural":"saddle"}},
{"type":"Feature","geometry":{"type":"Point","coordinates":[3.0228294,43.5908339]},"properties":{"historic":"archaeological_site","megalith_type":"dolmen","source":"gps"}},
{"type":"Feature","geometry":{"type":"Point","coordinates":[2.992374,43.5880235]},"properties":{"ele":"704","name":"Roc de Petsé","natural":"peak"}},
{"type":"Feature","geometry":{"type":"Point","coordinates":[2.9084983,43.6299673]},"properties":{"christ":"yes","christ:colour":"white","colour":"brown","historic":"wayside_cross","material":"wood","name":"Calvaire"}},
{"type":"Feature","geometry":{"type":"Point","coordinates":[3.0123482,43.6059736]},"properties":{"ele":"815","name":"Source des Estrets","natural":"spring","ref:refuges.info":"6614"}},
{"type":"Feature","geometry":{"type":"Point","coordinates":[3.0058175,43.5635465]},"properties":{"name":"Col del Bouch","natural":"saddle"}},
{"type":"Feature","geometry":{"type":"Point","coordinates":[3.0024755,43.5668077]},"properties":{"name":"La Hyerle","natural":"peak"}},
{"type":"Feature","geometry":{"type":"Point","coordinates":[2.9743039,43.600089]},"properties":{"intermittent":"yes","name":"Font Salesse","natural":"spring"}},
{"type":"Feature","geometry":{"type":"Point","coordinates":[2.9597925,43.589606]},"properties":{"name":"Arête des Charbonniers","sport":"climbing"}},
{"type":"Feature","geometry":{"type":"Point","coordinates":[2.9624181,43.5916647]},"properties":{"name":"Aiguille Godefroy","sport":"climbing"}},
{"type":"Feature","geometry":{"type":"Point","coordinates":[2.9613977,43.5923508]},"properties":{"name":"Épaule du Rieutord","sport":"climbing"}},
{"type":"Feature","geometry":{"type":"Point","coordinates":[2.9630947,43.5911099]},"properties":{"name":"Les Aiguilles du Rieutort","sport":"climbing"}},
{"type":"Feature","geometry":{"type":"Point","coordinates":[2.9662433,43.5799099]},"properties":{"name":"La Tour de Guet","natural":"peak"}},
{"type":"Feature","geometry":{"type":"Point","coordinates":[2.9710413,43.5810159]},"properties":{"name":"Roc Bartouyre","sport":"climbing"}},
{"type":"Feature","geometry":{"type":"Point","coordinates":[2.9647582,43.5838007]},"properties":{"name":"Tour Carrée","sport":"climbing"}},
{"type":"Feature","geometry":{"type":"Point","coordinates":[2.9636305,43.5894405]},"properties":{"name":"Aiguille Viallat","sport":"climbing"}},
{"type":"Feature","geometry":{"type":"Point","coordinates":[2.993333,43.5885364]},"properties":{"information":"guidepost","tourism":"information"}},
{"type":"Feature","geometry":{"type":"Point","coordinates":[2.9704407,43.5945457]},"properties":{"ele":"1055","name":"Plo de la Maurelle","natural":"peak"}},
{"type":"Feature","geometry":{"type":"Point","coordinates":[2.9875746,43.5947445]},"properties":{"name":"Roc du Boutou","natural":"peak"}},
{"type":"Feature","geometry":{"type":"Point","coordinates":[2.9883063,43.5916355]},"properties":{"ele":"960","name":"Rocher de Sarrazine","natural":"peak"}},
{"type":"Feature","geometry":{"type":"Point","coordinates":[2.9431303,43.5921477]},"properties":{"ele":"695","name":"Le Serre","natural":"peak"}},
{"type":"Feature","geometry":{"type":"Point","coordinates":[2.9530546,43.5827387]},"properties":{"ele":"733","name":"La Gleyso","natural":"peak"}},
{"type":"Feature","geometry":{"type":"Point","coordinates":[2.9360989,43.5748681]},"properties":{"access":"yes","alt_name":"Olargues-le-Vieux","historic":"ruins","historic:civilization":"medieval","name":"Vestiges aval du Castellas","ruins":"castle"}},
{"type":"Feature","geometry":{"type":"Point","coordinates":[3.0042622,43.5723958]},"properties":{"leisure":"slipway"}},
{"type":"Feature","geometry":{"type":"Point","coordinates":[3.0106033,43.6117103]},"properties":{"natural":"spring"}},
{"type":"Feature","geometry":{"type":"Point","coordinates":[2.9448896,43.5971997]},"properties":{"name":"Bau Filliti","tourism":"viewpoint"}},
{"type":"Feature","geometry":{"type":"Point","coordinates":[2.9732135,43.5944229]},"properties":{"bench":"yes","covered":"no","leisure":"picnic_table","lit":"no","material":"wood"}},
{"type":"Feature","geometry":{"type":"Point","coordinates":[2.9324874,43.60952]},"properties":{"natural":"spring"}},
{"type":"Feature","geometry":{"type":"Point","coordinates":[2.9148675,43.6134853]},"properties":{"natural":"spring"}},
{"type":"Feature","geometry":{"type":"Point","coordinates":[2.974602,43.5840357]},"properties":{"natural":"spring"}},
{"type":"Feature","geometry":{"type":"Point","coordinates":[2.9839393,43.575919]},"properties":{"natural":"spring"}},
{"type":"Feature","geometry":{"type":"Point","coordinates":[2.9935028,43.576692799999999]},"properties":{"natural":"spring"}},
{"type":"Feature","geometry":{"type":"Point","coordinates":[3.0042331,43.5731333]},"properties":{"natural":"spring"}},
{"type":"Feature","geometry":{"type":"Point","coordinates":[2.9664541,43.5753809]},"properties":{"natural":"spring"}},
{"type":"Feature","geometry":{"type":"Point","coordinates":[2.954658,43.5738376]},"properties":{"natural":"spring"}},
{"type":"Feature","geometry":{"type":"Point","coordinates":[2.9482833,43.5732642]},"properties":{"natural":"spring"}},
{"type":"Feature","geometry":{"type":"Point","coordinates":[3.014257,43.5920747]},"properties":{"ele":"643","name":"Col des Arcs","natural":"saddle"}},
{"type":"Feature","geometry":{"type":"Point","coordinates":[3.0125717,43.5905047]},"properties":{"name":"Col de la Buffe","natural":"saddle"}},
{"type":"Feature","geometry":{"type":"Point","coordinates":[2.9481236,43.5788856]},"properties":{"ele":"512","name":"Le Mellio","natural":"peak"}},
{"type":"Feature","geometry":{"type":"Point","coordinates":[2.9353454,43.5784465]},"properties":{"name":"Le Castelas","natural":"peak"}},
{"type":"Feature","geometry":{"type":"Point","coordinates":[2.9342171,43.5962608]},"properties":{"ele":"670","name":"Col de Candoubre","natural":"saddle"}},
{"type":"Feature","geometry":{"type":"Point","coordinates":[2.9399716,43.5827371]},"properties":{"name":"La Roueyre","natural":"peak"}},
{"type":"Feature","geometry":{"type":"Point","coordinates":[3.0141637,43.6243055]},"properties":{"name":"Col d’Aussières","natural":"saddle"}},
{"type":"Feature","geometry":{"type":"Point","coordinates":[3.0167122,43.5215971]},"properties":{"name":"Col Prioun","natural":"saddle"}},
{"type":"Feature","geometry":{"type":"Point","coordinates":[2.9949329,43.5668641]},"properties":{"name":"La Gounde","natural":"peak"}},
{"type":"Feature","geometry":{"type":"Point","coordinates":[3.0128925,43.5652358]},"properties":{"name":"Col de la Roque","natural":"saddle"}},
{"type":"Feature","geometry":{"type":"Point","coordinates":[2.9949401,43.5660579]},"properties":{"name":"Col des Cerisiers","natural":"saddle"}},
{"type":"Feature","geometry":{"type":"Point","coordinates":[3.0121032,43.5658987]},"properties":{"name":"Roc de Grinassèdes","natural":"peak"}},
{"type":"Feature","geometry":{"type":"Point","coordinates":[2.9946687,43.5589967]},"properties":{"name":"La Taillade","natural":"peak"}},
{"type":"Feature","geometry":{"type":"Point","coordinates":[3.0135637,43.5620908]},"properties":{"name":"Col de Lunel","natural":"saddle"}},
{"type":"Feature","geometry":{"type":"Point","coordinates":[2.9398703,43.5764745]},"properties":{"name":"source morte","natural":"spring"}},
{"type":"Feature","geometry":{"type":"Point","coordinates":[2.9376348,43.580438]},"properties":{"natural":"spring"}},
{"type":"Feature","geometry":{"type":"Point","coordinates":[2.9605923,43.5672953]},"properties":{"check_date":"2024-04-16","name":"Manoir La Trivalle","tourism":"guest_house"}},
{"type":"Feature","geometry":{"type":"Point","coordinates":[2.9599162,43.5654571]},"properties":{"name":"Les deux chemins","tourism":"guest_house"}},
{"type":"Feature","geometry":{"type":"Point","coordinates":[2.9672658,43.5723174]},"properties":{"name":"Gîte Du Rieutord","tourism":"guest_house"}},
{"type":"Feature","geometry":{"type":"Point","coordinates":[2.9612925,43.5673988]},"properties":{"name":"L'Interlude","tourism":"guest_house"}},
{"type":"Feature","geometry":{"type":"Point","coordinates":[2.9354065,43.6038016]},"properties":{"ele":"1006","name":"Rocher de Clair Gros","natural":"peak"}},
{"type":"Feature","geometry":{"type":"Point","coordinates":[2.9829876,43.5383579]},"properties":{"natural":"cave_entrance"}},
{"type":"Feature","geometry":{"type":"Point","coordinates":[3.0087049,43.6103654]},"properties":{"leisure":"picnic_table"}},
{"type":"Feature","geometry":{"type":"Point","coordinates":[2.9424573,43.5639126]},"properties":{"name":"Domaine Du Jaur","tourism":"guest_house"}},
{"type":"Feature","geometry":{"type":"Point","coordinates":[2.9109588,43.5544242]},"properties":{"information":"office","name":"Centre Cebenna","tourism":"information"}},
{"type":"Feature","geometry":{"type":"Point","coordinates":[2.9681696,43.5581611]},"properties":{"tourism":"viewpoint"}},
{"type":"Feature","geometry":{"type":"Point","coordinates":[3.0005951,43.5782986]},"properties":{"addr:city":"Colombières-sur-Orb","addr:housenumber":"60","addr:postcode":"34390","addr:street":"Allée du Château","contact:facebook":"https://www.facebook.com/ChateauColombieres","email":"chateaucolomb@wanadoo.fr","name":"Château de Colombières sur Orb","phone":"+33 6 12 78 91 85","tourism":"chalet","website":"https://gites-de-charme-languedoc.com"}},
{"type":"Feature","geometry":{"type":"Point","coordinates":[2.9949863,43.5745053]},"properties":{"leisure":"sports_centre","name":"Arbracadabranche","sport":"climbing_adventure","tourism":"theme_park"}},
{"type":"Feature","geometry":{"type":"Point","coordinates":[2.9600942,43.5666569]},"properties":{"access":"yes","leisure":"playground"}},
{"type":"Feature","geometry":{"type":"Point","coordinates":[3.0148505,43.5872918]},"properties":{"historic":"tomb","name":"Tombe Mégalithique"}},
{"type":"Feature","geometry":{"type":"Point","coordinates":[3.0079104,43.6115365]},"properties":{"historic":"memorial"}},
{"type":"Feature","geometry":{"type":"Point","coordinates":[2.9732902,43.6106375]},"properties":{"colour":"brown","leisure":"picnic_table","material":"wood"}},
{"type":"Feature","geometry":{"type":"Point","coordinates":[3.0149683,43.5872079]},"properties":{"historic":"tomb","name":"Tombe Mégalithique"}},
{"type":"Feature","geometry":{"type":"Point","coordinates":[2.9572588,43.5657943]},"properties":{"natural":"tree"}},
{"type":"Feature","geometry":{"type":"Point","coordinates":[2.969377,43.593955]},"properties":{"tourism":"viewpoint"}},
{"type":"Feature","geometry":{"type":"Point","coordinates":[2.9987797,43.5989952]},"properties":{"tourism":"viewpoint"}},
{"type":"Feature","geometry":{"type":"Point","coordinates":[3.0035961,43.5909921]},"properties":{"ele":"700","name":"Roc du Chêne","natural":"peak"}},
{"type":"Feature","geometry":{"type":"Point","coordinates":[2.9437845,43.5960016]},"properties":{"ele":"641","information":"guidepost","name":"Col de Bardou","tourism":"information"}},
{"type":"Feature","geometry":{"type":"Point","coordinates":[3.011309,43.5833894]},"properties":{"name":"Gorges de Colombières","tourism":"attraction","wikidata":"Q3110978","wikipedia":"fr:Gorges de Colombières"}},
{"type":"Feature","geometry":{"type":"Point","coordinates":[2.9359365,43.575604]},"properties":{"tourism":"viewpoint"}},
{"type":"Feature","geometry":{"type":"Point","coordinates":[2.9359874,43.5755894]},"properties":{"historic":"ruins","name":"Vestiges amont du Castellas"}},
{"type":"Feature","geometry":{"type":"Point","coordinates":[2.999524,43.5537618]},"properties":{"historic":"ruins"}},
{"type":"Feature","geometry":{"type":"Point","coordinates":[2.9184561,43.5897552]},"properties":{"ele":"970","name":"Peyre Azent","natural":"peak","source":"IGN - 2021-06"}},
{"type":"Feature","geometry":{"type":"Point","coordinates":[2.9232111,43.5867634]},"properties":{"name":"Le Portalas","natural":"saddle","source":"IGN - 2021-06"}},
{"type":"Feature","geometry":{"type":"Point","coordinates":[2.9413736,43.5835999]},"properties":{"ele":"490","mountain_pass":"yes","name":"Col de Cazagat","natural":"saddle","source":"IGN - 2021-06"}},
{"type":"Feature","geometry":{"type":"Point","coordinates":[2.9610923,43.5781005]},"properties":{"natural":"cave_entrance","source":"IGN - 2021-06"}},
{"type":"Feature","geometry":{"type":"Point","coordinates":[2.9859581,43.5873943]},"properties":{"name":"La Failladouille","natural":"peak","source":"IGN - 2021-06"}},
{"type":"Feature","geometry":{"type":"Point","coordinates":[2.9627608,43.5749416]},"properties":{"historic":"ruins","name":"Cabanes de Luttes"}},
{"type":"Feature","geometry":{"type":"Point","coordinates":[2.9479575,43.5900125]},"properties":{"ele":"551","name":"Rocher du Renard","natural":"peak"}},
{"type":"Feature","geometry":{"type":"Point","coordinates":[2.955178,43.5859482]},"properties":{"ele":"575","name":"Coulaïgo","natural":"peak"}},
{"type":"Feature","geometry":{"type":"Point","coordinates":[2.9558092,43.594281]},"properties":{"ele":"730","name":"Narquoise","natural":"peak"}},
{"type":"Feature","geometry":{"type":"Point","coordinates":[2.9188871,43.517202]},"properties":{"ele":"707","name":"Fiers Loups","natural":"peak"}},
{"type":"Feature","geometry":{"type":"Point","coordinates":[2.9129749,43.5260656]},"properties":{"name":"Grotte de la Pierre Écrite","natural":"cave_entrance"}},
{"type":"Feature","geometry":{"type":"Point","coordinates":[2.9115524,43.5176548]},"properties":{"ele":"617","name":"Col des Fiers Loups","natural":"saddle"}},
{"type":"Feature","geometry":{"type":"Point","coordinates":[2.9229571,43.518355]},"properties":{"name":"Col de la Salle","natural":"saddle"}},
{"type":"Feature","geometry":{"type":"Point","coordinates":[2.9199048,43.5257592]},"properties":{"name":"Grotte du Baous","natural":"cave_entrance"}},
{"type":"Feature","geometry":{"type":"Point","coordinates":[2.9096403,43.5227017]},"properties":{"name":"Aven de Campemaux","natural":"cave_entrance"}},
{"type":"Feature","geometry":{"type":"Point","coordinates":[2.9714393,43.5712252]},"properties":{"covered":"no","leisure":"picnic_table"}},
{"type":"Feature","geometry":{"type":"Point","coordinates":[2.9169801,43.5564929]},"properties":{"covered":"no","leisure":"picnic_table"}},
{"type":"Feature","geometry":{"type":"Point","coordinates":[2.9174703,43.5564584]},"properties":{"leisure":"picnic_table"}},
{"type":"Feature","geometry":{"type":"Point","coordinates":[2.9174361,43.5564525]},"properties":{"leisure":"picnic_table"}},
{"type":"Feature","geometry":{"type":"Point","coordinates":[2.9148504,43.5559063]},"properties":{"leisure":"pitch","sport":"table_tennis"}},
{"type":"Feature","geometry":{"type":"Point","coordinates":[2.9138513,43.5558096]},"properties":{"leisure":"picnic_table"}},
{"type":"Feature","geometry":{"type":"Point","coordinates":[2.9117364,43.5548829]},"properties":{"leisure":"picnic_table"}},
{"type":"Feature","geometry":{"type":"Point","coordinates":[2.9148334,43.5239105]},"properties":{"ele":"480","information":"guidepost","name":"La Salle","tourism":"information"}},
{"type":"Feature","geometry":{"type":"Point","coordinates":[2.9128498,43.5564994]},"properties":{"leisure":"picnic_table"}},
{"type":"Feature","geometry":{"type":"Point","coordinates":[3.0048271,43.5326661]},"properties":{"natural":"tree","source":"locale"}},
{"type":"Feature","geometry":{"type":"Point","coordinates":[3.0046716,43.532582]},"properties":{"natural":"tree","source":"locale"}},
{"type":"Feature","geometry":{"type":"Point","coordinates":[3.005033,43.5330609]},"properties":{"natural":"tree","source":"locale"}},
{"type":"Feature","geometry":{"type":"Point","coordinates":[2.9311207,43.5658056]},"properties":{"natural":"tree","source":"locale"}},
{"type":"Feature","geometry":{"type":"Point","coordinates":[2.9370289,43.5701605]},"properties":{"natural":"tree","source":"locale"}},
{"type":"Feature","geometry":{"type":"Point","coordinates":[2.9831435,43.5746159]},"properties":{"natural":"tree","source":"locale"}},
{"type":"Feature","geometry":{"type":"Point","coordinates":[2.9829517,43.5746514]},"properties":{"natural":"tree","source":"locale"}},
{"type":"Feature","geometry":{"type":"Point","coordinates":[2.9828766,43.5746529]},"properties":{"colour":"black","historic":"wayside_cross","material":"metal","source":"locale"}},
{"type":"Feature","geometry":{"type":"Point","coordinates":[2.9651955,43.5673581]},"properties":{"natural":"tree","source":"locale"}},
{"type":"Feature","geometry":{"type":"Point","coordinates":[2.9591015,43.5667081]},"properties":{"natural":"tree","source":"locale"}},
{"type":"Feature","geometry":{"type":"Point","coordinates":[2.9592708,43.5666923]},"properties":{"natural":"tree","source":"locale"}},
{"type":"Feature","geometry":{"type":"Point","coordinates":[2.9592497,43.5668064]},"properties":{"natural":"tree","source":"locale"}},
{"type":"Feature","geometry":{"type":"Point","coordinates":[2.959311,43.566735]},"properties":{"natural":"tree","source":"locale"}},
{"type":"Feature","geometry":{"type":"Point","coordinates":[2.959527,43.5667513]},"properties":{"natural":"tree","source":"locale"}},
{"type":"Feature","geometry":{"type":"Point","coordinates":[2.9591142,43.5666697]},"properties":{"natural":"tree","source":"locale"}},
{"type":"Feature","geometry":{"type":"Point","coordinates":[2.9593979,43.5667008]},"properties":{"natural":"tree","source":"locale"}},
{"type":"Feature","geometry":{"type":"Point","coordinates":[2.9548321,43.5720557]},"properties":{"colour":"blue","historic":"wayside_cross","material":"metal","source":"locale"}},
{"type":"Feature","geometry":{"type":"Point","coordinates":[2.9474047,43.5724201]},"properties":{"historic":"wayside_cross","source":"locale"}},
{"type":"Feature","geometry":{"type":"Point","coordinates":[2.9669624,43.5702217]},"properties":{"colour":"black","historic":"wayside_cross","material":"metal"}},
{"type":"Feature","geometry":{"type":"Point","coordinates":[2.9858592,43.5722316]},"properties":{"historic":"memorial","memorial":"stele"}},
{"type":"Feature","geometry":{"type":"Point","coordinates":[2.9858813,43.5721986]},"properties":{"colour":"pink","historic":"memorial","inscription":"Aux enfants de Saint-Martin d'Arçon morts pour la France","material":"granite","memorial":"war_memorial","memorial:conflict":"WW1","ref:FR:MemorialGenWeb":"64780"}},
{"type":"Feature","geometry":{"type":"Point","coordinates":[2.985876,43.5722617]},"properties":{"christ":"yes","christ:colour":"silver","colour":"black","historic":"wayside_cross","material":"metal"}},
{"type":"Feature","geometry":{"type":"Point","coordinates":[3.0063929,43.5779295]},"properties":{"historic":"memorial","image":"https://upload.wikimedia.org/wikipedia/commons/f/f9/Colombieres-sur-Orb_monument_morts.jpg","inscription":"A nos glorieux martyrs","memorial":"war_memorial","memorial:conflict":"WW1","ref:FR:MemorialGenWeb":"61286","wikimedia_commons":"File:Colombieres-sur-Orb monument morts.jpg"}},
{"type":"Feature","geometry":{"type":"Point","coordinates":[2.9090971,43.5292757]},"properties":{"historic":"archaeological_site","name":"Peyro Escrito","source":"BDTopo IGN"}},
{"type":"Feature","geometry":{"type":"Point","coordinates":[2.9092155,43.523363]},"properties":{"name":"aven 100 / PN 77 ?","natural":"cave_entrance"}},
{"type":"Feature","geometry":{"type":"Point","coordinates":[2.9367299,43.5699691]},"properties":{"natural":"tree","source":"BDOrtho IGN"}},
{"type":"Feature","geometry":{"type":"Point","coordinates":[2.93675,43.5696455]},"properties":{"natural":"tree","source":"BDOrtho IGN"}},
{"type":"Feature","geometry":{"type":"Point","coordinates":[2.9367319,43.5696897]},"properties":{"natural":"tree","source":"BDOrtho IGN"}},
{"type":"Feature","geometry":{"type":"Point","coordinates":[2.9367124,43.5697407]},"properties":{"natural":"tree","source":"BDOrtho IGN"}},
{"type":"Feature","geometry":{"type":"Point","coordinates":[2.9366883,43.5697927]},"properties":{"natural":"tree","source":"BDOrtho IGN"}},
{"type":"Feature","geometry":{"type":"Point","coordinates":[2.9366729,43.5698326]},"properties":{"natural":"tree","source":"BDOrtho IGN"}},
{"type":"Feature","geometry":{"type":"Point","coordinates":[2.9366487,43.5698782]},"properties":{"natural":"tree","source":"BDOrtho IGN"}},
{"type":"Feature","geometry":{"type":"Point","coordinates":[2.9366226,43.5699312]},"properties":{"natural":"tree","source":"BDOrtho IGN"}},
{"type":"Feature","geometry":{"type":"Point","coordinates":[2.9366025,43.5699739]},"properties":{"natural":"tree","source":"BDOrtho IGN"}},
{"type":"Feature","geometry":{"type":"Point","coordinates":[2.9376639,43.5714222]},"properties":{"name":"Mas Azaïs","network":"Gîtes de France","tourism":"chalet","website":"https://www.gites-de-france.com/fr/occitanie/herault/mas-azais-34g27110"}},
{"type":"Feature","geometry":{"type":"Point","coordinates":[2.9595213,43.5665438]},"properties":{"historic":"memorial","memorial":"plaque","name":"Marcel Roger"}},
{"type":"Feature","geometry":{"type":"Point","coordinates":[3.0063573,43.577946]},"properties":{"colour":"black","historic":"wayside_cross","material":"metal"}},
{"type":"Feature","geometry":{"type":"Point","coordinates":[2.9793052,43.5389404]},"properties":{"historic":"memorial","inscription":"Gloire à eux morts pour la Patrie","memorial":"war_memorial","memorial:conflict":"WW1;WW2","ref:FR:MemorialGenWeb":"61323"}},
{"type":"Feature","geometry":{"type":"Point","coordinates":[2.9304934,43.5656622]},"properties":{"historic":"memorial","memorial":"war_memorial","memorial:conflict":"WW1","ref:FR:MemorialGenWeb":"77646"}},
{"type":"Feature","geometry":{"type":"Point","coordinates":[2.9077955,43.6300998]},"properties":{"fixme":"position précise à vérifier sur place","historic":"memorial","image":"https://upload.wikimedia.org/wikipedia/commons/d/d0/Cambon_monument_morts_Salvergues.JPG","inscription":"A nos morts glorieux","memorial":"war_memorial","memorial:conflict":"WW1","ref:FR:MemorialGenWeb":"9208","wikimedia_commons":"File:Cambon monument morts Salvergues.JPG"}},
{"type":"Feature","geometry":{"type":"Point","coordinates":[2.9786454,43.614115]},"properties":{"artwork_type":"sculpture","tourism":"artwork"}},
{"type":"Feature","geometry":{"type":"Point","coordinates":[2.9788519,43.6143005]},"properties":{"colour":"gray","historic":"wayside_cross","material":"stone"}},
{"type":"Feature","geometry":{"type":"Point","coordinates":[2.9730785,43.6106568]},"properties":{"board_type":"history","information":"board","name":"Hameau de Douch","tourism":"information"}},
{"type":"Feature","geometry":{"type":"Point","coordinates":[2.9812042,43.5529813]},"properties":{"christ":"yes","christ:colour":"black","colour":"black","historic":"wayside_cross","inscription":"O Crux Ave 19 Mars 1904","material":"metal","start_date":"1904-03-19"}},
{"type":"Feature","geometry":{"type":"Point","coordinates":[2.9442175,43.5752347]},"properties":{"historic":"memorial","inscription":"A la mémoire de JEAN TRANIER et ANDRÉ ALINGRIN tombés á LAOUZO NEGRO le 6 février 1949 La Section du CAROUX du CLUB ALPIN FRANCAIS","memorial":"plaque"}},
{"type":"Feature","geometry":{"type":"Point","coordinates":[2.9407688,43.5946206]},"properties":{"natural":"tree","species":"Abies nordmanniana"}},
{"type":"Feature","geometry":{"type":"Point","coordinates":[2.9414872,43.5947809]},"properties":{"natural":"tree","species":"Pinus nigra"}},
{"type":"Feature","geometry":{"type":"Point","coordinates":[2.9407508,43.5946651]},"properties":{"natural":"tree","species":"Cupressus sempervirens"}},
{"type":"Feature","geometry":{"type":"Point","coordinates":[2.9563706,43.5722552]},"properties":{"artwork_type":"sculpture","tourism":"artwork"}},
{"type":"Feature","geometry":{"type":"Point","coordinates":[2.9566692,43.5723458]},"properties":{"artwork_type":"sculpture","tourism":"artwork"}},
{"type":"Feature","geometry":{"type":"Point","coordinates":[2.9855995,43.5455387]},"properties":{"historic":"ruins"}},
{"type":"Feature","geometry":{"type":"LineString","coordinates":[[2.9185546,43.5847931],[2.9189191,43.584162],[2.9196545,43.5835289],[2.920519,43.5834343],[2.9208908,43.5835222],[2.9218808,43.5836067],[2.9220091,43.5840554],[2.9217646,43.5843264],[2.9217719,43.5850454],[2.9227619,43.5851299],[2.9238609,43.5837758],[2.9243545,43.5837596],[2.9247309,43.5842204],[2.9248601,43.584759],[2.9261039,43.5854713],[2.9270967,43.5858254],[2.9265892,43.5845699],[2.9269583,43.5843881],[2.9278228,43.5842935],[2.9310495,43.5854443],[2.9305745,43.5873344],[2.9302036,43.5873364],[2.9297118,43.5876087],[2.9286167,43.5893224],[2.9291113,43.5893197],[2.9299721,43.5888656],[2.9305904,43.5888622],[2.9307159,43.5890413],[2.930595,43.5893116],[2.930966,43.5893096],[2.9314578,43.5890372],[2.9318231,43.5884959],[2.9324367,43.5880432],[2.9329303,43.5879506],[2.9336731,43.5880364],[2.9340459,43.5882141],[2.933809,43.5892041],[2.9333153,43.5892967],[2.93295,43.589838],[2.9324685,43.5910989],[2.9312273,43.5906564],[2.9304957,43.591649],[2.9325987,43.5917274],[2.9327233,43.5918166],[2.9326071,43.5925363],[2.9314942,43.5925424],[2.9303785,43.5922789],[2.9266689,43.5922991],[2.925556,43.5923052],[2.9251814,43.5919477],[2.9250512,43.5913192],[2.9252948,43.5909584],[2.9245474,43.5904232],[2.9239273,43.5902468],[2.922198,43.5904359],[2.9208342,43.5900838],[2.920717,43.5907136],[2.9210934,43.5912508],[2.9203552,43.5916143],[2.9199778,43.5909872],[2.9192313,43.5905418],[2.9178666,43.5900997],[2.9174993,43.5904612],[2.9163892,43.5907368],[2.9161309,43.5908892],[2.9157746,43.5910996],[2.9152504,43.5909659],[2.9145637,43.5912552],[2.91413,43.5914162],[2.9133088,43.5918318],[2.912963,43.5919572],[2.9125668,43.5918358],[2.9105929,43.5922956],[2.9100911,43.5915792],[2.9100528,43.5912613],[2.9086126,43.5921264],[2.9073539,43.5927003],[2.9073877,43.5933013],[2.9067748,43.5938438],[2.9070286,43.5956547],[2.9059981,43.5961758],[2.9052639,43.5964178],[2.9040573,43.5957107],[2.9046979,43.5942996],[2.9045454,43.593496],[2.9045401,43.5929567],[2.9051458,43.5916952],[2.9061261,43.5907913],[2.9066189,43.5906089],[2.9084122,43.590061],[2.9077062,43.5898912],[2.9072264,43.5895271],[2.9068528,43.5892595],[2.9063573,43.5891722],[2.9056074,43.5883672],[2.9049981,43.5892692],[2.9042553,43.5891832],[2.9040026,43.5886453],[2.9035045,43.5882884],[2.9033755,43.5877497],[2.9027826,43.5873495],[2.9022046,43.5870391],[2.9015552,43.5867032],[2.8993803,43.586519],[2.8971413,43.5861902],[2.8960244,43.5858443],[2.8952338,43.5857697],[2.8944631,43.585904],[2.8937639,43.5859998],[2.8928983,43.5856773],[2.8923349,43.5849499],[2.8923618,43.5847026],[2.8924009,43.5843485],[2.8924381,43.5841977],[2.8928299,43.5841193],[2.8935655,43.5834864],[2.8938128,43.5834851],[2.8951825,43.5844667],[2.8975263,43.5839154],[2.8983909,43.583821],[2.8993764,43.5834564],[2.8993963,43.5827215],[2.8991029,43.582441],[2.8985004,43.5823823],[2.8978796,43.5821159],[2.8971395,43.5822995],[2.8960225,43.5818559],[2.8963854,43.5810451],[2.8966309,43.5808641],[2.8971272,43.5810413],[2.8981163,43.5810361],[2.8984924,43.5815735],[2.8995866,43.5817262],[2.9005942,43.5815626],[2.9010745,43.580122],[2.9018083,43.5793092],[2.9016811,43.5789504],[2.901184,43.5786833],[2.9008131,43.5786853],[2.9006788,43.5776074],[2.9001808,43.5772505],[2.898949,43.5777063],[2.8984545,43.5777089],[2.8973375,43.5772652],[2.8972174,43.5776254],[2.8951123,43.5772767],[2.8926468,43.5780085],[2.8925171,43.57738],[2.8926372,43.5770198],[2.8938691,43.5765641],[2.8939866,43.5759344],[2.8937358,43.5755761],[2.8937314,43.5751267],[2.8948378,43.5744919],[2.8957058,43.5747571],[2.8959478,43.5742165],[2.8952034,43.5739507],[2.8953218,43.5734109],[2.89569,43.5731393],[2.8968007,43.5729538],[2.8972926,43.5726816],[2.8981631,43.5732164],[2.8986585,43.5733037],[2.8995194,43.5728498],[2.9000191,43.5733865],[2.9000262,43.5741055],[2.900397,43.5741036],[2.9008942,43.5743706],[2.9008959,43.5745504],[2.9020076,43.5744547],[2.9017568,43.5740965],[2.9018796,43.574006],[2.9039819,43.5740849],[2.9049637,43.5733607],[2.9052154,43.5738088],[2.9053452,43.5744372],[2.9043608,43.5748918],[2.9042407,43.5752519],[2.9051114,43.5757866],[2.9040024,43.576152],[2.9031468,43.5771451],[2.9026541,43.5773275],[2.9026604,43.5779566],[2.903041,43.5789433],[2.9035346,43.5788508],[2.9037837,43.5790293],[2.9031726,43.5797515],[2.9030544,43.5802914],[2.9035551,43.5809179],[2.9035578,43.5811876],[2.9034466,43.5824465],[2.9027146,43.583439],[2.9028427,43.5838877],[2.9037126,43.5843325],[2.9040835,43.5843306],[2.904329,43.5841495],[2.9041973,43.5833413],[2.9050538,43.582438],[2.9062857,43.5819822],[2.9069092,43.5825182],[2.9070365,43.582877],[2.9081501,43.582961],[2.9086464,43.5831382],[2.9084126,43.5844876],[2.9101372,43.5838493],[2.9102573,43.5834892],[2.9096364,43.5832228],[2.9097546,43.5826829],[2.9107491,43.5832169],[2.91112,43.5832149],[2.9114873,43.5828535],[2.911231,43.581956],[2.9113528,43.5817756],[2.9118465,43.5816831],[2.9115929,43.5810553],[2.9125747,43.5803311],[2.9124456,43.5797925],[2.9118194,43.5789869],[2.9123111,43.5787146],[2.9097042,43.5776499],[2.9084859,43.5780389],[2.9085997,43.5784647],[2.9087404,43.5801716],[2.9080004,43.5803553],[2.9071305,43.5799105],[2.9065052,43.5791947],[2.906378,43.5788359],[2.9065197,43.5784108],[2.9070501,43.5779822],[2.9077158,43.5779254],[2.9084621,43.5780354],[2.9097089,43.5776479],[2.9133606,43.5791344],[2.9146464,43.577354],[2.9153836,43.5769007],[2.9151318,43.5764526],[2.9158708,43.576179],[2.9163717,43.5768055],[2.9174824,43.5766198],[2.9176042,43.5764394],[2.9190877,43.5764314],[2.9193331,43.5762503],[2.9199548,43.5766065],[2.9208193,43.576512],[2.9211919,43.5766897],[2.9221772,43.5763249],[2.9221699,43.5756059],[2.9217678,43.5756575],[2.9213094,43.5754084],[2.9212009,43.5750611],[2.9210865,43.5746432],[2.9210435,43.5742638],[2.9204209,43.5738177],[2.9200491,43.5737299],[2.9197964,43.5731919],[2.9201645,43.5729203],[2.9200659,43.5725748],[2.9216396,43.5721034],[2.922134,43.5721008],[2.9225085,43.5724583],[2.9227696,43.573805],[2.9237668,43.5746086],[2.9237705,43.574968],[2.9232806,43.5754201],[2.9232889,43.576229],[2.9230453,43.5765898],[2.9224309,43.5769526],[2.9221883,43.5774034],[2.9214502,43.5777669],[2.9200904,43.5777742],[2.9192222,43.5775092],[2.9157736,43.578786],[2.9141691,43.5790643],[2.9134319,43.5795176],[2.9134337,43.5796973],[2.9139301,43.5798744],[2.9145527,43.5803205],[2.9150536,43.580947],[2.9164117,43.58076],[2.9170207,43.5798579],[2.9182616,43.5803007],[2.9181407,43.580571],[2.9175226,43.5805743],[2.917278,43.5808452],[2.9172826,43.5812946],[2.9183962,43.5813785],[2.9193898,43.5818226],[2.9190208,43.5820043],[2.9175362,43.5819224],[2.9167954,43.5820163],[2.9161736,43.5816601],[2.9150618,43.5817559],[2.9153145,43.5822938],[2.9160608,43.5827392],[2.91594,43.5830095],[2.9154445,43.5829223],[2.9152009,43.5832831],[2.9158218,43.5835494],[2.9153318,43.5840014],[2.9159536,43.5843576],[2.9143545,43.5851751],[2.9148554,43.5858016],[2.9154745,43.5858882],[2.9169454,43.584622],[2.91694,43.5840827],[2.917309,43.583901],[2.9178027,43.5838084],[2.9180518,43.5839869],[2.91781,43.5845274],[2.9185546,43.5847931]]},"properties":{"natural":"heath"}},
{"type":"Feature","geometry":{"type":"LineString","coordinates":[[2.934347,43.6425463],[2.933974,43.6422383],[2.9329904,43.6421257],[2.932172,43.6421302],[2.9307792,43.6420188],[2.9301148,43.6411303],[2.930757,43.6398785],[2.9308266,43.6386883],[2.9300038,43.6383366],[2.9290948,43.637509],[2.9283511,43.6367997],[2.927603,43.635733],[2.9278413,43.6346492],[2.926468,43.6334882],[2.9228536,43.6309911],[2.9221038,43.630276],[2.9219727,43.6295577],[2.9220955,43.6294671],[2.9209033,43.6289326],[2.919601,43.6290502],[2.9196888,43.6296239],[2.9204844,43.6300556],[2.9204418,43.6312647],[2.9212778,43.6316377],[2.9223743,43.6325217],[2.921304,43.6341937],[2.9215566,43.6348462],[2.9223937,43.6344091],[2.9230142,43.6345855],[2.9233827,43.6343139],[2.9240033,43.6344903],[2.9244936,43.6340382],[2.9253993,43.6344097],[2.9263684,43.6358257],[2.9262567,43.6369948],[2.925275,43.6378091],[2.9239054,43.6370076],[2.9237715,43.6360196],[2.9206787,43.6361262],[2.9205632,43.6369357],[2.9206906,43.6372946],[2.9215688,43.6384583],[2.9223141,43.638724],[2.9239248,43.638895],[2.9239359,43.6399736],[2.9251781,43.6404163],[2.930163,43.6437148],[2.9317813,43.6446048],[2.9322773,43.6446919],[2.934347,43.6425463]]},"properties":{"CLC:code":"322","CLC:id":"FR-228407","CLC:year":"2006","natural":"heath","source":"Union européenne - SOeS, CORINE Land Cover, 2006."}},
{"type":"Feature","geometry":{"type":"LineString","coordinates":[[2.9317317,43.5622299],[2.9319768,43.5622133],[2.9327666,43.5618392],[2.9330998,43.5615354],[2.9326158,43.5613178],[2.9311823,43.561143],[2.931054,43.5607007],[2.9301537,43.5603026],[2.9293023,43.5598275],[2.9291538,43.5596549],[2.9294132,43.5593284],[2.9289458,43.5592713],[2.9284792,43.5591737],[2.9277582,43.559023],[2.9263903,43.5586573],[2.92536,43.5588395],[2.9246476,43.5584687],[2.9219676,43.5578671],[2.9215344,43.5574268],[2.9208021,43.5575016],[2.9203834,43.5575712],[2.9193929,43.5576945],[2.919122,43.5578124],[2.9173374,43.5581005],[2.9152962,43.5583492],[2.9144469,43.558257],[2.9143159,43.558473],[2.9140033,43.5599015],[2.9149891,43.5603718],[2.9172023,43.5609545],[2.9187573,43.5611245],[2.9187721,43.5611322],[2.9191932,43.5612222],[2.9196095,43.5613716],[2.920053,43.5613794],[2.9207749,43.5616474],[2.9211736,43.5617091],[2.921626,43.5618556],[2.9219819,43.5619011],[2.9222272,43.5616391],[2.9228225,43.5616853],[2.9231406,43.5616735],[2.9238767,43.5615875],[2.9251378,43.5621514],[2.9263937,43.5621445],[2.9283255,43.5617531],[2.9305721,43.5614745],[2.9314635,43.5616225],[2.9317317,43.5622299]]},"properties":{"CLC:code":"322","CLC:id":"FR-230471","CLC:year":"2006","natural":"scrub","source":"Union européenne - SOeS, CORINE Land Cover, 2006."}},
{"type":"Feature","geometry":{"type":"LineString","coordinates":[[3.0306092,43.6240637],[3.0305824,43.6241297],[3.0305099,43.6241782],[3.0303919,43.6241724],[3.0302256,43.6240714],[3.0299306,43.6239763],[3.029488,43.6238753],[3.0294505,43.6239064],[3.0294961,43.6239549],[3.0296221,43.6240015],[3.0298984,43.6240734],[3.029897,43.6240938],[3.029893,43.624151],[3.0296382,43.6241569],[3.0293861,43.6241724],[3.0291152,43.6242559],[3.0286109,43.6245141],[3.0282944,43.6246345],[3.0280235,43.6246403],[3.0275971,43.6245859],[3.0276749,43.6246578],[3.0276856,43.6247238],[3.0276239,43.6247918],[3.0275863,43.6248772],[3.0275756,43.6249684],[3.0275407,43.6250888],[3.0274509,43.6251141],[3.0271263,43.6250403],[3.0269212,43.6249675],[3.0268474,43.6249121],[3.0267924,43.6248112],[3.0267736,43.6246325],[3.0268326,43.6245879],[3.0269104,43.624584],[3.0270633,43.6245957],[3.0271491,43.6245743],[3.0271572,43.6245025],[3.0270955,43.624419],[3.0271786,43.6243685],[3.027176,43.6243102],[3.0271518,43.6241879],[3.0271009,43.6239491],[3.0270499,43.6237433],[3.0271304,43.6237412],[3.0272001,43.6237394],[3.0272859,43.6238287],[3.0273476,43.6239452],[3.0273664,43.6240908],[3.0273879,43.6242423],[3.0274898,43.6243064],[3.027707,43.6242151],[3.0279109,43.6241277],[3.0280557,43.6240287],[3.0281121,43.6239297],[3.0280745,43.6238268],[3.0278948,43.6235375],[3.0278814,43.6234967],[3.0276963,43.6234093],[3.0274335,43.6233647],[3.0272135,43.6233705],[3.0269922,43.6234245],[3.0263359,43.62325],[3.0252719,43.6232568],[3.0241195,43.6227293],[3.0230512,43.6223788],[3.021735,43.6217928],[3.0206739,43.6220377],[3.020356,43.6228127],[3.0185629,43.6234779],[3.0165939,43.6230734],[3.0160309,43.6237208],[3.0150503,43.623846],[3.0142315,43.6237916],[3.0126785,43.6241687],[3.0144066,43.6249309],[3.0153978,43.6256977],[3.0170384,43.625984],[3.0180155,43.6255621],[3.0189185,43.6257946],[3.0195819,43.6265635],[3.0211342,43.6263155],[3.0227691,43.6261265],[3.0227208,43.6274206],[3.0229568,43.6277041],[3.0233431,43.6277895],[3.0237347,43.627906],[3.0240186,43.6279028],[3.0242658,43.6276225],[3.0244374,43.6274711],[3.0246037,43.6275915],[3.0245501,43.6277584],[3.0244857,43.6278943],[3.0245715,43.6281001],[3.0253118,43.6276147],[3.0253547,43.62744],[3.0253226,43.6272886],[3.0253333,43.6271022],[3.0254728,43.6270517],[3.0256122,43.6271566],[3.0257678,43.6271799],[3.0260628,43.6269275],[3.0262721,43.6268614],[3.0263203,43.6267178],[3.0262291,43.6265974],[3.0262023,43.6263722],[3.0266368,43.6261858],[3.027463,43.6257431],[3.0279833,43.6259217],[3.0280852,43.6260499],[3.0281749,43.6264494],[3.028273,43.6265508],[3.0282569,43.6266673],[3.0279618,43.6268692],[3.0277151,43.6269119],[3.0275327,43.6274866],[3.0276346,43.6276691],[3.0275971,43.6278167],[3.027243,43.6282749],[3.0266564,43.6294904],[3.0264384,43.6302046],[3.026427,43.6308008],[3.0265778,43.6315015],[3.0267699,43.6321065],[3.0268031,43.6326197],[3.0272216,43.6334079],[3.0274039,43.6339281],[3.0278975,43.6343242],[3.0286592,43.6341999],[3.0285627,43.6337806],[3.0285519,43.6335593],[3.0284446,43.6334312],[3.0283266,43.6332992],[3.0283052,43.6331671],[3.0284017,43.6330546],[3.0287397,43.6328177],[3.0285948,43.632379],[3.0285197,43.632181],[3.0282891,43.6321188],[3.0280262,43.6322004],[3.0278921,43.6320101],[3.0281228,43.6318898],[3.0281228,43.6317267],[3.0280101,43.631583],[3.0280745,43.6313772],[3.0283856,43.6312297],[3.0284929,43.6308142],[3.0285788,43.6306007],[3.0289435,43.6305929],[3.0293083,43.6305696],[3.0294317,43.6305541],[3.0294371,43.6304609],[3.0290508,43.6303561],[3.0287343,43.6303561],[3.0285519,43.6303988],[3.0284929,43.6300105],[3.0285197,43.6298591],[3.028745,43.6292417],[3.0290079,43.6290747],[3.0292171,43.6287913],[3.0293137,43.6285428],[3.0303239,43.6281592],[3.0312262,43.6283321],[3.031726,43.6290423],[3.0335343,43.6296846],[3.0347674,43.6300924],[3.0353032,43.6302103],[3.0357488,43.6300276],[3.0353303,43.6292573],[3.0341777,43.6287288],[3.0336801,43.6281972],[3.0336489,43.6280502],[3.0327222,43.6278438],[3.0326433,43.6276702],[3.0325001,43.6274652],[3.0322534,43.6274633],[3.0321273,43.6275196],[3.0319637,43.6275235],[3.0317625,43.627506],[3.0315748,43.6274808],[3.0314568,43.6273857],[3.0313843,43.6273119],[3.0311483,43.6271604],[3.0311081,43.6269838],[3.0311564,43.6268614],[3.0312824,43.6267877],[3.0315962,43.6267042],[3.0322614,43.626545],[3.0326852,43.6265081],[3.0327979,43.6265139],[3.0329481,43.6265683],[3.0331573,43.6263566],[3.0332807,43.6261246],[3.0332981,43.6259887],[3.0332659,43.625912],[3.033168,43.625848],[3.0329856,43.6257994],[3.0324921,43.625646],[3.0320334,43.625514],[3.0319154,43.6255296],[3.0318725,43.6255412],[3.0317438,43.6255198],[3.0316016,43.6254791],[3.0314514,43.6253917],[3.0313119,43.6254247],[3.0311778,43.6254791],[3.0310222000000004,43.6255121],[3.0308855,43.6255179],[3.030754,43.6254868],[3.0306306,43.6254305],[3.0304724,43.6254383],[3.0303088,43.6255975],[3.0301961,43.6256422],[3.0300379,43.6256189],[3.0299199,43.6255742],[3.0296972,43.6255664],[3.029539,43.6255917],[3.0294612,43.625514],[3.0294907,43.6254713],[3.0296302,43.6253762],[3.0299145,43.6252538],[3.0302605,43.6251509],[3.0304188,43.6251063],[3.0307969,43.6250558],[3.0309097,43.6250514],[3.0310571,43.6250457],[3.0310973,43.6250442],[3.0311859,43.625015],[3.0312717,43.6249879],[3.0313334,43.6249432],[3.0313548,43.6248461],[3.0313522,43.6247374],[3.0314273,43.624652],[3.0314997,43.6245607],[3.0315667,43.6244704],[3.0316338,43.6244403],[3.0317143,43.6243665],[3.0317612,43.6243442],[3.0318229,43.6243617],[3.0318604,43.6244063],[3.0318913,43.6244695],[3.0318765,43.6245345],[3.0318256,43.6245694],[3.0317304,43.6244898],[3.0316311,43.6244928],[3.0315801000000004,43.6245471],[3.031607,43.6246364],[3.0317183,43.6246539],[3.0318564,43.6246801],[3.0318739,43.6247267],[3.0318645,43.6247859],[3.0319422,43.6248286],[3.0320737,43.6248083],[3.032189,43.6247481],[3.0322199,43.6246976],[3.0322762,43.624716],[3.0323084,43.6248073],[3.0324237,43.6248286],[3.0325364,43.624784],[3.0325913,43.6246782],[3.0326718,43.6246481],[3.0327375,43.6246083],[3.0326302,43.6244889],[3.0323888,43.6243238],[3.0321689,43.6242219],[3.0320898,43.6242792],[3.0320656,43.6242967],[3.0319449,43.6243724],[3.0318376,43.6242986],[3.0318457,43.6242326],[3.0317062,43.6241355],[3.0315345,43.6241607],[3.0314809,43.6242132],[3.0314809,43.6242811],[3.0314299,43.6243685],[3.0313361,43.6243957],[3.031261,43.6243801],[3.0311671,43.6242811],[3.0310196,43.6242675],[3.0309606,43.6242093],[3.0309927,43.6240967],[3.0310813,43.6240307],[3.0312744,43.6240209],[3.0315265,43.6240015],[3.0316499,43.623918],[3.0316713,43.6238661],[3.0315755,43.6237816],[3.0314286,43.6236491],[3.0310732,43.623753],[3.0308774,43.6238734],[3.0306092,43.6240637]]},"properties":{"CLC:code":"322","CLC:id":"FR-228685","CLC:year":"2006","natural":"heath","source":"Union européenne - SOeS, CORINE Land Cover, 2006."}},
{"type":"Feature","geometry":{"type":"LineString","coordinates":[[2.9840443,43.6210479],[2.9833542,43.6217804],[2.9803382,43.6228691],[2.980101,43.6236435],[2.9802723,43.6242964],[2.9809299,43.6245295],[2.9821518,43.624047],[2.9834521,43.6232663],[2.9847607,43.6231394],[2.9852591,43.6237903],[2.9847775,43.6246257],[2.9849508,43.6255167],[2.9856112,43.6259881],[2.9855366,43.6266424],[2.9846406,43.627005],[2.983899,43.6265342],[2.9825836,43.6260657],[2.9812745,43.6260735],[2.9807901,43.6266707],[2.9807189,43.6276228],[2.9812186,43.6283928],[2.9826911,43.6283245],[2.9837498,43.6278429],[2.9851397,43.6277155],[2.9862052,43.6278282],[2.9874304,43.6276422],[2.9879262,43.628055],[2.9886769,43.6287853],[2.9893102,43.629178],[2.9901025,43.6280599],[2.9904634,43.6280397],[2.9916887,43.6277952],[2.9920867,43.6270299],[2.9913424,43.626321],[2.989452,43.6256189],[2.9894715,43.6252952],[2.9890602,43.6251651],[2.9890534,43.6245708],[2.9894564,43.6240336],[2.9901058,43.6236128],[2.9910066,43.6236074],[2.9923998,43.6237776],[2.993056,43.6239523],[2.9941951,43.6233499],[2.9951676,43.6225126],[2.9945072,43.6220402],[2.9938448,43.6213308],[2.9927057,43.621932],[2.9918036,43.62176],[2.9918774,43.6210461],[2.9924463,43.6206853],[2.9929291,43.619969],[2.992436,43.6197933],[2.9916118,43.619323],[2.9907165,43.6197453],[2.989574,43.6200488],[2.9890918,43.6208247],[2.9882718,43.620651],[2.9878306,43.6209784],[2.9876161,43.6213357],[2.9872298,43.6217085],[2.9869401,43.6217395],[2.986865,43.6220036],[2.986747,43.6222211],[2.9865754,43.6222677],[2.9863608,43.6220735],[2.986232,43.6220191],[2.9859424,43.6218638],[2.9860711,43.6216386],[2.9860926,43.6214599],[2.9858673,43.6214599],[2.9858136,43.6215531],[2.9855668,43.6219881],[2.9854844,43.6220142],[2.9853952,43.6220424],[2.9852235,43.621957],[2.9848802,43.6219881],[2.9845691,43.6219648],[2.9843652,43.621825],[2.9841077,43.621623],[2.9840863,43.6213978],[2.9840326,43.6212191],[2.9840541,43.6211454],[2.9840443,43.6210479]]},"properties":{"CLC:code":"322","CLC:id":"FR-228798","CLC:year":"2006","natural":"heath","source":"Union européenne - SOeS, CORINE Land Cover, 2006."}},
{"type":"Feature","geometry":{"type":"LineString","coordinates":[[3.0199535,43.6191525],[3.02115,43.6188528],[3.0218514,43.618663],[3.0224205,43.6181482],[3.0222849,43.6175457],[3.0222799,43.6171266],[3.0226567,43.616567],[3.0232288,43.6162386],[3.0245063,43.6161845],[3.0260421,43.6162668],[3.0272539,43.6160277],[3.028013,43.6153723],[3.0279387,43.6145369],[3.0285055,43.6138366],[3.0294599,43.6134126],[3.0303318,43.6135478],[3.0310161,43.6138453],[3.0314819,43.614243],[3.0317015,43.6152035],[3.03207,43.6155304],[3.0324168,43.6156671],[3.0328543,43.615719],[3.0333328,43.6156946],[3.0338879,43.6155173],[3.0331802,43.6136535],[3.0324759,43.6129053],[3.0318784,43.6124475],[3.0311777,43.6119884],[3.0309786,43.6121479],[3.0302767,43.6122917],[3.0276138,43.6128973],[3.0270878,43.6127367],[3.0266942,43.6124491],[3.0264398,43.6121208],[3.0260713,43.6121455],[3.0253383,43.6124968],[3.0250208,43.6126162],[3.0242064,43.6129191],[3.0232296,43.613341],[3.0224914,43.6132266],[3.0222398,43.6126934],[3.0215786,43.6121628],[3.0217333,43.6113888],[3.0226288,43.6110258],[3.023063,43.6109236],[3.0233591,43.610546],[3.0230271,43.6101324],[3.0233477,43.6095944],[3.0235871,43.6090581],[3.0229245,43.6084084],[3.0215316,43.6082386],[3.0207222,43.6089571],[3.0200827,43.6099117],[3.0193538,43.6105702],[3.0192135,43.6107421],[3.0186642,43.6109288],[3.0174028,43.6118613],[3.016652,43.6129294],[3.0159592,43.6135347],[3.0137965,43.6135945],[3.0121406,43.6134661],[3.0112526,43.6137028],[3.0103662,43.6140782],[3.0089751,43.6140609],[3.0091184,43.6141911],[3.0089843,43.6143472],[3.0081599,43.6148459],[3.0092088,43.6153292],[3.0092362,43.6153797],[3.0098154,43.6159309],[3.0104544,43.6161581],[3.0117269,43.6161501],[3.0145529,43.6161667],[3.0150026,43.6162455],[3.0170827,43.6159954],[3.0180688,43.6163465],[3.0195467,43.6167529],[3.0206163,43.6170338],[3.0204581,43.61751],[3.0199721,43.6179288],[3.0199351,43.6187189],[3.0199535,43.6191525]]},"properties":{"CLC:code":"322","CLC:id":"FR-229048","CLC:year":"2006","natural":"heath","source":"Union européenne - SOeS, CORINE Land Cover, 2006."}},
{"type":"Feature","geometry":{"type":"LineString","coordinates":[[2.9840213,43.6153829],[2.9847741,43.6150783],[2.9850599,43.6149976],[2.9853094,43.6149491],[2.9855025,43.6149374],[2.9857046,43.6149561],[2.9873586,43.6157588],[2.9877824,43.6158326],[2.9883081,43.615887],[2.9891989,43.6162906],[2.9892035,43.6162456],[2.9900222,43.6163002],[2.9908485,43.6169491],[2.9915872,43.6171828],[2.9921561,43.6168232],[2.9929727,43.6166992],[2.9939574,43.6169303],[2.9956734,43.6166828],[2.9965207,43.6167152],[2.9972337,43.6171486],[2.9977302,43.6176208],[2.9989593,43.6177919],[2.9993265,43.6179818],[2.9995936,43.6179476],[3.0018088,43.6184688],[3.0036012,43.6177443],[3.0036742,43.6169709],[3.0033373,43.6162],[3.0053776,43.6157121],[3.0073393,43.6155214],[3.0080677,43.6148034],[3.0081599,43.6148459],[3.0089843,43.6143472],[3.0091184,43.6141911],[3.0089751,43.6140609],[3.0088982,43.6139911],[3.0083376,43.6133119],[3.0082953,43.6133156],[3.0069927,43.6138584],[3.0057727,43.614521],[3.0043859,43.6148857],[3.0026638,43.6145402],[3.0014326,43.61425],[2.9991432,43.6143831],[2.9975892,43.6144522],[2.9961969,43.6143415],[2.9936589,43.6142379],[2.9921874,43.6143659],[2.9907897,43.6139777],[2.9902121,43.6138419],[2.9897896,43.6131939],[2.98909,43.6134768],[2.9887757,43.6139899],[2.9879205,43.6145927],[2.9872753,43.6141573],[2.9858811,43.6138691],[2.9844756,43.613831],[2.9840798,43.6138203],[2.9826077,43.6138886],[2.9808119,43.6142555],[2.9810924,43.6145944],[2.9818865,43.6150715],[2.9823828,43.6155438],[2.9840213,43.6153829]]},"properties":{"CLC:code":"321","CLC:id":"FR-229070","CLC:year":"2006","natural":"grassland","source":"Union européenne - SOeS, CORINE Land Cover, 2006."}},
{"type":"Feature","geometry":{"type":"LineString","coordinates":[[2.947017,43.6037627],[2.9462596,43.6017457],[2.9456042,43.6016898],[2.9450372,43.6022278],[2.9438098,43.6021752],[2.9423379,43.602243],[2.9421672,43.60159],[2.9415076,43.6010589],[2.9418238,43.600046],[2.9428843,43.5997423],[2.943777,43.5990834],[2.9435186,43.5978962],[2.9421294,43.5980231],[2.9415636,43.5986801],[2.9405027,43.5988647],[2.9399375,43.5995813],[2.9398681,43.6007703],[2.940287,43.6017196],[2.9406253,43.6027873],[2.9398536,43.6033702],[2.9388968,43.6050263],[2.9383839,43.6054547],[2.9380612,43.6057512],[2.9380552,43.6063568],[2.9372032,43.6070374],[2.936657,43.607909],[2.9381403,43.6085208],[2.9392932,43.6092278],[2.9391455,43.6098108],[2.9398966,43.6098516],[2.9405837,43.6101983],[2.9426776,43.6102956],[2.9445889,43.609504],[2.9455426,43.6100548],[2.9462181,43.6111262],[2.9463094,43.6114246],[2.9462418,43.61168],[2.9458925,43.6119123],[2.9428302,43.6120733],[2.9420577,43.6115507],[2.9407263,43.6119154],[2.9402004,43.6120464],[2.9398478,43.6118944],[2.9396093,43.6116419],[2.9394837,43.6114628],[2.938616,43.6112878],[2.9382487,43.6116494],[2.9378861,43.6124604],[2.9377511,43.6130813],[2.9379041,43.614168],[2.9384007,43.614345],[2.9390183,43.6142517],[2.9396321,43.6137989],[2.939379,43.613261],[2.9396125,43.6129687],[2.9399635,43.6128904],[2.9407412,43.6133197],[2.9407487,43.6140354],[2.9407606,43.6152307],[2.9416313,43.6156753],[2.9429958,43.6160272],[2.9433622,43.6155757],[2.9448457,43.6154775],[2.9463253,43.6150198],[2.9459456,43.614213],[2.9451958,43.6134981],[2.9452375,43.6130653],[2.945974,43.612959],[2.946607,43.613006],[2.9476688,43.6133943],[2.9492788,43.613565],[2.9505215,43.6130041],[2.9517959,43.6128879],[2.9517407,43.6122837],[2.9518101,43.611555],[2.9529392,43.6114042],[2.953049,43.6122167],[2.9535894,43.6127704],[2.9562661,43.612772],[2.9578654,43.6124082],[2.959451,43.6124018],[2.9600229,43.6116555],[2.9600614,43.6116053],[2.9598562,43.6107644],[2.9591099,43.609817],[2.9581242,43.6094666],[2.9576236,43.6085773],[2.9570405,43.6076291],[2.9557343,43.6078747],[2.9558278,43.6089438],[2.956736,43.6097116],[2.9560038,43.6101326],[2.9551853,43.6100777],[2.9542002,43.6097856],[2.9534609,43.6095528],[2.9524813,43.6096515],[2.9512516,43.6095058],[2.9505885,43.6087365],[2.9505802,43.6079636],[2.9502443,43.607133],[2.9511409,43.6068302],[2.9526974,43.607],[2.9538418,43.6068743],[2.9539153,43.6061605],[2.9538132,43.60591],[2.9534857,43.6057061],[2.9531634,43.6060208],[2.9524437,43.6064638],[2.952163,43.6062778],[2.9519422,43.6052808],[2.9515275,43.6047472],[2.951683,43.6039733],[2.9515128,43.6033799],[2.9507737,43.6030875],[2.949874,43.6030926],[2.9488135,43.6033952],[2.9478375,43.6039356],[2.947017,43.6037627]]},"properties":{"CLC:code":"322","CLC:id":"FR-229156","CLC:year":"2006","natural":"bare_rock","source":"Union européenne - SOeS, CORINE Land Cover, 2006."}},
{"type":"Feature","geometry":{"type":"LineString","coordinates":[[2.9764555,43.5916222],[2.9763777,43.5917369],[2.9763855,43.5918238],[2.976367,43.5919292],[2.9762943,43.5920181],[2.9762245,43.5921172],[2.9761229,43.5922187],[2.9760797,43.5923114],[2.9759673,43.5924071],[2.975911,43.5924712],[2.975801,43.5925373],[2.9757098,43.5925722],[2.9755945,43.5925936],[2.9755167,43.5926072],[2.9754255,43.5926694],[2.9753182,43.5927043],[2.9751975,43.592751],[2.9750956,43.5928092],[2.9749508,43.5929239],[2.9748834,43.5929525],[2.9748459,43.5930438],[2.9747791,43.593089],[2.9746852,43.5931239],[2.9745833,43.5931997],[2.9745044,43.593246]]},"properties":{"foot":"yes","highway":"path","sac_scale":"hiking","tourism":"attraction"}},
{"type":"Feature","geometry":{"type":"LineString","coordinates":[[2.9765745,43.5911977],[2.9764899,43.5913673],[2.9764813,43.5914295]]},"properties":{"foot":"yes","highway":"path","tourism":"attraction"}},
{"type":"Feature","geometry":{"type":"LineString","coordinates":[[2.9771226,43.5911726],[2.9769494,43.5912932],[2.9766787,43.5914668],[2.9764555,43.5916222]]},"properties":{"foot":"yes","highway":"path","tourism":"attraction"}},
{"type":"Feature","geometry":{"type":"LineString","coordinates":[[2.9771226,43.5911726],[2.9774139,43.591123],[2.9775446,43.5911232],[2.9777203,43.5911104],[2.9777886,43.5910861]]},"properties":{"foot":"yes","highway":"path","tourism":"attraction"}},
{"type":"Feature","geometry":{"type":"LineString","coordinates":[[2.9110066,43.5569382],[2.9117972,43.5570733]]},"properties":{"access":"no","bridge":"yes","bridge:structure":"humpback","foot":"yes","heritage":"2","heritage:operator":"mhs","highway":"residential","historic":"bridge","layer":"1","mhs:inscription_date":"1916-08-23","name":"Pont du Diable","ref:mhs":"PA00103626","source:heritage":"data.gouv.fr, Ministère de la Culture - 2016","start_date":"C12","vehicle":"no","width":"2","wikidata":"Q2103672","wikipedia":"fr:Pont du Diable (Olargues)"}},
{"type":"Feature","geometry":{"type":"LineString","coordinates":[[2.9742229,43.5972171],[2.9740169,43.5953906],[2.9740751,43.5950216],[2.974017,43.5944118],[2.9740158,43.5943989],[2.9738738,43.5944229],[2.9738263,43.5944309],[2.973434,43.5944487],[2.9729693,43.5944514],[2.972452,43.5945615],[2.971886,43.5950107],[2.9714887,43.5954744],[2.9691529,43.5975723],[2.9683354,43.5982155],[2.9688835,43.5981968],[2.9696035,43.5982143],[2.969722,43.5982918],[2.9699443,43.5984131],[2.9701042,43.5985192],[2.9703209,43.5987651],[2.9707397,43.5990973],[2.9715631,43.5993664],[2.972498,43.5995916],[2.9732087,43.5997913],[2.9739046,43.5999365],[2.9742998,43.6000567],[2.9742693,43.5993546],[2.9742561,43.5986771],[2.9742254,43.5979555],[2.9742229,43.5972171]]},"properties":{"boundary":"protected_area","leisure":"nature_reserve","name":"Réserve biologique dirigée de l'Espinouse","operator":"Office National des Forêts","protect_class":"4","protection_title":"Réserve biologique dirigée de l'Espinouse","ref:FR:INPN":"FR2300134","source":"Inventaire National du Patrimoine Naturel 2010","valid_from":"22-12-1994"}},
{"type":"Feature","geometry":{"type":"LineString","coordinates":[[2.9596412,43.6266975],[2.9594301,43.6268429],[2.959284,43.6269632],[2.9590864,43.6270467],[2.9583856,43.6275162],[2.9587038,43.6280993],[2.9603934,43.630942],[2.9614175,43.6329277],[2.9620727,43.6328168],[2.9620392,43.6326018],[2.9622322,43.6323628],[2.9622646,43.6322195],[2.9622454,43.6320157],[2.9621287,43.6318496],[2.9619796,43.6316949],[2.9618612,43.6314938],[2.9617114,43.6312804],[2.9616767,43.6310891],[2.9616572,43.6308627],[2.9616402,43.630731],[2.9615241,43.6306245],[2.9614887,43.6303621],[2.9614376,43.6302306],[2.9613042,43.6300893],[2.9612369,43.6298981],[2.961103,43.6297084],[2.9609862,43.6295299],[2.9608831,43.6291721],[2.9606678,43.6289355],[2.9604688,43.6287564],[2.9602371,43.6285683],[2.9601178,43.6282827],[2.9600657,43.6279246],[2.959963,43.6276153],[2.9598777,43.6273284],[2.9597611,43.6271633],[2.9597761,43.626983],[2.959774,43.6267925],[2.9597397,43.6266372],[2.9596412,43.6266975]]},"properties":{"boundary":"protected_area","leisure":"nature_reserve","name":"Réserve biologique dirigée de l'Espinouse","operator":"Office National des Forêts","protect_class":"4","protection_title":"Réserve biologique dirigée de l'Espinouse","ref:FR:INPN":"FR2300134","source":"Inventaire National du Patrimoine Naturel 2010","valid_from":"22-12-1994"}},
{"type":"Feature","geometry":{"type":"LineString","coordinates":[[2.9988193,43.5950749],[2.9999053,43.5952598],[3.0018548,43.592934],[3.001201,43.5921462],[2.9991738,43.5930194],[2.9986747,43.5940852],[2.9985995,43.5941971],[2.9980604,43.5949992],[2.9988193,43.5950749]]},"properties":{"boundary":"protected_area","leisure":"nature_reserve","name":"Réserve biologique dirigée de l'Espinouse","operator":"Office National des Forêts","protect_class":"4","protection_title":"Réserve biologique dirigée de l'Espinouse","ref:FR:INPN":"FR2300134","source":"Inventaire National du Patrimoine Naturel 2010","valid_from":"22-12-1994"}},
{"type":"Feature","geometry":{"type":"LineString","coordinates":[[2.9669351,43.6272351],[2.9685038,43.6262878],[2.9673417,43.6257993],[2.9669896,43.6256232],[2.9670784,43.6246825],[2.9659141,43.623609],[2.9651523,43.6232911],[2.9643699,43.6248547],[2.9639824,43.6254522],[2.9638008,43.6264749],[2.9637381,43.6268283],[2.9659916,43.627115],[2.9669351,43.6272351]]},"properties":{"boundary":"protected_area","leisure":"nature_reserve","name":"Réserve biologique dirigée de l'Espinouse","operator":"Office National des Forêts","protect_class":"4","protection_title":"Réserve biologique dirigée de l'Espinouse","ref:FR:INPN":"FR2300134","source":"Inventaire National du Patrimoine Naturel 2010","valid_from":"22-12-1994"}},
{"type":"Feature","geometry":{"type":"LineString","coordinates":[[2.9535219,43.5876039],[2.95411,43.5877468],[2.9545468,43.5879255],[2.954935,43.588191],[2.9555902,43.5885168],[2.9558511,43.58854],[2.9538106,43.5819253],[2.9455695,43.5892636],[2.9505611,43.5910292],[2.9509458,43.5907067],[2.9509196,43.5898563],[2.9509496,43.5894793],[2.9510451,43.5891379],[2.9513663,43.5877861],[2.9515826,43.5876149],[2.952418,43.5875731],[2.9530369,43.5875583],[2.9535219,43.5876039]]},"properties":{"boundary":"protected_area","leisure":"nature_reserve","name":"Réserve biologique dirigée de l'Espinouse","operator":"Office National des Forêts","protect_class":"4","protection_title":"Réserve biologique dirigée de l'Espinouse","ref:FR:INPN":"FR2300134","source":"Inventaire National du Patrimoine Naturel 2010","valid_from":"22-12-1994"}},
{"type":"Feature","geometry":{"type":"LineString","coordinates":[[2.9701205,43.6521057],[2.9707205,43.652555],[2.9710601,43.6526238],[2.9711508,43.6529143],[2.9717407,43.6525243],[2.9720509,43.6525247],[2.9722007,43.652216],[2.9733508,43.6519025],[2.9734303,43.6511931],[2.9740508,43.6509153],[2.9742403,43.6507052],[2.9739806,43.6501022],[2.9741908,43.6498055],[2.9749103,43.6497327],[2.9755608,43.6493739],[2.9758607,43.6490036],[2.9763009,43.6489358],[2.9764205,43.6484239],[2.977651,43.6472144],[2.977671,43.6469941],[2.9750311,43.6463524],[2.974591,43.6460134],[2.9744307,43.6456548],[2.9748809,43.6446061],[2.9746306,43.6444345],[2.9749403,43.643835],[2.9748105,43.6434953],[2.9744404,43.6434042],[2.9742506,43.6435829],[2.9734104,43.6435755],[2.9730709,43.6437246],[2.9727608,43.643595],[2.9721605,43.6430345],[2.970481,43.6424736],[2.9699807,43.6420046],[2.9696405,43.6420156],[2.9694805,43.6416761],[2.9672809,43.6422754],[2.9674302,43.6415038],[2.9679205,43.6410043],[2.9684709,43.6399247],[2.9694908,43.6394637],[2.9698506,43.638983],[2.9709409,43.6385328],[2.971301,43.6380139],[2.973121,43.6364842],[2.9740509999999999,43.6365034],[2.9746112,43.6366641],[2.9756906,43.6363544],[2.9758272,43.6360314],[2.9762407,43.6350535],[2.9759207,43.6341037],[2.9762212,43.6336537],[2.9763105,43.6331352],[2.9773506,43.6316662],[2.9707307,43.6338825],[2.970471,43.6333448],[2.9704612,43.6321741],[2.9706704,43.6310257],[2.9710906,43.6300761],[2.9709606,43.6297859],[2.9702109,43.629206],[2.9693304,43.628264],[2.9682007,43.626665],[2.9669757,43.6261178],[2.9666875,43.6249858],[2.9664143,43.6245579],[2.964781,43.6235761],[2.9631805,43.6217641],[2.9617703,43.6207341],[2.9610502,43.6205731],[2.9605806,43.620196],[2.9582803,43.6195048],[2.9567906,43.6196043],[2.956261,43.6192535],[2.9546408,43.6188762],[2.9537607,43.6180745],[2.9533901,43.6179149],[2.9529501,43.6179836],[2.9516001,43.6188452],[2.95085,43.6190551],[2.9504502,43.6194135],[2.9501405,43.6193029],[2.9509402,43.6183838],[2.9504407,43.6183147],[2.9494501,43.6184563],[2.9474599,43.6181057],[2.9460603,43.6180934],[2.9455004,43.6178033],[2.9447704,43.6166333],[2.9451104,43.6166056],[2.9463501,43.6161256],[2.9471904,43.6163961],[2.9482805,43.6163844],[2.9489001,43.6167662],[2.9492101,43.6167667],[2.9494301,43.6169452],[2.9497404,43.6169648],[2.9491806,43.6165332],[2.9493004,43.6162438],[2.9496702,43.6160451],[2.9497006,43.6157056],[2.9493905,43.6155646],[2.9486101,43.6155342],[2.9486049,43.6155105],[2.9485499,43.6152559],[2.9490107,43.6148938],[2.9493703,43.6143255],[2.9492404,43.6137454],[2.9494207,43.6131152],[2.9497901,43.6129558],[2.9500704,43.6126532],[2.9500141,43.6113884],[2.9500017,43.6111093],[2.9499903,43.6108537],[2.9501407,43.6105337],[2.9503541,43.6104482],[2.9507604,43.6102853],[2.950808,43.6101934],[2.9509104,43.6099957],[2.9507361,43.6094038],[2.9503215,43.6079994],[2.9502003,43.6075841],[2.9501304,43.6069059],[2.9499407,43.6066654],[2.9494269,43.6066246],[2.9493202,43.6066161],[2.9485507,43.606734],[2.94685,43.6065929],[2.9451902,43.6064552],[2.9434899,43.6064243],[2.9426199,43.6065426],[2.9416901,43.606486],[2.9408105,43.6062145],[2.9399802,43.6061349],[2.9399517,43.6061167],[2.9397,43.6059556],[2.938816,43.6060145],[2.9386702,43.6060242],[2.9379601,43.6059136],[2.9371798,43.6060359],[2.9370599,43.6066151],[2.93633,43.6077068],[2.9357396,43.6080235],[2.9350598,43.6080767],[2.9346002,43.6084163],[2.9334101,43.6105328],[2.9331699,43.6108532],[2.9328599,43.6109257],[2.9326795,43.611575],[2.9316696,43.6131153],[2.9313597,43.6132754],[2.93124,43.6137333],[2.9305695,43.6146145],[2.9306095,43.6153356],[2.9297694,43.6152256],[2.9284298,43.6155531],[2.9286094,43.6149847],[2.9292,43.6141456],[2.9294399,43.6140162],[2.9302296,43.6122648],[2.9302301,43.6116356],[2.92988,43.6115061],[2.9292002,43.6115559],[2.9290101,43.6113457],[2.9290402,43.6109646],[2.9287901,43.6107042],[2.92808,43.6108148],[2.9277597,43.6107233],[2.9267499,43.6113839],[2.9263696,43.6113949],[2.9261593,43.6116163],[2.9256897,43.611666],[2.9252895,43.6118457],[2.9248296,43.6118527],[2.9243593,43.6122148],[2.9239299,43.6122531],[2.9232864,43.6125584],[2.9231897,43.6126042],[2.9228496,43.6125353],[2.9223497,43.6120436],[2.9224396,43.609495],[2.9220393,43.6092927],[2.9218497,43.6090454],[2.9218689,43.6088558],[2.9219298,43.6082551],[2.9216194,43.6081445],[2.9214299,43.6079051],[2.9214422,43.6078331],[2.9216288,43.6067409],[2.9216399,43.6066759],[2.9207592,43.6060549],[2.9200197,43.6060049],[2.9198294,43.6055431],[2.9182393,43.6047842],[2.9172598,43.6037963],[2.9166697,43.6034647],[2.9164791,43.6031938],[2.9161692,43.6031247],[2.915249,43.6037846],[2.9148794,43.6042348],[2.9142296,43.6045742],[2.9128096,43.6048144],[2.9120894,43.6044564],[2.9081689,43.6036435],[2.9063793,43.6045742],[2.906009,43.6045739],[2.9053095,43.6061348],[2.9041893,43.6062148],[2.903419,43.6065728],[2.9020987,43.607756],[2.9017887,43.6077554],[2.9014186,43.608164],[2.9007991,43.6085335],[2.9006486,43.6087938],[2.9003691,43.6089155],[2.8997886,43.609705],[2.8985189,43.6099149],[2.898579,43.6104528],[2.8983087,43.6111047],[2.8982886,43.6116542],[2.8985387,43.6122529],[2.8997586,43.6134925],[2.9000388,43.6136034],[2.9008571,43.6146459],[2.9009189,43.6147246],[2.902739,43.6159724],[2.9037087,43.6173043],[2.903989,43.6175062],[2.9054786,43.6173838],[2.9057888,43.6174754],[2.9062989,43.6182345],[2.9064589,43.6188448],[2.9067388,43.6190051],[2.9071092,43.6190054],[2.9076691,43.6187036],[2.907789,43.6184749],[2.9090289,43.6178145],[2.9109191,43.6176247],[2.9111889,43.6173952],[2.9128992,43.6172356],[2.9146994,43.6172428],[2.9161595,43.617426],[2.9164094,43.6179752],[2.9163389,43.6197148],[2.9170489,43.6194245],[2.918539,43.6192031],[2.9202093,43.6191345],[2.9204889,43.6189555],[2.9225396,43.6188029],[2.9232896,43.6190247],[2.923705,43.6189891],[2.9248004,43.6188955],[2.92552,43.6188339],[2.9261093,43.618624],[2.9266295,43.6186043],[2.9273769,43.6183825],[2.9288897,43.6179336],[2.9293293,43.617975],[2.92958,43.6181354],[2.9299499,43.6179446],[2.9301299,43.6177043],[2.9315896,43.6172435],[2.9320896,43.6177352],[2.9333,43.6182038],[2.9336476,43.6182831],[2.9341696,43.6184023],[2.9344759,43.6184213],[2.93517,43.6184642],[2.9354304,43.6187913],[2.9356402,43.6190548],[2.9356796,43.6199433],[2.9374002,43.6206147],[2.9371196,43.6208443],[2.9356299,43.6213244],[2.9350198,43.6217637],[2.93406,43.6221949],[2.9334397,43.6226252],[2.9326994,43.6227551],[2.9324298,43.6235948],[2.9318499,43.6242732],[2.9314396,43.6245249],[2.9317898,43.6251128],[2.9318896,43.6258527],[2.9325193,43.6263256],[2.9329899,43.6268825],[2.9333099,43.627974],[2.9330992,43.6316435],[2.9323292,43.6322724],[2.9324096,43.6336034],[2.9326995,43.6344849],[2.9329193,43.634714],[2.9329592,43.6362441],[2.9347097,43.6374344],[2.9362396,43.6375753],[2.9387995,43.6393027],[2.9389695,43.6401725],[2.9384797,43.6415538],[2.9384295,43.6421451],[2.9385895,43.6427936],[2.9391493,43.6433545],[2.9394695,43.6434954],[2.9395694,43.6441634],[2.9392894,43.6447537],[2.9389195,43.6448231],[2.9379496,43.6441061],[2.9373793,43.6430531],[2.9366592,43.6424043],[2.9361493,43.6406948],[2.9318197,43.6455859],[2.930169,43.645383699999999],[2.9283391,43.6455746],[2.9277489,43.6458026],[2.9275389,43.646143],[2.9286193,43.648573],[2.9277895,43.6497247],[2.9278289,43.6500222],[2.9281987,43.6505449],[2.9282995,43.651014],[2.9285194,43.6512544],[2.930329,43.6515445],[2.9312593,43.6521045],[2.9313491,43.6518838],[2.9322188,43.6519633],[2.9328791,43.6522956],[2.9333595,43.6532457],[2.9338292,43.6535544],[2.9345093,43.6537753],[2.9346692,43.6541149],[2.9358296,43.654695],[2.9379092,43.6547442],[2.9387093,43.6543824],[2.9395198,43.6542026],[2.9406592,43.653375],[2.9409298,43.6528454],[2.93957,43.6329323],[2.9491198,43.6343248],[2.9424001,43.6511136],[2.9416693,43.652093],[2.9412092,43.6529933],[2.9418696,43.6530356],[2.9422398,43.6532145],[2.9439892,43.6573731],[2.9440597,43.6579637],[2.9616597,43.6624658],[2.9686103,43.6529448],[2.9695302,43.6523148],[2.9697204,43.6520249],[2.9701205,43.6521057]]},"properties":{"boundary":"protected_area","leisure":"nature_reserve","name":"Réserve nationale de chasse et faune sauvage","official_name":"Réserve nationale de chasse et faune sauvage du Caroux-Espinouse","protect_class":"4","protection_title":"Réserve nationale de chasse et faune sauvage du Caroux-Espinouse","ref:FR:INPN":"FR5100006","source":"Inventaire National du Patrimoine Naturel 2010","valid_from":"1973-02-02","wikidata":"Q66712479"}},
{"type":"Feature","geometry":{"type":"LineString","coordinates":[[2.9660823,43.568411],[2.9659301,43.5687151],[2.9661299,43.5687676],[2.9662821,43.5684635],[2.9660823,43.568411]]},"properties":{"leisure":"pitch","sport":"tennis","surface":"hard"}},
{"type":"Feature","geometry":{"type":"LineString","coordinates":[[2.9597116,43.5665954],[2.9597195,43.5665965],[2.9597491,43.5666005],[2.9597825,43.5666051],[2.9597625,43.5666817],[2.9596916,43.566672],[2.9596938,43.5666637],[2.9597045,43.5666226],[2.9597116,43.5665954]]},"properties":{"building":"yes","information":"office","name":"Office de.Tourisme","source":"cadastre-dgi-fr source : Direction Générale des Impôts - Cadastre. Mise à jour : 2012","tourism":"information"}},
{"type":"Feature","geometry":{"type":"LineString","coordinates":[[3.0179197,43.5757765],[3.0179337,43.5756939],[3.0179183,43.5756774],[3.0177084,43.575657],[3.017691,43.5756701],[3.0176789,43.5757566],[3.017691,43.5757687],[3.0179029,43.5757887],[3.0179197,43.5757765]]},"properties":{"leisure":"pitch","name":"Stade du Mourel","sport":"multi"}},
{"type":"Feature","geometry":{"type":"LineString","coordinates":[[2.9104544,43.5601452],[2.910614,43.5602602],[2.9110914,43.5604041],[2.9114897,43.5605067],[2.9119511,43.5605611],[2.912171,43.5605417],[2.9123681,43.5603263],[2.9123789,43.5601592],[2.9120785,43.5600931],[2.9117834,43.5600426],[2.9118853,43.5598132],[2.9120302,43.5596227],[2.9123359,43.5593467],[2.9124245,43.5592262],[2.9119363,43.5590941],[2.911432,43.5590707],[2.9110888,43.5591407],[2.9109466,43.5592029],[2.9108607,43.5591951],[2.9106314,43.5591073],[2.9105188,43.5590762],[2.9104812,43.5592744],[2.9104316,43.5594478],[2.9103779,43.5596188],[2.910394,43.5597666],[2.9104262,43.5599687],[2.9104544,43.5601452]]},"properties":{"access":"no","disused":"yes","name":"Le Baous","note":"closed","tourism":"camp_site"}},
{"type":"Feature","geometry":{"type":"LineString","coordinates":[[2.9124261,43.5579027],[2.9124721,43.5577339],[2.9124169,43.5577119],[2.9124205,43.5576532],[2.9125457,43.5576472],[2.9125439,43.5576045],[2.9125863,43.5576035],[2.9125854,43.5575832],[2.9126441,43.5575818],[2.9126457,43.5576192],[2.9127465,43.5576169],[2.9127471,43.5576292],[2.9128513,43.5576268],[2.9128546,43.557702],[2.912833,43.5577319],[2.9127869,43.5577426],[2.9127906,43.5578086],[2.9128238,43.5579374],[2.9127253,43.5579574],[2.9126755,43.5579414],[2.9125117,43.5579414],[2.9125117,43.5579134],[2.9124261,43.5579027]]},"properties":{"historic":"castle","ruins":"yes"}},
{"type":"Feature","geometry":{"type":"LineString","coordinates":[[2.9166549,43.5556746],[2.9179696,43.5562911],[2.9184701,43.5557305],[2.9171554,43.555114],[2.9166549,43.5556746]]},"properties":{"leisure":"pitch","sport":"soccer"}},
{"type":"Feature","geometry":{"type":"LineString","coordinates":[[2.9774321,43.5393074],[2.9776583,43.5393648],[2.977799,43.5390735],[2.9775727,43.5390161],[2.9774321,43.5393074]]},"properties":{"leisure":"pitch","lit":"no","source":"Bing","sport":"tennis","surface":"hard"}},
{"type":"Feature","geometry":{"type":"LineString","coordinates":[[3.0001665,43.5780392],[3.0002175,43.5780432],[3.0003635,43.5780562],[3.0004115,43.5780602],[3.0004135,43.5780532],[3.0005545,43.5780672],[3.0005595,43.5781552],[3.0003495,43.5781392],[3.0003365,43.5782362],[3.0003355,43.5782522],[3.0002875,43.5782512],[3.0001795,43.5782472],[3.0001545,43.5781272],[3.0001315,43.5781252],[3.0001255,43.5780552],[3.0001175,43.5780492],[3.0001115,43.5780422],[3.0001105,43.5780352],[3.0001275,43.5780192],[3.0001395,43.5780172],[3.0001525,43.5780182],[3.0001625,43.5780202],[3.0001665,43.5780392]]},"properties":{"building":"yes","castle_type":"stately","historic":"castle","name":"Château de Colombières sur Orb","source":"cadastre-dgi-fr source : Direction Générale des Finances Publiques - Cadastre. Mise à jour : 2014"}},
{"type":"Feature","geometry":{"type":"LineString","coordinates":[[3.0037484,43.578986],[3.0037314,43.578955],[3.0037624,43.578945],[3.0037444,43.578911],[3.0037794,43.5789],[3.0038064,43.578918],[3.0038344,43.578964],[3.0037484,43.578986]]},"properties":{"access":"private","building":"yes","leisure":"swimming_pool","source":"cadastre-dgi-fr source : Direction Générale des Impôts - Cadastre. Mise à jour : 2023"}},
{"type":"Feature","geometry":{"type":"LineString","coordinates":[[3.0107145,43.5790235],[3.0107655,43.5790485],[3.0107085,43.5791055],[3.0106945,43.5791205],[3.0106865,43.5791175],[3.0106775,43.5791165],[3.0106745,43.5791175],[3.0106545,43.5791085],[3.0106575,43.5791035],[3.0106555,43.5790975],[3.0106505,43.5790935],[3.0106475,43.5790925],[3.0106595,43.5790805],[3.0107145,43.5790235]]},"properties":{"access":"private","leisure":"swimming_pool","source":"cadastre-dgi-fr source : Direction Générale des Finances Publiques - Cadastre. Mise à jour : 2014"}},
{"type":"Feature","geometry":{"type":"LineString","coordinates":[[3.0056513,43.5791463],[3.0056406,43.5791538],[3.0056011,43.579142],[3.0055861,43.579142],[3.0055765,43.5791463],[3.0055562,43.5791367],[3.0055433,43.5791281],[3.0055412,43.5791207],[3.0055508,43.579111],[3.0055572,43.5791046],[3.0055754,43.5791025],[3.0055947,43.5791046],[3.0056139,43.579111],[3.0056321,43.5791185],[3.0056513,43.5791303],[3.0056535,43.5791388],[3.0056513,43.5791463]]},"properties":{"access":"private","leisure":"swimming_pool","source":"cadastre-dgi-fr source : Direction Générale des Finances Publiques - Cadastre. Mise à jour : 2014"}},
{"type":"Feature","geometry":{"type":"LineString","coordinates":[[3.0132732,43.5775177],[3.0132602,43.5775207],[3.0132502,43.5775177],[3.0132412,43.5775007],[3.0132392,43.5774817],[3.0132412,43.5774717],[3.0132452,43.5774637],[3.0132632,43.5774487],[3.0132742,43.5774457],[3.0132872,43.5774437],[3.0132992,43.5774467],[3.0133082,43.5774537],[3.0133112,43.5774627],[3.0133102,43.5774737],[3.0133042,43.5774817],[3.0132892,43.5774907],[3.0132812,43.5774987],[3.0132792,43.5775087],[3.0132732,43.5775177]]},