{"type":"FeatureCollection","features":[
{"type":"Feature","geometry":{"type":"Point","coordinates":[6.6851397,45.2908908]},"properties":{"ele":"3015","name":"Pointe de l'Observatoire","natural":"peak","wikidata":"Q31635723"}},
{"type":"Feature","geometry":{"type":"Point","coordinates":[6.73078,45.3865507]},"properties":{"ele":"2023","name":"Mont Bochor","natural":"peak","source":"cadastre-dgi-fr source : Direction Générale des Impôts - Cadastre. Mise à jour : 2009"}},
{"type":"Feature","geometry":{"type":"Point","coordinates":[6.7200612,45.3815821]},"properties":{"source":"cadastre-dgi-fr source : Direction Générale des Impôts - Cadastre. Mise à jour : 2009"}},
{"type":"Feature","geometry":{"type":"Point","coordinates":[6.7203826,45.381398]},"properties":{"source":"cadastre-dgi-fr source : Direction Générale des Impôts - Cadastre. Mise à jour : 2009"}},
{"type":"Feature","geometry":{"type":"Point","coordinates":[6.7202551,45.3812777]},"properties":{"source":"cadastre-dgi-fr source : Direction Générale des Impôts - Cadastre. Mise à jour : 2009"}},
{"type":"Feature","geometry":{"type":"Point","coordinates":[6.7181695,45.3878686]},"properties":{"source":"cadastre-dgi-fr source : Direction Générale des Impôts - Cadastre. Mise à jour : 2009"}},
{"type":"Feature","geometry":{"type":"Point","coordinates":[6.7182774,45.3879307]},"properties":{"source":"cadastre-dgi-fr source : Direction Générale des Impôts - Cadastre. Mise à jour : 2009"}},
{"type":"Feature","geometry":{"type":"Point","coordinates":[6.7182528,45.387957]},"properties":{"source":"cadastre-dgi-fr source : Direction Générale des Impôts - Cadastre. Mise à jour : 2009"}},
{"type":"Feature","geometry":{"type":"Point","coordinates":[6.7183034,45.3879829]},"properties":{"source":"cadastre-dgi-fr source : Direction Générale des Impôts - Cadastre. Mise à jour : 2009"}},
{"type":"Feature","geometry":{"type":"Point","coordinates":[6.7183296,45.3879615]},"properties":{"source":"cadastre-dgi-fr source : Direction Générale des Impôts - Cadastre. Mise à jour : 2009"}},
{"type":"Feature","geometry":{"type":"Point","coordinates":[6.7183778,45.387985]},"properties":{"source":"cadastre-dgi-fr source : Direction Générale des Impôts - Cadastre. Mise à jour : 2009"}},
{"type":"Feature","geometry":{"type":"Point","coordinates":[6.718699,45.3880146]},"properties":{"source":"cadastre-dgi-fr source : Direction Générale des Impôts - Cadastre. Mise à jour : 2009"}},
{"type":"Feature","geometry":{"type":"Point","coordinates":[6.7187255,45.3880586]},"properties":{"source":"cadastre-dgi-fr source : Direction Générale des Impôts - Cadastre. Mise à jour : 2009"}},
{"type":"Feature","geometry":{"type":"Point","coordinates":[6.7190036,45.387977]},"properties":{"source":"cadastre-dgi-fr source : Direction Générale des Impôts - Cadastre. Mise à jour : 2009"}},
{"type":"Feature","geometry":{"type":"Point","coordinates":[6.7191413,45.3878656]},"properties":{"source":"cadastre-dgi-fr source : Direction Générale des Impôts - Cadastre. Mise à jour : 2009"}},
{"type":"Feature","geometry":{"type":"Point","coordinates":[6.7191417,45.3878247]},"properties":{"source":"cadastre-dgi-fr source : Direction Générale des Impôts - Cadastre. Mise à jour : 2009"}},
{"type":"Feature","geometry":{"type":"Point","coordinates":[6.7192642,45.3877123]},"properties":{"source":"cadastre-dgi-fr source : Direction Générale des Impôts - Cadastre. Mise à jour : 2009"}},
{"type":"Feature","geometry":{"type":"Point","coordinates":[6.7191325,45.387642]},"properties":{"source":"cadastre-dgi-fr source : Direction Générale des Impôts - Cadastre. Mise à jour : 2009"}},
{"type":"Feature","geometry":{"type":"Point","coordinates":[6.719066,45.3876527]},"properties":{"source":"cadastre-dgi-fr source : Direction Générale des Impôts - Cadastre. Mise à jour : 2009"}},
{"type":"Feature","geometry":{"type":"Point","coordinates":[6.7190253,45.3876975]},"properties":{"source":"cadastre-dgi-fr source : Direction Générale des Impôts - Cadastre. Mise à jour : 2009"}},
{"type":"Feature","geometry":{"type":"Point","coordinates":[6.7189771,45.3877034]},"properties":{"source":"cadastre-dgi-fr source : Direction Générale des Impôts - Cadastre. Mise à jour : 2009"}},
{"type":"Feature","geometry":{"type":"Point","coordinates":[6.7188981,45.3877791]},"properties":{"source":"cadastre-dgi-fr source : Direction Générale des Impôts - Cadastre. Mise à jour : 2009"}},
{"type":"Feature","geometry":{"type":"Point","coordinates":[6.7188194,45.3878573]},"properties":{"source":"cadastre-dgi-fr source : Direction Générale des Impôts - Cadastre. Mise à jour : 2009"}},
{"type":"Feature","geometry":{"type":"Point","coordinates":[6.7186668,45.3878949]},"properties":{"source":"cadastre-dgi-fr source : Direction Générale des Impôts - Cadastre. Mise à jour : 2009"}},
{"type":"Feature","geometry":{"type":"Point","coordinates":[6.7185624,45.3879111]},"properties":{"source":"cadastre-dgi-fr source : Direction Générale des Impôts - Cadastre. Mise à jour : 2009"}},
{"type":"Feature","geometry":{"type":"Point","coordinates":[6.7184527,45.3879013]},"properties":{"source":"cadastre-dgi-fr source : Direction Générale des Impôts - Cadastre. Mise à jour : 2009"}},
{"type":"Feature","geometry":{"type":"Point","coordinates":[6.7182844,45.3878079]},"properties":{"source":"cadastre-dgi-fr source : Direction Générale des Impôts - Cadastre. Mise à jour : 2009"}},
{"type":"Feature","geometry":{"type":"Point","coordinates":[6.718253,45.3878369]},"properties":{"source":"cadastre-dgi-fr source : Direction Générale des Impôts - Cadastre. Mise à jour : 2009"}},
{"type":"Feature","geometry":{"type":"Point","coordinates":[6.7182123,45.3878204]},"properties":{"source":"cadastre-dgi-fr source : Direction Générale des Impôts - Cadastre. Mise à jour : 2009"}},
{"type":"Feature","geometry":{"type":"Point","coordinates":[6.7084723,45.2939992]},"properties":{"ele":"3023","mountain_pass":"yes","name":"Col de Rosoire","natural":"saddle","source":"cadastre-dgi-fr source : Direction Générale des Impôts - Cadastre. Mise à jour : 2009"}},
{"type":"Feature","geometry":{"type":"Point","coordinates":[6.6984779,45.2343559]},"properties":{"ford":"yes"}},
{"type":"Feature","geometry":{"type":"Point","coordinates":[6.6899815,45.376275]},"properties":{"ele":"2845","name":"Aiguille de Mey","natural":"peak","source":"cadastre-dgi-fr source : Direction Générale des Impôts - Cadastre. Mise à jour : 2009"}},
{"type":"Feature","geometry":{"type":"Point","coordinates":[6.7429504,45.3183334]},"properties":{"ele":"3601","name":"Dôme de l'Arpont","natural":"peak","wikidata":"Q1629021"}},
{"type":"Feature","geometry":{"type":"Point","coordinates":[6.7527105,45.3895634]},"properties":{"ele":"2010","email":"refugedesbarmettes@gmail.com","name":"Refuge des Barmettes","phone":"+33 4 79 08 75 64","ref:refuges.info":"476","tourism":"alpine_hut","website":"https://lesbarmettes-refuge.com/","wikidata":"Q3423222"}},
{"type":"Feature","geometry":{"type":"Point","coordinates":[6.6849728,45.3183012]},"properties":{"source":"cadastre-dgi-fr source : Direction Générale des Impôts - Cadastre ; mise à jour : 2009"}},
{"type":"Feature","geometry":{"type":"Point","coordinates":[6.6846222,45.318013]},"properties":{"source":"cadastre-dgi-fr source : Direction Générale des Impôts - Cadastre ; mise à jour : 2009"}},
{"type":"Feature","geometry":{"type":"Point","coordinates":[6.6880928,45.3397165]},"properties":{"ford":"yes"}},
{"type":"Feature","geometry":{"type":"Point","coordinates":[6.7195829,45.3825508]},"properties":{"description":"Emblème de Pralognan la Vanoise","name":"Bouquetin","tourism":"viewpoint"}},
{"type":"Feature","geometry":{"type":"Point","coordinates":[6.7199424,45.3821572]},"properties":{"natural":"spring","source":"cadastre-dgi-fr source : Direction Générale des Impôts - Cadastre ; mise à jour : 2010"}},
{"type":"Feature","geometry":{"type":"Point","coordinates":[6.7204819,45.3822987]},"properties":{"historic":"memorial","memorial":"war_memorial","ref:FR:MemorialGenWeb":"2547","source":"cadastre-dgi-fr source : Direction Générale des Impôts - Cadastre ; mise à jour : 2010"}},
{"type":"Feature","geometry":{"type":"Point","coordinates":[6.7202816,45.3829397]},"properties":{"historic":"wayside_cross","source":"cadastre-dgi-fr source : Direction Générale des Impôts - Cadastre ; mise à jour : 2010"}},
{"type":"Feature","geometry":{"type":"Point","coordinates":[6.7027338,45.3488169]},"properties":{"ele":"1715","information":"guidepost","name":"Les Prioux","tourism":"information"}},
{"type":"Feature","geometry":{"type":"Point","coordinates":[6.7029925,45.3561288]},"properties":{"information":"guidepost","name":"Pont du Diable","tourism":"information"}},
{"type":"Feature","geometry":{"type":"Point","coordinates":[6.6858515,45.30787]},"properties":{"lwn_name":"?","name":"Poteau indicateurs","network:type":"node_network","tourism":"information"}},
{"type":"Feature","geometry":{"type":"Point","coordinates":[6.6926784,45.3289377]},"properties":{"historic":"wayside_cross","source":"cadastre-dgi-fr source : Direction Générale des Impôts - Cadastre ; mise à jour : 2010"}},
{"type":"Feature","geometry":{"type":"Point","coordinates":[6.736303,45.3653894]},"properties":{"ele":"2568","name":"Le Petit Marchet","natural":"peak"}},
{"type":"Feature","geometry":{"type":"Point","coordinates":[6.7509681,45.3727936]},"properties":{"ele":"2651","name":"Le Grand Marchet","natural":"peak","wikidata":"Q31642540"}},
{"type":"Feature","geometry":{"type":"Point","coordinates":[6.7581282,45.3869432]},"properties":{"ele":"2297","name":"Le Moriond","natural":"peak"}},
{"type":"Feature","geometry":{"type":"Point","coordinates":[6.7653601,45.3637568]},"properties":{"ele":"3206","name":"Pointe du Dard","natural":"peak","wikidata":"Q3393716"}},
{"type":"Feature","geometry":{"type":"Point","coordinates":[6.724095,45.3533622]},"properties":{"description":"Bivouac autorisé avec réservation","ele":"2590","email":"refuge.valette@vanoise-parcnational.fr","internet_access":"no","name":"Refuge de la Valette","operator":"Parc National de la Vanoise","phone":"+33 665 645 736","ref:refuges.info":"1510","tourism":"alpine_hut","website":"www.refugelavalette.fr","wikidata":"Q3423171","wikimedia_commons":"File:Refuge de la Vallette, 2016 (2).jpg"}},
{"type":"Feature","geometry":{"type":"Point","coordinates":[6.687148,45.3510598]},"properties":{"ref:refuges.info":"2633","tourism":"alpine_hut"}},
{"type":"Feature","geometry":{"type":"Point","coordinates":[6.6864648,45.3560594]},"properties":{"ele":"2677","name":"Petit Mont Blanc","natural":"peak","tourism":"viewpoint","wikidata":"Q31634194"}},
{"type":"Feature","geometry":{"type":"Point","coordinates":[6.7119583,45.2938863]},"properties":{"ele":"3057","name":"Pointe de Chevrière","natural":"peak"}},
{"type":"Feature","geometry":{"type":"Point","coordinates":[6.7344643,45.3029949]},"properties":{"ele":"3551","name":"Pointe du Génépi","natural":"peak","wikidata":"Q3907112"}},
{"type":"Feature","geometry":{"type":"Point","coordinates":[6.7414594,45.3258696]},"properties":{"ele":"3570","name":"Dôme des Nants","natural":"peak","wikidata":"Q2017644"}},
{"type":"Feature","geometry":{"type":"Point","coordinates":[6.7607046,45.3307549]},"properties":{"ele":"3586","name":"Dôme de Chasseforêt","natural":"peak","wikidata":"Q1628992"}},
{"type":"Feature","geometry":{"type":"Point","coordinates":[6.7149232,45.3368633]},"properties":{"ele":"2513","name":"Le Pommier Blanc","natural":"peak"}},
{"type":"Feature","geometry":{"type":"Point","coordinates":[6.7270615,45.3486495]},"properties":{"ele":"2738","name":"Pic de la Vieille Femme","natural":"peak"}},
{"type":"Feature","geometry":{"type":"Point","coordinates":[6.745442,45.3453667]},"properties":{"ele":"3361","name":"Dôme des Sonnailles","natural":"peak","wikidata":"Q3045569"}},
{"type":"Feature","geometry":{"type":"Point","coordinates":[6.7613856,45.3758694]},"properties":{"ele":"2648","name":"Petite Aiguille de l'Arcelin","natural":"peak"}},
{"type":"Feature","geometry":{"type":"Point","coordinates":[6.7694067,45.3762022]},"properties":{"ele":"2759","name":"Grande Aiguille de l'Arcelin","natural":"peak"}},
{"type":"Feature","geometry":{"type":"Point","coordinates":[6.688531,45.3813416]},"properties":{"ele":"2555","name":"Aiguille d'Août","natural":"peak"}},
{"type":"Feature","geometry":{"type":"Point","coordinates":[6.7160233,45.3288576]},"properties":{"description":"Repère : Plaquette géodésique scellée dans le roc : Centre - Point vu en place en 1971","ele":"2748.57","man_made":"survey_point","note":"Ne pas déplacer ce point, cf. - Do not move this node, see - http://wiki.openstreetmap.org/wiki/WikiProject_France/Repères_Géodésiques#Permanence_des_rep.C3.A8res","ref":"7320602 - 1","source":"©IGN 2010 dans le cadre de la cartographie réglementaire","url":"http://geodesie.ign.fr/fiches/index.php?module=e&action=fichepdf&source=carte&sit_no=7320602"}},
{"type":"Feature","geometry":{"type":"Point","coordinates":[6.7585427,45.2537971]},"properties":{"lwn_name":"?","network:type":"node_network"}},
{"type":"Feature","geometry":{"type":"Point","coordinates":[6.7030063,45.2773391]},"properties":{"ele":"2356","hiking":"yes","information":"guidepost","tourism":"information"}},
{"type":"Feature","geometry":{"type":"Point","coordinates":[6.7310156,45.3496618]},"properties":{"name":"Col des Thurges","natural":"saddle","source":"IGN - 2021-06"}},
{"type":"Feature","geometry":{"type":"Point","coordinates":[6.7409434,45.3804145]},"properties":{"ele":"1680","information":"guidepost","name":"Pont du Creuset","tourism":"information"}},
{"type":"Feature","geometry":{"type":"Point","coordinates":[6.74654,45.3812901]},"properties":{"ele":"1720","hiking":"yes","information":"guidepost","name":"Cirque d'Arcellin","tourism":"information"}},
{"type":"Feature","geometry":{"type":"Point","coordinates":[6.6604731,45.3850959]},"properties":{"tourism":"picnic_site"}},
{"type":"Feature","geometry":{"type":"Point","coordinates":[6.7038241,45.2767155]},"properties":{"ele":"2324","information":"guidepost","name":"Chalet de la Marie","tourism":"information"}},
{"type":"Feature","geometry":{"type":"Point","coordinates":[6.7362053,45.2942056]},"properties":{"ele":"3324","mountain_pass":"yes","name":"Col de Labby","natural":"saddle","note":"altitude GPS : 3335 m","source":"GPS"}},
{"type":"Feature","geometry":{"type":"Point","coordinates":[6.725944,45.2863001]},"properties":{"ele":"2906","information":"guidepost","name":"Lac du Génépy","source":"GPS","tourism":"information"}},
{"type":"Feature","geometry":{"type":"Point","coordinates":[6.7025432,45.2768877]},"properties":{"information":"guidepost","name":"Refuge du Fond d'Aussois","tourism":"information"}},
{"type":"Feature","geometry":{"type":"Point","coordinates":[6.7323032,45.2987631]},"properties":{"ele":"3521","name":"Pointe de Labby","natural":"peak","source":"Bing"}},
{"type":"Feature","geometry":{"type":"Point","coordinates":[6.7229136,45.378524]},"properties":{"description":"Locations appartements","name":"Chalet du Dou","tourism":"guest_house"}},
{"type":"Feature","geometry":{"type":"Point","coordinates":[6.7208899,45.3764712]},"properties":{"leisure":"playground"}},
{"type":"Feature","geometry":{"type":"Point","coordinates":[6.722408,45.3820403]},"properties":{"name":"Hôtel Edelweiss","tourism":"hotel"}},
{"type":"Feature","geometry":{"type":"Point","coordinates":[6.7215768,45.3807781]},"properties":{"addr:city":"Pralognan-la-Vanoise","addr:housenumber":"169","addr:postcode":"73710","information":"office","name":"Maison du Parc National de la Vanoise","tourism":"information"}},
{"type":"Feature","geometry":{"type":"Point","coordinates":[6.7233095,45.379663]},"properties":{"name":"La Vanoise","tourism":"hotel"}},
{"type":"Feature","geometry":{"type":"Point","coordinates":[6.7307658,45.3865239]},"properties":{"tourism":"viewpoint"}},
{"type":"Feature","geometry":{"type":"Point","coordinates":[6.7164468,45.389163]},"properties":{"name":"Les Airelles","tourism":"hotel"}},
{"type":"Feature","geometry":{"type":"Point","coordinates":[6.7205895,45.381803]},"properties":{"addr:postcode":"73710","addr:street":"Avenue de Chasseforet","internet_access":"wlan","name":"Igesa","operator":"Orange","tourism":"hotel"}},
{"type":"Feature","geometry":{"type":"Point","coordinates":[6.6850604,45.2691898]},"properties":{"ele":"3422","name":"Pointe de l'Echelle","natural":"peak","wikidata":"Q1633160"}},
{"type":"Feature","geometry":{"type":"Point","coordinates":[6.7025546,45.2766725]},"properties":{"leisure":"picnic_table"}},
{"type":"Feature","geometry":{"type":"Point","coordinates":[6.7025848,45.2766872]},"properties":{"leisure":"picnic_table"}},
{"type":"Feature","geometry":{"type":"Point","coordinates":[6.7026044,45.2767006]},"properties":{"leisure":"picnic_table"}},
{"type":"Feature","geometry":{"type":"Point","coordinates":[6.7025223,45.2766516]},"properties":{"leisure":"picnic_table"}},
{"type":"Feature","geometry":{"type":"Point","coordinates":[6.7063062,45.3610172]},"properties":{"ele":"1590","information":"guidepost","name":"Pont de Gerlon","tourism":"information"}},
{"type":"Feature","geometry":{"type":"Point","coordinates":[6.751917,45.371418]},"properties":{"ele":"2490","mountain_pass":"yes","name":"Col du Grand Marchet","natural":"saddle"}},
{"type":"Feature","geometry":{"type":"Point","coordinates":[6.6834385,45.3866112]},"properties":{"ele":"2405","name":"Col de la Grande Pierre","natural":"saddle"}},
{"type":"Feature","geometry":{"type":"Point","coordinates":[6.7278283,45.3777806]},"properties":{"ele":"1450","hiking":"yes","information":"guidepost","name":"Piste d'Isertan","tourism":"information"}},
{"type":"Feature","geometry":{"type":"Point","coordinates":[6.7287664,45.3768482]},"properties":{"hiking":"yes","information":"guidepost","tourism":"information"}},
{"type":"Feature","geometry":{"type":"Point","coordinates":[6.7313843,45.3776037]},"properties":{"hiking":"yes","information":"guidepost","tourism":"information"}},
{"type":"Feature","geometry":{"type":"Point","coordinates":[6.7270739,45.3782185]},"properties":{"hiking":"yes","information":"guidepost","tourism":"information"}},
{"type":"Feature","geometry":{"type":"Point","coordinates":[6.7280949,45.3785681]},"properties":{"hiking":"yes","information":"guidepost","tourism":"information"}},
{"type":"Feature","geometry":{"type":"Point","coordinates":[6.7356418,45.3797888]},"properties":{"hiking":"yes","information":"guidepost","tourism":"information"}},
{"type":"Feature","geometry":{"type":"Point","coordinates":[6.6899779,45.331659]},"properties":{"ele":"1884","hiking":"yes","information":"guidepost","name":"Fontaine","tourism":"information"}},
{"type":"Feature","geometry":{"type":"Point","coordinates":[6.682679,45.3154508]},"properties":{"ele":"1971","hiking":"yes","information":"guidepost","name":"Ritort","tourism":"information"}},
{"type":"Feature","geometry":{"type":"Point","coordinates":[6.6870159,45.3201381]},"properties":{"board_type":"nature","information":"board","name":"l'Alpage de Chapendu","tourism":"information"}},
{"type":"Feature","geometry":{"type":"Point","coordinates":[6.6621712,45.2886393]},"properties":{"hiking":"yes","information":"guidepost","tourism":"information"}},
{"type":"Feature","geometry":{"type":"Point","coordinates":[6.6593371,45.2891554]},"properties":{"hiking":"yes","information":"guidepost","tourism":"information"}},
{"type":"Feature","geometry":{"type":"Point","coordinates":[6.6736546,45.3111682]},"properties":{"hiking":"yes","information":"guidepost","tourism":"information"}},
{"type":"Feature","geometry":{"type":"Point","coordinates":[6.6947767,45.3382898]},"properties":{"ele":"1755","hiking":"yes","information":"guidepost","name":"Pont de la Pêche","tourism":"information"}},
{"type":"Feature","geometry":{"type":"Point","coordinates":[6.6948118,45.3383035]},"properties":{"hiking":"yes","information":"map","map_size":"region","map_type":"topo","tourism":"information"}},
{"type":"Feature","geometry":{"type":"Point","coordinates":[6.7333256,45.3863478]},"properties":{"ele":"1930","information":"guidepost","name":"Sentier Balcon","tourism":"information"}},
{"type":"Feature","geometry":{"type":"Point","coordinates":[6.753823,45.3895501]},"properties":{"tourism":"information"}},
{"type":"Feature","geometry":{"type":"Point","coordinates":[6.7332344,45.3865719]},"properties":{"ele":"1990","information":"guidepost","name":"Le Pachu","tourism":"information"}},
{"type":"Feature","geometry":{"type":"Point","coordinates":[6.7501162,45.3890829]},"properties":{"ele":"1980","information":"guidepost","name":"Barmettes","tourism":"information"}},
{"type":"Feature","geometry":{"type":"Point","coordinates":[6.7312416,45.3868864]},"properties":{"tourism":"information"}},
{"type":"Feature","geometry":{"type":"Point","coordinates":[6.7301337,45.3863741]},"properties":{"ele":"2000","information":"guidepost","name":"Téléphérique","tourism":"information"}},
{"type":"Feature","geometry":{"type":"Point","coordinates":[6.7325933,45.3874215]},"properties":{"tourism":"information"}},
{"type":"Feature","geometry":{"type":"Point","coordinates":[6.7507546,45.388953]},"properties":{"ele":"1985","information":"guidepost","name":"Amont Piste des Arolles","tourism":"information"}},
{"type":"Feature","geometry":{"type":"Point","coordinates":[6.753013,45.3897629]},"properties":{"ele":"2010","information":"guidepost","name":"Refuge des Barmettes","tourism":"information"}},
{"type":"Feature","geometry":{"type":"Point","coordinates":[6.7344539,45.3810275]},"properties":{"ele":"1645","information":"guidepost","name":"Village des Fontanettes","tourism":"information"}},
{"type":"Feature","geometry":{"type":"Point","coordinates":[6.7351942,45.3819845]},"properties":{"ele":"1650","information":"guidepost","name":"Arrivée Edelweiss","tourism":"information"}},
{"type":"Feature","geometry":{"type":"Point","coordinates":[6.744244,45.3869277]},"properties":{"ele":"1830","information":"guidepost","name":"GR 55","tourism":"information"}},
{"type":"Feature","geometry":{"type":"Point","coordinates":[6.7359238,45.3819167]},"properties":{"ele":"1650","information":"guidepost","name":"Parking des Fontanettes","tourism":"information"}},
{"type":"Feature","geometry":{"type":"Point","coordinates":[6.7320292,45.3799121]},"properties":{"ele":"1600","information":"guidepost","name":"Fontanettes Aval","tourism":"information"}},
{"type":"Feature","geometry":{"type":"Point","coordinates":[6.7417978,45.3854357]},"properties":{"ele":"1770","information":"guidepost","name":"Dou de l'Ecu","tourism":"information"}},
{"type":"Feature","geometry":{"type":"Point","coordinates":[6.7350762,45.3811405]},"properties":{"ele":"1645","information":"guidepost","name":"Restaurant des Fontanettes","tourism":"information"}},
{"type":"Feature","geometry":{"type":"Point","coordinates":[6.7223622,45.3813449]},"properties":{"information":"guidepost","tourism":"information"}},
{"type":"Feature","geometry":{"type":"Point","coordinates":[6.7152705,45.3814994]},"properties":{"ele":"1420","information":"guidepost","name":"Route Forestière de la Montagne","tourism":"information"}},
{"type":"Feature","geometry":{"type":"Point","coordinates":[6.7197337,45.3830253]},"properties":{"board_type":"notice","information":"board","tourism":"information"}},
{"type":"Feature","geometry":{"type":"Point","coordinates":[6.717199,45.3742589]},"properties":{"ele":"1450","information":"guidepost","name":"Portettaz","tourism":"information"}},
{"type":"Feature","geometry":{"type":"Point","coordinates":[6.7175691,45.3744266]},"properties":{"information":"board","tourism":"information"}},
{"type":"Feature","geometry":{"type":"Point","coordinates":[6.717486,45.3744681]},"properties":{"tourism":"information"}},
{"type":"Feature","geometry":{"type":"Point","coordinates":[6.7275472,45.3800098]},"properties":{"tourism":"viewpoint"}},
{"type":"Feature","geometry":{"type":"Point","coordinates":[6.7299868,45.3794722]},"properties":{"ele":"1560","information":"guidepost","name":"Sentier de la Cascade","tourism":"information"}},
{"type":"Feature","geometry":{"type":"Point","coordinates":[6.7275954,45.3800211]},"properties":{"information":"map","map_type":"toposcope","name":"Table d'orientation","tourism":"information"}},
{"type":"Feature","geometry":{"type":"Point","coordinates":[6.7281882,45.3802001]},"properties":{"ele":"1530","information":"guidepost","name":"Table d'orientation","tourism":"information"}},
{"type":"Feature","geometry":{"type":"Point","coordinates":[6.7265172,45.3803225]},"properties":{"ele":"1465","information":"guidepost","name":"Les Bieux","tourism":"information"}},
{"type":"Feature","geometry":{"type":"Point","coordinates":[6.7314632,45.3797008]},"properties":{"ele":"1590","information":"guidepost","name":"Sentier des Bieux","tourism":"information"}},
{"type":"Feature","geometry":{"type":"Point","coordinates":[6.7319795,45.3797825]},"properties":{"ele":"1595","information":"guidepost","name":"Bachal Fontanettes","tourism":"information"}},
{"type":"Feature","geometry":{"type":"Point","coordinates":[6.6980066,45.3432897]},"properties":{"ele":"1725","tourism":"picnic_site"}},
{"type":"Feature","geometry":{"type":"Point","coordinates":[6.7214259,45.3818267]},"properties":{"addr:city":"Pralognan-la-Vanoise","addr:housenumber":"290","addr:postcode":"73710","information":"office","name":"Office de Tourisme","name:fr":"Office de Tourisme","tourism":"information","wheelchair":"yes"}},
{"type":"Feature","geometry":{"type":"Point","coordinates":[6.7313819,45.3884434]},"properties":{"tourism":"viewpoint"}},
{"type":"Feature","geometry":{"type":"Point","coordinates":[6.7326889,45.3462972]},"properties":{"waterway":"waterfall"}},
{"type":"Feature","geometry":{"type":"Point","coordinates":[6.6870623,45.3400618]},"properties":{"ford":"yes"}},
{"type":"Feature","geometry":{"type":"Point","coordinates":[6.7459959,45.3638476]},"properties":{"waterway":"waterfall"}},
{"type":"Feature","geometry":{"type":"Point","coordinates":[6.7461335,45.2878644]},"properties":{"ele":"3338","name":"Col de la Dent Parrachée","natural":"saddle"}},
{"type":"Feature","geometry":{"type":"Point","coordinates":[6.7524247,45.2873167]},"properties":{"alt_name":"Pointe Maurice Gignoux","ele":"3642","name":"Pointe de la Fournache","natural":"peak","wikidata":"Q2016577","wikipedia":"fr:Pointe de la Fournache"}},
{"type":"Feature","geometry":{"type":"Point","coordinates":[6.6890149,45.3437982]},"properties":{"information":"guidepost","tourism":"information"}},
{"type":"Feature","geometry":{"type":"Point","coordinates":[6.702576,45.3778625]},"properties":{"ele":"2185","name":"Napremont","natural":"peak"}},
{"type":"Feature","geometry":{"type":"Point","coordinates":[6.6804589,45.3603937]},"properties":{"information":"guidepost","name":"Col des Saulces","tourism":"information"}},
{"type":"Feature","geometry":{"type":"Point","coordinates":[6.7086662,45.2367022]},"properties":{"ford":"yes"}},
{"type":"Feature","geometry":{"type":"Point","coordinates":[6.6891066,45.2907882]},"properties":{"ele":"2916","mountain_pass":"yes","natural":"saddle"}},
{"type":"Feature","geometry":{"type":"Point","coordinates":[6.7078877,45.3227201]},"properties":{"information":"guidepost","tourism":"information"}},
{"type":"Feature","geometry":{"type":"Point","coordinates":[6.6941358,45.3287198]},"properties":{"information":"guidepost","tourism":"information"}},
{"type":"Feature","geometry":{"type":"Point","coordinates":[6.6911434,45.3277968]},"properties":{"entrance":"yes"}},
{"type":"Feature","geometry":{"type":"Point","coordinates":[6.7035896,45.3514816]},"properties":{"highway":"rest_area","leisure":"picnic_table"}},
{"type":"Feature","geometry":{"type":"Point","coordinates":[6.7313156,45.3784205]},"properties":{"description":"Via Ferrata Cascade de la Fraîche","natural":"cliff","sport":"via_ferrata","via_ferrata":"start"}},
{"type":"Feature","geometry":{"type":"Point","coordinates":[6.7190878,45.3879106]},"properties":{"entrance":"yes"}},
{"type":"Feature","geometry":{"type":"Point","coordinates":[6.706891,45.2367831]},"properties":{"ford":"yes"}},
{"type":"Feature","geometry":{"type":"Point","coordinates":[6.6696855,45.3364304]},"properties":{"ele":"2688","name":"Col du Rateau","natural":"saddle"}},
{"type":"Feature","geometry":{"type":"Point","coordinates":[6.6853952,45.3711816]},"properties":{"information":"guidepost","name":"Passage de Plassa","tourism":"information"}},
{"type":"Feature","geometry":{"type":"Point","coordinates":[6.7353035,45.3811522]},"properties":{"bench":"yes","leisure":"picnic_table","lit":"no","material":"wood"}},
{"type":"Feature","geometry":{"type":"Point","coordinates":[6.7035451,45.3564702]},"properties":{"waterway":"weir"}},
{"type":"Feature","geometry":{"type":"Point","coordinates":[6.5924631,45.3880995]},"properties":{"aerialway":"pylon"}},
{"type":"Feature","geometry":{"type":"Point","coordinates":[6.686528,45.3560918]},"properties":{"information":"map","map_type":"toposcope","name":"Table d'orientation","tourism":"information"}},
{"type":"Feature","geometry":{"type":"Point","coordinates":[6.7536849,45.2805893]},"properties":{"ele":"3295","name":"Pointe de Pas Rosset","natural":"peak","source":"IGN - 2021-06"}},
{"type":"Feature","geometry":{"type":"Point","coordinates":[6.7634339,45.35823]},"properties":{"ele":"3261","name":"Pointe Ouest du Mont Pelve","natural":"peak","source":"IGN - 2021-06"}},
{"type":"Feature","geometry":{"type":"Point","coordinates":[6.7141902,45.3077998]},"properties":{"name":"Col du Génépy","natural":"saddle","source":"IGN - 2021-06"}},
{"type":"Feature","geometry":{"type":"Point","coordinates":[6.7415638,45.3124158]},"properties":{"name":"Dômes du Génépy","natural":"peak","source":"IGN - 2021-06"}},
{"type":"Feature","geometry":{"type":"Point","coordinates":[6.7159245,45.3289242]},"properties":{"ele":"2747","name":"Roc du Blanchon","natural":"peak","source":"IGN - 2021-06"}},
{"type":"Feature","geometry":{"type":"Point","coordinates":[6.7219924,45.2935725]},"properties":{"ele":"3276","name":"Pointe Chevrière","natural":"peak","source":"IGN - 2021-06"}},
{"type":"Feature","geometry":{"type":"Point","coordinates":[6.7709509,45.3622996]},"properties":{"name":"Col du Dard","natural":"saddle","source":"IGN - 2021-06"}},
{"type":"Feature","geometry":{"type":"Point","coordinates":[6.7235871,45.304224]},"properties":{"name":"Col Supérieur du Génépy","natural":"saddle","source":"IGN - 2021-06"}},
{"type":"Feature","geometry":{"type":"Point","coordinates":[6.7178493,45.3275874]},"properties":{"name":"Col du Vallonnet","natural":"saddle","source":"IGN - 2021-06"}},
{"type":"Feature","geometry":{"type":"Point","coordinates":[6.752689,45.2762498]},"properties":{"name":"Col de la Faculta","natural":"saddle","source":"IGN - 2021-06"}},
{"type":"Feature","geometry":{"type":"Point","coordinates":[6.7332982,45.3575942]},"properties":{"name":"Col du Tambour","natural":"saddle","source":"IGN - 2021-06"}},
{"type":"Feature","geometry":{"type":"Point","coordinates":[6.7347522,45.2735911]},"properties":{"name":"Le Grand Châtelard","natural":"peak","source":"IGN - 2021-06"}},
{"type":"Feature","geometry":{"type":"Point","coordinates":[6.7381845,45.3105492]},"properties":{"ele":"3567","name":"Dôme Sud","natural":"peak","source":"IGN - 2021-06"}},
{"type":"Feature","geometry":{"type":"Point","coordinates":[6.7508672,45.3305624]},"properties":{"name":"Col de Chasseforêt","natural":"saddle","source":"IGN - 2021-06"}},
{"type":"Feature","geometry":{"type":"Point","coordinates":[6.7513607,45.2738343]},"properties":{"ele":"3140","name":"Pointe de Bellecôte","natural":"peak","source":"IGN - 2021-06"}},
{"type":"Feature","geometry":{"type":"Point","coordinates":[6.7225237,45.3541805]},"properties":{"name":"Col de la Valette","natural":"saddle","source":"IGN - 2021-06"}},
{"type":"Feature","geometry":{"type":"Point","coordinates":[6.7333223,45.3017314]},"properties":{"name":"Passage de Rosoire","natural":"saddle","source":"IGN - 2021-06"}},
{"type":"Feature","geometry":{"type":"Point","coordinates":[6.7050618,45.3163859]},"properties":{"ele":"2622","name":"Pointe Ariande","natural":"peak","source":"IGN - 2021-06"}},
{"type":"Feature","geometry":{"type":"Point","coordinates":[6.739169,45.2884001]},"properties":{"ele":"3396","name":"Pointe de la Gorma","natural":"peak","source":"IGN - 2021-06"}},
{"type":"Feature","geometry":{"type":"Point","coordinates":[6.7617011,45.3538206]},"properties":{"name":"Col du Pelve","natural":"saddle","source":"IGN - 2021-06"}},
{"type":"Feature","geometry":{"type":"Point","coordinates":[6.7235857,45.2943858]},"properties":{"name":"Brèche de la Pyramide","natural":"saddle","source":"IGN - 2021-06"}},
{"type":"Feature","geometry":{"type":"Point","coordinates":[6.7431181,45.3221752]},"properties":{"name":"Col de l'Arpont","natural":"saddle","source":"IGN - 2021-06"}},
{"type":"Feature","geometry":{"type":"Point","coordinates":[6.7205914,45.3753756]},"properties":{"leisure":"sports_centre","sport":"swimming"}},
{"type":"Feature","geometry":{"type":"Point","coordinates":[6.6807181,45.2780574]},"properties":{"name":"Brèche de la Croix de la Rue","natural":"saddle","source":"IGN - 2021-06"}},
{"type":"Feature","geometry":{"type":"Point","coordinates":[6.6814003,45.2848063]},"properties":{"name":"Cimes des Planettes","natural":"peak","source":"IGN - 2021-06"}},
{"type":"Feature","geometry":{"type":"Point","coordinates":[6.6871699,45.2986441]},"properties":{"name":"Pointe de Rosoire","natural":"peak","source":"IGN - 2021-06"}},
{"type":"Feature","geometry":{"type":"Point","coordinates":[6.6823434,45.3144085]},"properties":{"historic":"wayside_cross","source":"IGN - 2021-06"}},
{"type":"Feature","geometry":{"type":"Point","coordinates":[6.6611388,45.3223024]},"properties":{"ele":"3055","name":"Aiguille des Corneillets","natural":"peak","source":"IGN - 2021-06"}},
{"type":"Feature","geometry":{"type":"Point","coordinates":[6.6661302,45.3291975]},"properties":{"ele":"3045","name":"Aiguille de Chanrossa","natural":"peak","source":"IGN - 2021-06"}},
{"type":"Feature","geometry":{"type":"Point","coordinates":[6.6663328,45.3399322]},"properties":{"ele":"2890","name":"Aiguille du Rateau","natural":"peak","source":"IGN - 2021-06"}},
{"type":"Feature","geometry":{"type":"Point","coordinates":[6.7692306,45.3755606]},"properties":{"name":"Col de l'Arcelin","natural":"saddle","source":"IGN - 2021-06"}},
{"type":"Feature","geometry":{"type":"Point","coordinates":[6.7430471,45.3729765]},"properties":{"name":"Le Grand Marchet Pointe Ouest","natural":"peak","source":"IGN - 2021-06"}},
{"type":"Feature","geometry":{"type":"Point","coordinates":[6.7196045,45.3825395]},"properties":{"access":"yes","historic":"monument","name":"Statue du Bouquetin"}},
{"type":"Feature","geometry":{"type":"Point","coordinates":[6.7551704,45.2863563]},"properties":{"ele":"3450","name":"Brèche de la Loza","natural":"saddle"}},
{"type":"Feature","geometry":{"type":"Point","coordinates":[6.7157197,45.3743454]},"properties":{"ele":"1490","information":"guidepost","name":"La Portettaz","tourism":"information"}},
{"type":"Feature","geometry":{"type":"Point","coordinates":[6.6927257000000008,45.3282651]},"properties":{"name":"Grotte","natural":"cave_entrance","tourism":"attraction"}},
{"type":"Feature","geometry":{"type":"Point","coordinates":[6.6888618,45.3113654]},"properties":{"tourism":"viewpoint"}},
{"type":"Feature","geometry":{"type":"Point","coordinates":[6.6930516,45.3119887]},"properties":{"tourism":"viewpoint"}},
{"type":"Feature","geometry":{"type":"Point","coordinates":[6.7477565,45.3869927]},"properties":{"name":"Point de vue sur le torrent","tourism":"viewpoint"}},
{"type":"Feature","geometry":{"type":"Point","coordinates":[6.7400457,45.3844125]},"properties":{"leisure":"picnic_table"}},
{"type":"Feature","geometry":{"type":"Point","coordinates":[6.6829307,45.35329]},"properties":{"ele":"2533","fixme":"position à affiner / improve position","information":"guidepost","name":"Col du Mône","tourism":"information"}},
{"type":"Feature","geometry":{"type":"Point","coordinates":[6.7033184,45.3566432]},"properties":{"ele":"1650","fixme":"position à affiner / improve position","information":"guidepost","name":"Cabane Forestière","tourism":"information"}},
{"type":"Feature","geometry":{"type":"Point","coordinates":[6.6871569,45.3622093]},"properties":{"ele":"2371","fixme":"position à affiner / improve position","information":"guidepost","name":"Col des Saulces","tourism":"information"}},
{"type":"Feature","geometry":{"type":"Point","coordinates":[6.690286,45.3276971]},"properties":{"ele":"1915","hiking":"yes","information":"guidepost","name":"Refuge du Roc de la Pêche","tourism":"information"}},
{"type":"Feature","geometry":{"type":"Point","coordinates":[6.7391433,45.2912654]},"properties":{"ele":"3334","mountain_pass":"yes","name":"Col du Moine","natural":"saddle","note":"altitude déterminée avec un GPS Garmin Etrex 30 (plusieurs points durant 15 mn)","source":"GPS average"}},
{"type":"Feature","geometry":{"type":"Point","coordinates":[6.7105476,45.3852676]},"properties":{"tourism":"picnic_site"}},
{"type":"Feature","geometry":{"type":"Point","coordinates":[6.7064162,45.3726519]},"properties":{"backrest":"no","covered":"no","leisure":"picnic_table","material":"wood"}},
{"type":"Feature","geometry":{"type":"Point","coordinates":[6.6875657,45.3511083]},"properties":{"backrest":"no","covered":"no","leisure":"picnic_table","material":"wood"}},
{"type":"Feature","geometry":{"type":"Point","coordinates":[6.6875564,45.3508662]},"properties":{"backrest":"no","covered":"no","leisure":"picnic_table","material":"wood"}},
{"type":"Feature","geometry":{"type":"Point","coordinates":[6.7498648,45.3668193]},"properties":{"waterway":"waterfall"}},
{"type":"Feature","geometry":{"type":"Point","coordinates":[6.7501813,45.3669625]},"properties":{"waterway":"waterfall"}},
{"type":"Feature","geometry":{"type":"Point","coordinates":[6.7506802,45.3677389]},"properties":{"waterway":"waterfall"}},
{"type":"Feature","geometry":{"type":"Point","coordinates":[6.693788,45.328679]},"properties":{"ele":"1910","information":"guidepost","name":"Montaimont","tourism":"information"}},
{"type":"Feature","geometry":{"type":"Point","coordinates":[6.6938517,45.3286592]},"properties":{"bench":"yes","leisure":"picnic_table","lit":"no","material":"wood"}},
{"type":"Feature","geometry":{"type":"Point","coordinates":[6.6998545,45.3285936]},"properties":{"information":"guidepost","tourism":"information"}},
{"type":"Feature","geometry":{"type":"Point","coordinates":[6.7171759,45.3418853]},"properties":{"ele":"2180","information":"guidepost","name":"Torrents des Nants","tourism":"information"}},
{"type":"Feature","geometry":{"type":"Point","coordinates":[6.7151031,45.3446304]},"properties":{"ele":"2046","information":"guidepost","name":"Passerelles des Nants","tourism":"information"}},
{"type":"Feature","geometry":{"type":"Point","coordinates":[6.716717,45.3757958]},"properties":{"bench":"yes","leisure":"picnic_table","lit":"no","material":"wood"}},
{"type":"Feature","geometry":{"type":"Point","coordinates":[6.7313623,45.3777181]},"properties":{"leisure":"picnic_table","name":"Table picnic"}},
{"type":"Feature","geometry":{"type":"Point","coordinates":[6.7319269,45.3879752]},"properties":{"leisure":"picnic_table","name":"Table picnic"}},
{"type":"Feature","geometry":{"type":"Point","coordinates":[6.6939088,45.3286076]},"properties":{"leisure":"picnic_table"}},
{"type":"Feature","geometry":{"type":"Point","coordinates":[6.7202921,45.3824896]},"properties":{"addr:city":"Pralognan-la-Vanoise","addr:housenumber":"49","addr:postcode":"73710","email":"contact@lespetitsbouquetins.fr","image":"https://www.lespetitsbouquetins.fr/img/img01_1600.jpg","name":"Les Petits Bouquetins","tourism":"apartment","website":"https://www.lespetitsbouquetins.fr"}},
{"type":"Feature","geometry":{"type":"Point","coordinates":[6.7560818,45.2890891]},"properties":{"ele":"3697","name":"Dent Parrachée","natural":"peak","prominence":"1180","wikidata":"Q1189850"}},
{"type":"Feature","geometry":{"type":"Point","coordinates":[6.7010529,45.2914439]},"properties":{"ele":"3126","name":"Tête d'Aussois","natural":"peak"}},
{"type":"Feature","geometry":{"type":"Point","coordinates":[6.7154376,45.3731886]},"properties":{"tourism":"viewpoint"}},
{"type":"Feature","geometry":{"type":"Point","coordinates":[6.7156246,45.3733834]},"properties":{"information":"map","map_type":"toposcope","tourism":"information"}},
{"type":"Feature","geometry":{"type":"Point","coordinates":[6.7167963,45.3738979]},"properties":{"information":"guidepost","tourism":"information"}},
{"type":"Feature","geometry":{"type":"Point","coordinates":[6.7282436,45.3794729]},"properties":{"tourism":"viewpoint"}},
{"type":"Feature","geometry":{"type":"Point","coordinates":[6.7198062,45.3826406]},"properties":{"historic":"wayside_cross"}},
{"type":"Feature","geometry":{"type":"Point","coordinates":[6.7282385,45.379485]},"properties":{"information":"map","map_type":"toposcope","tourism":"information"}},
{"type":"Feature","geometry":{"type":"Point","coordinates":[6.7235742,45.3703868]},"properties":{"ele":"1720","hiking":"yes","information":"guidepost","name":"Forêt d'Isertan Amont","operator":"Département de Savoie","tourism":"information"}},
{"type":"Feature","geometry":{"type":"Point","coordinates":[6.7119364,45.3676243]},"properties":{"ele":"1550","hiking":"yes","information":"guidepost","name":"Départ sentier Rocher Blanc","operator":"Département de Savoie","tourism":"information"}},
{"type":"Feature","geometry":{"type":"Point","coordinates":[6.6604356,45.3853996]},"properties":{"name":"Signal d'Ariondaz","natural":"peak"}},
{"type":"Feature","geometry":{"type":"Point","coordinates":[6.7538419,45.380266399999999]},"properties":{"hiking":"yes","information":"guidepost","tourism":"information"}},
{"type":"Feature","geometry":{"type":"Point","coordinates":[6.7476171,45.3822422]},"properties":{"ele":"1735","information":"guidepost","name":"Couloir de l'eau","tourism":"information"}},
{"type":"Feature","geometry":{"type":"Point","coordinates":[6.6948339,45.3382734]},"properties":{"ele":"1755","hiking":"yes","information":"guidepost","name":"Pont de la Pêche","tourism":"information"}},
{"type":"Feature","geometry":{"type":"Point","coordinates":[6.6908428,45.3275408]},"properties":{"ele":"1915","hiking":"yes","information":"guidepost","name":"Refuge du Roc de la Pêche","tourism":"information"}},
{"type":"Feature","geometry":{"type":"Point","coordinates":[6.6891067,45.2908033]},"properties":{"ele":"2916","hiking":"yes","information":"guidepost","name":"Col d'Aussois","tourism":"information"}},
{"type":"Feature","geometry":{"type":"Point","coordinates":[6.6825154,45.3137178]},"properties":{"natural":"spring"}},
{"type":"Feature","geometry":{"type":"Point","coordinates":[6.7346671,45.3792086]},"properties":{"leisure":"picnic_table"}},
{"type":"Feature","geometry":{"type":"Point","coordinates":[6.7005712,45.3781963]},"properties":{"name":"Col de Napremont","natural":"saddle"}},
{"type":"Feature","geometry":{"type":"Point","coordinates":[6.6805287,45.3603436]},"properties":{"ele":"2456","name":"Col des Saulces","natural":"saddle"}},
{"type":"Feature","geometry":{"type":"Point","coordinates":[6.6895583,45.3747562]},"properties":{"ele":"2806","name":"Col de Mey","natural":"saddle"}},
{"type":"Feature","geometry":{"type":"Point","coordinates":[6.682829,45.3529528]},"properties":{"ele":"2533","name":"Col du Mône","natural":"saddle"}},
{"type":"Feature","geometry":{"type":"LineString","coordinates":[[6.7181695,45.3878686],[6.7182774,45.3879307],[6.7182528,45.387957],[6.7183034,45.3879829],[6.7183296,45.3879615],[6.7183778,45.387985],[6.718699,45.3880146],[6.7187255,45.3880586],[6.7190036,45.387977],[6.7190878,45.3879106],[6.7191413,45.3878656],[6.7191417,45.3878247],[6.7192642,45.3877123],[6.7191325,45.387642],[6.719066,45.3876527],[6.7190253,45.3876975],[6.7189771,45.3877034],[6.7188981,45.3877791],[6.7189007,45.3878134],[6.7188194,45.3878573],[6.7186668,45.3878949],[6.7185624,45.3879111],[6.7184527,45.3879013],[6.7182844,45.3878079],[6.718253,45.3878369],[6.7182123,45.3878204],[6.7181695,45.3878686]]},"properties":{"addr:housenumber":"385","building":"yes","name":"Le Télémark","source":"cadastre-dgi-fr source : Direction Générale des Impôts - Cadastre. Mise à jour : 2009","tourism":"hotel"}},
{"type":"Feature","geometry":{"type":"LineString","coordinates":[[6.7215597,45.3793938],[6.7216994,45.3794487],[6.7216893,45.3794635],[6.7220052,45.3795809],[6.7220149,45.3795683],[6.7220873,45.3795949],[6.7221678,45.3794886],[6.7222055,45.3795002],[6.7223474,45.3793094],[6.7222336,45.3792669],[6.7223138,45.379166],[6.7221198,45.3790917],[6.7220438,45.3791888],[6.7219664,45.3791593],[6.7219234,45.379214],[6.7218752,45.3792283],[6.7218412,45.3792139],[6.7218286,45.3791889],[6.7217753,45.3791702],[6.7217369,45.3791795],[6.7217227,45.3791736],[6.7215597,45.3793938]]},"properties":{"building":"yes","name":"Miléade","source":"cadastre-dgi-fr source : Direction Générale des Impôts - Cadastre ; mise à jour : 2010","tourism":"hotel"}},
{"type":"Feature","geometry":{"type":"LineString","coordinates":[[6.7230337,45.3799072],[6.7232929,45.3799516],[6.7233314,45.3798293],[6.7232514,45.3798138],[6.7232587,45.3797999],[6.7231486,45.3797801],[6.723127,45.3798418],[6.7230793,45.3798324],[6.723055,45.3798494],[6.7230337,45.3799072]]},"properties":{"building":"yes","name":"Petit Mont-Blanc","source":"cadastre-dgi-fr source : Direction Générale des Impôts - Cadastre ; mise à jour : 2010","tourism":"hotel"}},
{"type":"Feature","geometry":{"type":"LineString","coordinates":[[6.6844912,45.3154016],[6.684605,45.3155594],[6.6847071,45.3158711],[6.6850126,45.3162676],[6.6854364,45.3160488],[6.6856295,45.3162261],[6.6861713,45.3160941],[6.6861928,45.3162639],[6.6864342,45.316294],[6.6862088,45.3169768],[6.6863272,45.3170582],[6.6868687,45.3168863],[6.6868552,45.3169048],[6.6867453,45.317056],[6.6868848,45.3172069],[6.6873186,45.317475],[6.6880674,45.3172881],[6.6882218,45.317304],[6.6885652,45.3171947],[6.6889782,45.3170966],[6.6889782,45.3172248],[6.6886832,45.3174172],[6.688415,45.3175606],[6.688415,45.3175964],[6.6887221,45.3176822],[6.6885491,45.3177011],[6.688474,45.3177567],[6.6880529,45.3179302],[6.6880971,45.3180707],[6.6882353,45.3181679],[6.6883653,45.3181952],[6.6884215,45.3182331],[6.6884882,45.3182781],[6.6886711,45.3183121],[6.6886765,45.31838],[6.6884217,45.3185498],[6.6884458,45.3186228],[6.6885611,45.3186912],[6.6886899,45.3187233],[6.6888213,45.3186743],[6.6888708,45.3187015],[6.688706,45.3187893],[6.6887757,45.3188836],[6.6890332,45.3189798],[6.6889983,45.3192061],[6.6890547,45.3193815],[6.6889128,45.319641],[6.6886202,45.3197681],[6.6885719,45.3198757],[6.6885799,45.3200133],[6.6887463,45.3201039],[6.6886953,45.3203094],[6.6887362,45.3203677],[6.6890332,45.3204735],[6.6890681,45.3207602],[6.6894248,45.3207319],[6.6894436,45.3211279],[6.689229,45.3211657],[6.6889692,45.3210857],[6.6887891,45.3212675],[6.6888669,45.3213637],[6.6889898,45.3214701],[6.6889936,45.3216487],[6.6890121,45.3218735],[6.6890638,45.3221017],[6.6889576,45.3223912],[6.6890041,45.3225224],[6.6892117,45.322602],[6.6892305,45.3227524],[6.6893012,45.3228618],[6.6893944,45.3229325],[6.6893912,45.3229834],[6.6894243,45.3230595],[6.6894571,45.3231615],[6.6895229,45.3233182],[6.6895463,45.3233288],[6.6897802,45.3233071],[6.6900082,45.3233995],[6.6901396,45.3234787],[6.6900806,45.3235372],[6.6901396,45.3236013],[6.6902308,45.3237031],[6.6901638,45.3237371],[6.6900028,45.3237767],[6.6899753,45.3238691],[6.690012,45.3239322],[6.6900392,45.3239671],[6.6900835,45.3240124],[6.6900863,45.3240427],[6.6901254,45.3240619],[6.6901656,45.3240886],[6.6901919,45.3241257],[6.690377,45.3242033],[6.6904603,45.3242509],[6.6905076,45.3243062],[6.690525,45.3243461],[6.6905305,45.3243993],[6.6905471,45.3244396],[6.6906189,45.3244528],[6.6906552,45.3244785],[6.6906599,45.3245016],[6.6906911,45.3245222],[6.6907254,45.3245284],[6.6907281,45.3245456],[6.6907451,45.3245553],[6.6907783,45.3245637],[6.6908843,45.3245717],[6.6909204,45.3246],[6.6909961,45.3246087],[6.6910168,45.3246262],[6.6910861,45.3246303],[6.6911602,45.3246581],[6.6912025999999999,45.324679],[6.6912996,45.3246907],[6.6913553,45.3246779],[6.6914027,45.3246907],[6.6914558,45.3246799],[6.691487,45.3247058],[6.6915327,45.3247085],[6.6915875,45.3247068],[6.6916094,45.3246936],[6.6916168,45.3246798],[6.691648,45.3246467],[6.6916939,45.3246392],[6.6917366,45.3246494],[6.6917889,45.3246489],[6.6918374,45.3246587],[6.6918758,45.3246501],[6.6919022,45.3246403],[6.6919324,45.3246369],[6.6919589,45.32464],[6.6919833,45.3246577],[6.6920274,45.3245706],[6.6921089,45.3243774],[6.6923272,45.3241899],[6.6923042,45.3240291],[6.6923326,45.3239387],[6.6924224,45.3239401],[6.6924448,45.3238593],[6.6924892,45.3237988],[6.6925454,45.3237848],[6.6926044,45.3238098],[6.6926085,45.3239741],[6.6926159,45.3240984],[6.6926774,45.3241848],[6.6928939,45.3242435],[6.693197,45.3241005],[6.6932439,45.3243989],[6.693192,45.3245235],[6.6931866,45.3246008],[6.6932242,45.324663],[6.6931061,45.3247536],[6.6929989,45.3247404],[6.6928755,45.3248026],[6.6928463,45.3248487],[6.6928366,45.3248639],[6.6925898,45.3250336],[6.6925791,45.325086400000007],[6.6927379,45.3251717],[6.6928266,45.3251931],[6.693109,45.325261],[6.6931546,45.3254194],[6.69316,45.3255967],[6.6932217,45.3256117],[6.6933933,45.3255476],[6.6935247,45.3255646],[6.6937715,45.3254779],[6.6938466,45.3255061],[6.693978,45.3256532],[6.6937838,45.3257719],[6.6938857,45.3258776],[6.6941942,45.3258587],[6.6943133,45.3257815],[6.6943723,45.3258362],[6.6943804,45.3258758],[6.6943589,45.3259776],[6.6943267,45.3260775],[6.6943482,45.3261567],[6.6945941,45.3263317],[6.6946861,45.3264226],[6.6946861,45.3265018],[6.69476,45.3265376],[6.6948229,45.3265735],[6.6948685,45.3265961],[6.6948954,45.3266565],[6.6948793,45.3268017],[6.6949866,45.3272316],[6.6950938,45.3273297],[6.6951099,45.3274277],[6.6951824,45.3274749],[6.6951502,45.3276371],[6.6950295,45.3277332],[6.6949973,45.3278124],[6.6950536,45.3279369],[6.6950375,45.3280274],[6.6950912,45.3281217],[6.6950912,45.3282179],[6.6951528,45.3282914],[6.6953379,45.3283555],[6.6955686,45.3283461],[6.6957081,45.3283423],[6.6957858,45.3283857],[6.6958019,45.3284177],[6.6957912,45.3285573],[6.6956973,45.3286308],[6.6956973,45.3287817],[6.6956356,45.3288816],[6.6954935,45.3289288],[6.6952843,45.3289514],[6.6950912,45.3289382],[6.6949436,45.3289457],[6.6949007,45.3291192],[6.6949249,45.3291833],[6.6950026,45.3292833],[6.6949436,45.3294115],[6.6947854,45.3293889],[6.6947022,45.3294153],[6.6946701,45.3294756],[6.6945547,45.32947],[6.6944367,45.3294492],[6.694434,45.32937],[6.6944379,45.3291408],[6.6943589,45.329189],[6.6943214,45.3292644],[6.6943133,45.3293776],[6.6942463,45.3294473],[6.6941256,45.3295246],[6.6941095,45.3295774],[6.6942597,45.329634],[6.6943428,45.3295793],[6.6944072,45.3295322],[6.6945038,45.3295397],[6.6945386,45.3295699],[6.6944716,45.3296453],[6.6943482,45.3297679],[6.6942355,45.3298659],[6.6940719,45.3298791],[6.6939754,45.3298622],[6.6938627,45.3299187],[6.6937581,45.3300036],[6.6939432,45.330113],[6.6940156,45.3302073],[6.6941175,45.3302582],[6.6942436,45.3302676],[6.6942972,45.330311],[6.694324,45.33036],[6.6944206,45.330377],[6.6944903,45.3303298],[6.6945252,45.3302374],[6.6944206,45.3300658],[6.6945091,45.3299206],[6.6946781,45.3297585],[6.6947639,45.3297679],[6.6946996,45.3299093],[6.6947854,45.3299527],[6.6947478,45.3300621],[6.6947237,45.3301714],[6.6947586,45.3302468],[6.6947612,45.3303562],[6.6946969,45.3304184],[6.6946808,45.330458],[6.6947183,45.3305335],[6.6947988,45.3305655],[6.6949195,45.330558],[6.6950187,45.3305259],[6.6951099,45.3304448],[6.6951421,45.330343],[6.695126,45.3302487],[6.6951394,45.3302148],[6.6952011,45.3302186],[6.6952387,45.3302336],[6.6952816,45.3303015],[6.6953326,45.3303223],[6.6954184,45.330277],[6.6954398,45.330211],[6.6954452,45.3301413],[6.6956759,45.3300998],[6.6958073,45.3301337],[6.6960299,45.3302638],[6.6961935,45.3304335],[6.6963384,45.3305354],[6.6964686,45.3305676],[6.6966147,45.3305523],[6.696671,45.3304844],[6.696789,45.3304122],[6.696838,45.33037],[6.6968715,45.3303631],[6.6970004,45.3303929],[6.6970272,45.3303288],[6.6969682,45.3302694],[6.6970973,45.3301376],[6.6971452,45.3299922],[6.6972957,45.3298448],[6.6975154,45.3297791],[6.6977303,45.3296096],[6.6977759,45.3294682],[6.697628,45.3292078],[6.6974289,45.3289975],[6.6974778,45.3288759],[6.6973816,45.3287083],[6.6974816,45.3282993],[6.6974859,45.3280103],[6.6974406,45.3278484],[6.6973225,45.3274958],[6.6970007,45.3270979],[6.6964455,45.3270055],[6.6960405,45.3272186],[6.6959654,45.3272035],[6.6959198,45.326898],[6.6958125,45.3268169],[6.6958689,45.3266415],[6.6954555,45.3265147],[6.6953927,45.3263581],[6.6955309,45.3260852],[6.6957237,45.3260171],[6.6962095,45.3258156],[6.6961934,45.3256289],[6.6960781,45.3254346],[6.6959067,45.3253719],[6.6953645,45.3254416],[6.6950894,45.3254214],[6.6952818,45.3252458],[6.6955152,45.3251855],[6.6957083,45.3249705],[6.6960593,45.3248006],[6.6963758,45.324689],[6.6964888,45.3245782],[6.6965259,45.3245042],[6.6963275,45.3244721],[6.6961478,45.324408],[6.6955523,45.3243589],[6.6951205,45.3243835],[6.6947718,45.3245626],[6.6945411,45.3245042],[6.6944714,45.3244117],[6.6945733,45.3243778],[6.694753,45.3242496],[6.6950803,45.3240761],[6.6955228,45.324061],[6.6960874,45.3241496],[6.6964836,45.3241556],[6.6969563,45.3241842],[6.6971596,45.3241628],[6.6973,45.324099],[6.6973927,45.3240237],[6.697454,45.3239544],[6.6975046,45.3238976],[6.6975677,45.3238436],[6.6976693,45.3238146],[6.6977741,45.3237918],[6.6979157,45.3236466],[6.6980835,45.3235409],[6.6981541,45.323441],[6.6982184,45.3233505],[6.6981702,45.3232958],[6.6982426,45.3231996],[6.6982533,45.3231129],[6.6981407,45.3231072],[6.6980414,45.3231449],[6.6979556,45.323143],[6.6978349,45.3231921],[6.6977303,45.3231921],[6.6976257,45.3232486],[6.6975747,45.3233241],[6.6975801,45.3234278],[6.6975077,45.3234844],[6.6974004,45.3235108],[6.6973172,45.3236202],[6.6972314,45.3236522],[6.6971643,45.3236786],[6.6970946,45.3236937],[6.6970329,45.3236767],[6.6969283,45.323705],[6.6968103,45.3236654],[6.6967325,45.3236711],[6.6966493,45.3237484],[6.6964482,45.3237729],[6.6963382,45.3237465],[6.6962926,45.3237277],[6.6962604,45.3236673],[6.6961907,45.3236447],[6.69607,45.3236126],[6.6959225,45.3235334],[6.6958903,45.3234768],[6.6958876,45.3234052],[6.6958581,45.3233693],[6.6959868,45.3232977],[6.6961344,45.3232241],[6.6961478,45.3232072],[6.6960941,45.3231298],[6.6960217,45.3230695],[6.6960405,45.322994],[6.6960512,45.322896],[6.6961961,45.3228639],[6.6963543,45.3227564],[6.6966252,45.3227357],[6.6967969,45.322664],[6.6969363,45.3226621],[6.6971992,45.3226961],[6.6973762,45.3227621],[6.6974916,45.3227828],[6.6976015,45.3229092],[6.6976257,45.3229526],[6.6976713,45.3230016],[6.6977544,45.3230374],[6.6981648,45.3229959],[6.6983177,45.323028],[6.6984464,45.3229431],[6.6984652,45.3228752],[6.698484,45.3227508],[6.6985349,45.3226942],[6.6986771,45.3226244],[6.6990499,45.3224094],[6.6992699,45.322351],[6.6993316,45.3222963],[6.6993798,45.3222585],[6.6994147,45.3222906],[6.6993155,45.3224094],[6.6993047,45.3224735],[6.6991706,45.3225414],[6.6990553,45.3226301],[6.6989775,45.3227659],[6.6988783,45.3228545],[6.69872,45.3229186],[6.6985752,45.3230091],[6.6984089,45.323077],[6.698366,45.3231543],[6.698366,45.3232185],[6.698374,45.3232675],[6.6984598,45.3233241],[6.6987763,45.3233316],[6.6990231,45.3233543],[6.6992109,45.3233279],[6.6994737,45.3232864],[6.6997097,45.3232505],[6.6999511,45.3232392],[6.7000423,45.3232505],[6.7004357,45.3231674],[6.700985,45.3228755],[6.7032182,45.3227406],[6.7057047,45.3219516],[6.7078066,45.3211449],[6.7082849,45.3210376],[6.7089771,45.320543],[6.7089957,45.3204322],[6.7088723,45.3203152],[6.7091728,45.3198117],[6.7101603,45.3192734],[6.709869,45.3179893],[6.7078057,45.3187562],[6.7056394,45.3198796],[6.7040595,45.3197333],[6.7017899,45.3195464],[6.7003234,45.3196039],[6.7000574,45.3196913],[6.7000886,45.3191934],[6.6984277,45.3184838],[6.6952417,45.3177147],[6.6944184,45.3169126],[6.6941939,45.3162062],[6.6942328,45.3161173],[6.6949098,45.3145955],[6.6947788,45.3139783],[6.6938667,45.3131201],[6.6927862,45.3122684],[6.6919142,45.3119823],[6.6909117,45.3118234],[6.6905045,45.3117588],[6.6893122,45.3116709],[6.6887601,45.3126914],[6.6884205,45.3124684],[6.6884379,45.3128683],[6.6871774,45.3118323],[6.6870578,45.3119839],[6.6863992,45.3118792],[6.6843445,45.3121678],[6.6854804,45.3111437],[6.6839931,45.3105779],[6.6838184,45.3101006],[6.6836564,45.3101144],[6.6835384,45.3101635],[6.6834901,45.3102408],[6.683474,45.310305],[6.6834553,45.3104087],[6.6833426,45.3105049],[6.6832219,45.3106464],[6.6830824,45.3106973],[6.6826908,45.3107369],[6.6825594,45.3108048],[6.6824092,45.3108067],[6.6822241,45.310835],[6.6821544,45.3109802],[6.6821839,45.3111179],[6.682023,45.3112802],[6.6820069,45.3114782],[6.6820793,45.311482],[6.6823502,45.3115593],[6.6824709,45.3116612],[6.6826282,45.3117452],[6.6828201,45.3117921],[6.6828632,45.3118307],[6.6827901,45.3119064],[6.6827848,45.3120121],[6.6829242,45.3120837],[6.6828464,45.3121328],[6.6829564,45.3122252],[6.6829457,45.3124025],[6.6830234,45.3125232],[6.6830047,45.3126156],[6.6830717,45.3126534],[6.6831656,45.3126835],[6.6833131,45.3126703],[6.6834687,45.3126534],[6.6835384,45.3127326],[6.6835599,45.3129042],[6.6837369,45.3129684],[6.6837584,45.3130231],[6.6837986,45.3131532],[6.6840319,45.31324],[6.6841044,45.3132702],[6.6842304,45.313306],[6.6842733,45.3134607],[6.6842009,45.3136549],[6.6841902,45.3138794],[6.6844262,45.3140322],[6.6846059,45.3139831],[6.6847159,45.3139699],[6.6847776,45.3140095],[6.6849734,45.3140793],[6.6850834,45.3141718],[6.6851907,45.3144358],[6.6853382,45.3144886],[6.685652,45.3144151],[6.6858129,45.3144245],[6.6858183,45.3145207],[6.6855152,45.3146037],[6.6854106,45.3145886],[6.6852148,45.3146263],[6.684901,45.3146772],[6.6848527,45.3147376],[6.6846703,45.3147678],[6.6845362,45.3148225],[6.6844079,45.314875],[6.6843068,45.3148507],[6.6841996,45.3148668],[6.6842183,45.3149262],[6.6843082,45.3149828],[6.6842926,45.3150336],[6.6843297,45.3151865],[6.6844464,45.3152563],[6.6844912,45.3154016]]},"properties":{"CLC:code":"313","CLC:id":"FR-259754","CLC:year":"2006","leaf_type":"mixed","natural":"scrub","source":"Union européenne - SOeS, CORINE Land Cover, 2006."}},
{"type":"Feature","geometry":{"type":"LineString","coordinates":[[6.653189,45.3787208],[6.6534956,45.3783902],[6.6544186,45.378413],[6.6547909,45.3767746],[6.6555608,45.3766062],[6.6567278,45.3776872],[6.6580364,45.3772355],[6.6582948,45.3772288],[6.6585565,45.3769383],[6.6563253,45.3761644],[6.6557349,45.3757458],[6.655467,45.3750568],[6.6550756,45.3746485],[6.6544397,45.3743105],[6.6543877,45.3741256],[6.6546611,45.3726431],[6.6542168,45.3723551],[6.6536451,45.3728919],[6.6529896,45.3724049],[6.6530752,45.3721617],[6.6529918,45.3716863],[6.6527584,45.3715512],[6.6522911,45.3717675],[6.651815,45.3715528],[6.6511853,45.3717968],[6.6499007,45.372975],[6.6483557,45.3732646],[6.6483481,45.373936],[6.6493032,45.374401400000007],[6.6493004000000008,45.3750738],[6.6495234,45.3753918],[6.650232,45.375227],[6.6508963,45.3756934],[6.6511622,45.375415],[6.6512055,45.3752839],[6.6522761,45.3755904],[6.65254,45.3755937],[6.6526136,45.3761179],[6.6519504,45.3777045],[6.653189,45.3787208]]},"properties":{"CLC:code":"332","CLC:id":"FR-165194","CLC:year":"2006","natural":"bare_rock","source":"Union européenne - SOeS, CORINE Land Cover, 2006."}},
{"type":"Feature","geometry":{"type":"LineString","coordinates":[[6.6758758,45.3753957],[6.6758809,45.3741972],[6.6753968,45.3737396],[6.6754818,45.3727239],[6.6749956,45.3719849],[6.6752481,45.3707114],[6.6751988,45.3704295],[6.6755811,45.3687129],[6.6748538,45.3683111],[6.674691,45.3684255],[6.6739617,45.3682523],[6.6727372,45.3676738],[6.6718743,45.3691816],[6.6722651,45.3694581],[6.6723637,45.369657],[6.672123,45.3698263],[6.6716163,45.3697525],[6.6710346,45.3699046],[6.6707897,45.3704187],[6.670932,45.3707769],[6.6723584,45.3711393],[6.6716752,45.3716771],[6.6718362,45.37202],[6.6726467,45.3723004],[6.6731294,45.3723627],[6.6741021,45.3730513],[6.6738562,45.3737366],[6.6733694,45.3737938],[6.672558,45.3735641],[6.6724482,45.3736416],[6.6725326,45.3746068],[6.6721471,45.3748764],[6.6709312,45.3748167],[6.6707709,45.3744738],[6.6711801,45.3736188],[6.6697465,45.3725439],[6.6696168,45.3712842],[6.669978,45.3705314],[6.6698189,45.3698461],[6.6699017,45.3693316],[6.6706361,45.3683052],[6.6713694,45.3676212],[6.6711297,45.3670483],[6.6717082,45.3664694],[6.6714249,45.3659725],[6.6713304,45.3658061],[6.6708825,45.3658303],[6.6701099,45.3655428],[6.6688121,45.366394],[6.668683,45.366479],[6.667558,45.366445],[6.66732,45.3665275],[6.6664235,45.3676694],[6.6669866,45.3684133],[6.6673931,45.3682995],[6.6678407,45.3679859],[6.6680028,45.3679853],[6.6682244,45.3681422],[6.6685393,45.3692978],[6.6683082,45.3694476],[6.6683603,45.3701134],[6.6684164,45.3702069],[6.6680327,45.370357],[6.6677212,45.3708996],[6.6684347,45.3720025],[6.6678566,45.373212],[6.6678533,45.3740163],[6.6695738,45.3754911],[6.6698248,45.3757066],[6.6702479,45.3760686],[6.670554,45.3762954],[6.6709575,45.3763664],[6.6722215,45.3765909],[6.6731981,45.3763187],[6.6748252,45.3761089],[6.6750653,45.3760331],[6.6752233,45.3759087],[6.6758758,45.3753957]]},"properties":{"CLC:code":"332","CLC:id":"FR-165252","CLC:year":"2006","natural":"bare_rock","source":"Union européenne - SOeS, CORINE Land Cover, 2006."}},
{"type":"Feature","geometry":{"type":"LineString","coordinates":[[6.7374012,45.3776791],[6.7371713,45.3779131],[6.7401355,45.3779123],[6.7406787,45.3776396],[6.7414578,45.3772282],[6.7426358,45.3766894],[6.7438357,45.3771983],[6.7438329,45.3780555],[6.7434246,45.3787981],[6.7420445,45.3793685],[6.7413154,45.3792532],[6.7408067,45.3803579],[6.7410124,45.3804094],[6.7422623,45.3805959],[6.7421926,45.3807089],[6.7427356,45.3808065],[6.7434745,45.3809383],[6.7439381,45.3809884],[6.7445647,45.3808851],[6.7455027,45.3809742],[6.7465739,45.3815947],[6.7461097,45.3821414],[6.746157,45.3828047],[6.7463082,45.383202],[6.7464752,45.3832835],[6.7468396,45.3830695],[6.7474521,45.383085],[6.7472091,45.3836074],[6.7473019,45.3840481],[6.7475809,45.3843888],[6.747947,45.3846959],[6.7481424,45.3848247],[6.7484481,45.3851336],[6.748719,45.3849794],[6.7483543,45.3845951],[6.7479765,45.384321],[6.7475608,45.3839122],[6.7476285,45.3834297],[6.747841,45.383105],[6.7484857,45.383052],[6.7489739,45.3830746],[6.7489404,45.3825383],[6.7484632,45.3823439],[6.7480851,45.3823062],[6.7477001,45.3821216],[6.7476288,45.3820599],[6.74744,45.3820218],[6.7468861,45.3819728],[6.7468901,45.3818889],[6.7473515,45.3817562],[6.7477578,45.3817589],[6.7483182,45.3816233],[6.7489014,45.3816108],[6.7494298,45.3814563],[6.7499287,45.3814639],[6.7503471,45.3814299],[6.7509962,45.3813018],[6.7517998,45.3810329],[6.7523642,45.3812981],[6.7529372,45.3814321],[6.7542793,45.3816711],[6.7552127,45.3819499],[6.7557361,45.3819568],[6.7561783,45.3819914],[6.7561568,45.3820516],[6.7557759,45.3820969],[6.7557867,45.3821873],[6.7565055,45.3824133],[6.7566782,45.3826026],[6.7561934,45.3825624],[6.7561773,45.3827395],[6.755614,45.3828676],[6.7555868,45.3830568],[6.7558963,45.3833284],[6.7561577,45.3834412],[6.7563972,45.3833311],[6.7570768,45.3836735],[6.7578299,45.3839039],[6.7586127,45.3840884],[6.7590365,45.3841185],[6.7599113,45.3844687],[6.7603561,45.3845631],[6.7606203,45.3845733],[6.7617246,45.385204],[6.7622806,45.3856595],[6.7627862,45.385991],[6.7638698,45.386575],[6.7648959,45.3868727],[6.7651403,45.3867008],[6.765955,45.3853878],[6.7661202,45.3844172],[6.7657985,45.383503],[6.7650963,45.383297],[6.7647013,45.3833311],[6.7640469,45.3834554],[6.7635858,45.3832764],[6.7633388,45.3832256],[6.7624,45.3828262],[6.7617261,45.3826578],[6.7602649,45.3827772],[6.7596887,45.3828693],[6.7591494,45.3828719],[6.7583277,45.3827161],[6.7573334,45.3824244],[6.7570409,45.3822271],[6.7577008,45.3820688],[6.7580595,45.3818411],[6.7585001,45.3818352],[6.7592189,45.3816544],[6.7594174,45.3814886],[6.7600718,45.3807199],[6.7573301,45.3812541],[6.7573199,45.3811909],[6.7584142,45.3808066],[6.7587692,45.3804912],[6.759015,45.3800756],[6.7579743,45.380215],[6.7580816,45.3801246],[6.7588863,45.3798156],[6.7583183,45.3795297],[6.7593798,45.3792768],[6.7595112,45.3788174],[6.7612596,45.3793877],[6.7623119,45.3792175],[6.7628148,45.3789914],[6.7629629,45.3789247],[6.763073,45.3790014],[6.7632121,45.3789035],[6.7648209,45.3792665],[6.7652017,45.3792221],[6.7662437,45.3784823],[6.7677605,45.378306],[6.7683284,45.3779636],[6.7690592,45.37785],[6.7698734,45.376822],[6.7693365,45.3765832],[6.7690614,45.3763711],[6.7680076,45.3765921],[6.767065,45.3771021],[6.7664651,45.3772763],[6.7658281,45.3771642],[6.7652304,45.3770343],[6.7649246,45.3766801],[6.7643989,45.3764126],[6.7644752,45.3763199],[6.7640759,45.3761598],[6.7638249,45.3760471],[6.7634275,45.3762367],[6.762651,45.3762258],[6.7622156,45.3761978],[6.7616507,45.3761032],[6.7612714,45.3761714],[6.7609479,45.3762678],[6.7606089,45.3763891],[6.7598874,45.3768987],[6.7596729,45.3771361],[6.7597104,45.3773358],[6.7595334,45.3775053],[6.7595119,45.3776184],[6.7593349,45.3777465],[6.7589057,45.3778294],[6.7590238,45.3775543],[6.7589219,45.3772133],[6.7585597,45.3771105],[6.758043,45.3770191],[6.7571321,45.3770011],[6.7560068,45.3769327],[6.7554511,45.3771285],[6.7553008,45.3774149],[6.7549575,45.3776862],[6.7548859,45.3780518],[6.7547304,45.3781401],[6.7543674,45.37821],[6.7541582,45.3781346],[6.7541421,45.3778935],[6.7542726,45.3776681],[6.7547483,45.3774036],[6.7549033,45.3768139],[6.7551882,45.3766575],[6.7549307,45.3761827],[6.7544425,45.3758097],[6.7543406,45.3752783],[6.7540831,45.3751125],[6.7536202,45.3752204],[6.7533267,45.3756627],[6.7528869,45.3758473],[6.752742,45.3760357],[6.7525694,45.376133],[6.7524416,45.3763673],[6.7517393,45.3767687],[6.7503012,45.3770607],[6.7494318,45.3776042],[6.7481159,45.3777261],[6.74516,45.3772822],[6.7446486,45.3768001],[6.7448136,45.3757721],[6.7442227,45.3754058],[6.7428492,45.3751549],[6.7410869,45.3763925],[6.7399962,45.3767138],[6.7389096,45.3771059],[6.7386459,45.3769654],[6.738975,45.3755378],[6.7381656,45.3749649],[6.7374245,45.3750809],[6.7374112,45.376068],[6.7380751,45.3765503],[6.7380981,45.3770197],[6.7380866,45.3772705],[6.7378158,45.3772604],[6.7376315,45.3772887],[6.7374702,45.3773818],[6.7374414,45.3775133],[6.7374012,45.3776791]]},"properties":{"CLC:code":"321","CLC:id":"FR-259682","CLC:year":"2006","natural":"grassland","source":"Union européenne - SOeS, CORINE Land Cover, 2006."}},
{"type":"Feature","geometry":{"type":"LineString","coordinates":[[6.7030317,45.3569958],[6.7027957,45.3569883],[6.7024111,45.3570324],[6.7016616,45.3569262],[6.7008447,45.3582962],[6.6981662,45.3589203],[6.697096,45.3586277],[6.6942114,45.3600234],[6.6936099,45.3593836],[6.6929834,45.3599081],[6.6928156,45.3603336],[6.692721,45.3605716],[6.6922406,45.3607402],[6.6911067,45.3603385],[6.691024,45.360567],[6.6913432,45.36171],[6.6910191,45.361824],[6.6902903,45.3617084],[6.6903538,45.3618218],[6.6904204,45.3619409],[6.6902453,45.3628938],[6.6904462,45.3629704],[6.6911556,45.3632445],[6.6921343,45.3643437],[6.6939836,45.3633287],[6.6960348,45.3638747],[6.6969576,45.3621638],[6.6972606,45.362004399999999],[6.6979898,45.3623476],[6.6983956,45.3623486],[6.6992082,45.362007],[6.7005062,45.3618942],[6.7019672,45.3614394],[6.7026986,45.3608691],[6.7033338,45.3604389],[6.7034605,45.3603739],[6.7034847,45.3602288],[6.7034069,45.3600252],[6.7034096,45.3599687],[6.7035598,45.3598688],[6.7034364,45.359686],[6.7034364,45.3596445],[6.70371,45.359605],[6.7036697,45.3595051],[6.7037395,45.3594579],[6.7049036,45.3592487],[6.7050859,45.3592054],[6.7053059,45.3591828],[6.7055133,45.3589941],[6.7054427,45.3589491],[6.7052393,45.3589491],[6.7047981,45.3588737],[6.7047064,45.3588907],[6.7046031,45.3587512],[6.7037931,45.3584044],[6.7034288,45.3582951],[6.7031682,45.3581443],[6.7030931,45.3580275],[6.7037207,45.3580086],[6.7040882,45.3579502],[6.704174,45.3578842],[6.7040292,45.3575356],[6.7041364,45.357462],[6.7043027,45.3572943],[6.7041737,45.3571003],[6.7038257,45.3570222],[6.7036004,45.3569204],[6.7033053,45.3569431],[6.7030317,45.3569958]]},"properties":{"CLC:code":"321","CLC:id":"FR-259722","CLC:year":"2006","natural":"grassland","source":"Union européenne - SOeS, CORINE Land Cover, 2006."}},
{"type":"Feature","geometry":{"type":"LineString","coordinates":[[6.6729303,45.2879726],[6.6728716,45.2878893],[6.6726594,45.2878367],[6.6724849,45.2877344],[6.6723657,45.2877028],[6.6722342,45.2876858],[6.672076,45.2876858],[6.6718614,45.2876782],[6.6716763,45.2876669],[6.6714738,45.2876141],[6.6713518,45.2876235],[6.6710165,45.2876726],[6.670979,45.2876801],[6.6708636,45.2877028],[6.6707,45.2877348],[6.6705069,45.2877839],[6.6702816,45.287782],[6.6701609,45.2877915],[6.6699785,45.2877424],[6.66989,45.2876877],[6.6698039,45.2876689],[6.6696191,45.2876839],[6.6692905,45.2877338],[6.669206,45.2877197],[6.6691014,45.2877915],[6.6690692,45.2878934],[6.6689941,45.2880066],[6.6687876,45.2881481],[6.6685502,45.2882245],[6.6684751,45.2882283],[6.6683812,45.2881981],[6.6683249,45.2882189],[6.6682927,45.2882755],[6.6682793,45.2884415],[6.6682284,45.2885415],[6.6682458,45.288635],[6.6681063,45.2887444],[6.6681009,45.2888765],[6.6682002,45.2889727],[6.6682351,45.2890369],[6.6681841,45.2890954],[6.6679937,45.2891614],[6.6678381,45.2893237],[6.6678569,45.2894671],[6.6678427,45.2895845],[6.667762,45.2896615],[6.6677584,45.289746],[6.6675975,45.2899318],[6.6674787,45.2899257],[6.667586,45.2896728],[6.6676798,45.2896162],[6.6677415,45.2895502],[6.667712,45.2893294],[6.6677442,45.2892275],[6.6678944,45.2891067],[6.6680795,45.2890199],[6.6680902,45.2889765],[6.6680419,45.2889293],[6.6678368,45.2887755],[6.6677617,45.2886661],[6.6677938,45.2884981],[6.6677321,45.2884019],[6.6677241,45.2883132],[6.6677214,45.2882019],[6.6677214,45.2880849],[6.6678153,45.2879207],[6.6679172,45.2878245],[6.6679521,45.2877414],[6.667873,45.2877046],[6.6677791,45.2876235],[6.6676932,45.2875669],[6.6677227,45.2875178],[6.6678247,45.2875141],[6.66794,45.2875499],[6.6680473,45.2875556],[6.6681009,45.2874537],[6.6681774,45.2873395],[6.668113,45.2871904],[6.6680969,45.2870319],[6.6679802,45.2869083],[6.6679534,45.2868385],[6.6680017,45.2866856],[6.6679132,45.2865932],[6.6678569,45.2865328],[6.6678461,45.2864271],[6.6678086,45.2862893],[6.6675994,45.2862214],[6.6673151,45.2859968],[6.6672078,45.2859081],[6.6670307,45.2858289],[6.6667518,45.2857364],[6.6663709,45.2857213],[6.6663656,45.2856685],[6.6664299,45.2856439],[6.6665989,45.2855854],[6.666446,45.2854515],[6.6665265,45.2854628],[6.6666847,45.2855817],[6.6668671,45.2856515],[6.6669637,45.2856062],[6.6669717,45.2854835],[6.6668698,45.2853571],[6.6668805,45.2852684],[6.6667786,45.2851816],[6.6667518,45.2850684],[6.6667759,45.2849287],[6.6667035,45.28484],[6.666564,45.2847626],[6.6663602,45.2846928],[6.6661912,45.2844947],[6.6661644,45.2843833],[6.6660518,45.2842766],[6.6660779,45.2841379],[6.6661034,45.2840237],[6.6660692,45.2839332],[6.6658412,45.2837879],[6.6657661,45.2836917],[6.6658063,45.2834897],[6.6658466,45.2833765],[6.6659002,45.2833104],[6.6658184,45.2832529],[6.665695,45.2830321],[6.6653061,45.2826169],[6.6651881,45.2825697],[6.6651103,45.2825867],[6.66507,45.2826546],[6.6651049,45.2827754],[6.6651934,45.2829075],[6.6653061,45.2834171],[6.6654482,45.2836813],[6.6654912,45.2839304],[6.6656574,45.2841663],[6.6655877,45.2843154],[6.6654751,45.2843852],[6.6653597,45.2843852],[6.6652256,45.2843248],[6.6650969,45.2842512],[6.6650486,45.2841644],[6.6650995,45.2840682],[6.6652202,45.2839908],[6.665113,45.2838035],[6.6648716,45.2835416],[6.6646892,45.2832397],[6.664524,45.2829013],[6.664065,45.2827732],[6.6636598,45.2830593],[6.6635773,45.2834015],[6.6637367,45.2836869],[6.6637337,45.2843729],[6.6626013,45.2844282],[6.6621927,45.2849982],[6.6630798,45.2855718],[6.6635442,45.2855729],[6.663611,45.2862753],[6.6618812,45.2866691],[6.6615994,45.287259],[6.6633483,45.2881324],[6.6642016,45.2882006],[6.6647666,45.2886021],[6.6646034,45.288944],[6.664037,45.2889435],[6.6631445,45.2891697],[6.6617691,45.289168],[6.6612001,45.2893388],[6.6612153,45.2896254],[6.6610535,45.2896638],[6.6604522,45.2896399],[6.6600833,45.2901468],[6.6596603,45.2894493],[6.6594447,45.2892551],[6.6586101,45.2888449],[6.6571572,45.2881309],[6.6559424,45.2879585],[6.6543472,45.2882366],[6.6529607,45.2880416],[6.6528248,45.2883453],[6.6533619,45.2887377],[6.6531659,45.2889559],[6.6532277,45.2897486],[6.6524259,45.2903113],[6.6522044,45.2906938],[6.6525286,45.2909233],[6.6530152,45.2908098],[6.6539839,45.2910391],[6.6546286,45.2917259],[6.6556795,45.2922414],[6.656407,45.2924147],[6.6580277,45.2922459],[6.6590425,45.2919497],[6.6608128,45.2926569],[6.6608704,45.2930161],[6.66053,45.2940215],[6.6605246,45.2952211],[6.6609984,45.2956689],[6.661044,45.2959161],[6.6589816,45.2967642],[6.6575159,45.2977874],[6.657354,45.2978996],[6.6565405,45.298242],[6.6557772,45.297293],[6.6546847,45.2969818],[6.6543282,45.297035],[6.6540413,45.297814],[6.6516628,45.2979689],[6.6507453,45.2975704],[6.6484034,45.2970017],[6.6483448,45.2969878],[6.6484076,45.2967905],[6.6456172,45.2963434],[6.6456211,45.2954806],[6.64509,45.2951036],[6.6447387,45.2948537],[6.6405517,45.2929921],[6.6402164,45.2930449],[6.6405377,45.2936465],[6.6405968,45.2939062],[6.6404526,45.2940995],[6.6413326,45.2947165],[6.6421897,45.2946592],[6.643853,45.2950519],[6.643893,45.2956748],[6.6435936,45.2959904],[6.6429355,45.296186],[6.6416908,45.2963822],[6.6410896,45.296477],[6.6407533,45.2972412],[6.6411909,45.2976781],[6.6416763,45.2974981],[6.6422513,45.2976686],[6.6422205,45.2982242],[6.6422081,45.2984484],[6.6419744,45.2985003],[6.640579,45.299641],[6.6402207,45.2998307],[6.6402227,45.3000993],[6.6404407,45.3002873],[6.6405303,45.3004847],[6.6406795,45.3007026],[6.6408871,45.3007645],[6.6408277,45.3009449],[6.6406426,45.3010927],[6.6408351,45.3011051],[6.6410492,45.3012116],[6.6410909,45.3009817],[6.6412236,45.3008584],[6.641269,45.300615],[6.6416677,45.3004653],[6.6421993,45.3007262],[6.6426711,45.3008948],[6.6428937,45.3009784],[6.6431657,45.3013192],[6.6433462,45.3022108],[6.6441725,45.3034162],[6.6446846,45.3034709],[6.6452693,45.303289],[6.6454921,45.303613],[6.6460245,45.3043617],[6.6463878,45.3041078],[6.6472042,45.3029094],[6.6472082,45.3021097],[6.6464008,45.3015362],[6.6454309,45.301192],[6.6451093,45.3006774],[6.645277,45.3002689],[6.6463413,45.299981],[6.6467445,45.2995848],[6.6472974,45.300221],[6.6475368,45.3010823],[6.6481017,45.301369],[6.6486376,45.3011815],[6.6493767,45.2997801],[6.649974,45.2996015],[6.6503007,45.2991451],[6.6505447,45.2990309],[6.6510284,45.299546],[6.6510248,45.3002894],[6.652782,45.3013576],[6.6540077,45.3015544],[6.6553821,45.3007612],[6.6556663,45.3007422],[6.6560422,45.3007547],[6.6565988,45.3003614],[6.6587945,45.2998595],[6.6600737,45.3001679],[6.6617193,45.299622],[6.6631808,45.2985966],[6.6647203,45.2985413],[6.6647905,45.298525],[6.6655314,45.2983532],[6.6659596,45.2988816],[6.6668539000000008,45.3002995],[6.6668809,45.3006442],[6.6664054,45.3012217],[6.6660953,45.3015983],[6.6652253,45.3015848],[6.6641407,45.3011112],[6.6634939,45.301053],[6.6624371,45.3017946],[6.6617764,45.3019678],[6.6599199,45.3016841],[6.6597436,45.3018892],[6.6593892,45.3038411],[6.6601611,45.3044282],[6.6602688,45.3045096],[6.6610347,45.3050914],[6.661286,45.3054476],[6.6613646,45.3060764],[6.6617656,45.3067061],[6.6624929,45.3072218],[6.6631214,45.3072784],[6.6644888,45.306866],[6.6651657,45.3072259],[6.6664055,45.3074469],[6.6686724,45.3071999],[6.6690537,45.3072897],[6.6696961,45.3084326],[6.6706349,45.3083966],[6.6709051,45.3085053],[6.6710154,45.3087682],[6.671371,45.3089459],[6.6716803,45.3092014],[6.6721792,45.3096208],[6.6731031,45.3101343],[6.6737155,45.3107413],[6.6739106,45.3108101],[6.6742213,45.3109808],[6.6744483,45.3110023],[6.6746914,45.3109672],[6.6748597,45.3111374],[6.6749936,45.3111743],[6.6751309,45.3111544],[6.6752504,45.3111232],[6.6754388,45.3105558],[6.6748606,45.3097348],[6.6730002,45.3089683],[6.6725354,45.3076373],[6.6726183,45.3072388],[6.6738355,45.3064976],[6.6741611,45.3064984],[6.6748611,45.3067966],[6.6768272,45.3055825],[6.6769289,45.3028475],[6.6779051,45.3022193],[6.6791687,45.3017477],[6.6798286,45.300027],[6.6809087,45.3009105],[6.6813287,45.3005574],[6.681699,45.2996026],[6.6815488,45.2992233],[6.6822359,45.2986548],[6.6823942,45.2988926],[6.6827083,45.2993645],[6.6828853,45.299291],[6.6829658,45.2992155],[6.6831213,45.2991683],[6.6832662,45.2990532],[6.6834083,45.2990061],[6.6834995,45.2989193],[6.6836068,45.2988872],[6.6837972,45.2987004],[6.683993,45.2986853],[6.6841513,45.2986419],[6.6842505,45.2985608],[6.6842988,45.2984759],[6.6843498,45.2984004],[6.6843659,45.2983193],[6.6843498,45.2982457],[6.6842465,45.2982042],[6.6840856,45.2982099],[6.6839917,45.2981665],[6.6838361,45.2981212],[6.683812,45.2980288],[6.6850561,45.297147],[6.6850604,45.2961749],[6.6844939,45.2958896],[6.6841574,45.2958408],[6.6814592,45.2964012],[6.679918,45.2961494],[6.6788213,45.2966224],[6.6769554,45.2964912],[6.6767144,45.2964285],[6.6767484,45.2963269],[6.6767189,45.2962477],[6.6767055,45.2961929],[6.6766733,45.2961156],[6.6767296,45.2960156],[6.676912,45.2959326],[6.6769849,45.2958591],[6.6770112,45.2958326],[6.67703,45.2957552],[6.6769254,45.2956345],[6.6768637,45.2954118],[6.6768905,45.295325],[6.676963,45.2952816],[6.6769952,45.2951684],[6.6770381,45.2950854],[6.6771293,45.2950439],[6.6772178,45.2948929],[6.6772205,45.2948288],[6.6771726,45.2947733],[6.677135,45.2947298],[6.67714,45.2945835],[6.6772714,45.2945024],[6.6774592,45.2943175],[6.6775826,45.2943099],[6.6777998,45.2942929],[6.6779366,45.294259],[6.6779259,45.2942005],[6.67806,45.2941552],[6.6782692,45.2941137],[6.6783497,45.294025],[6.678414,45.2939005],[6.6784918,45.2938082],[6.6785445,45.2936943],[6.6785455,45.2935627],[6.6785144,45.2933968],[6.6784672,45.2933308],[6.6784423,45.293257],[6.6783765,45.2931967],[6.6782826,45.2931929],[6.6781726,45.2932495],[6.6780198,45.2933061],[6.6779554,45.2933004],[6.6779232,45.293257],[6.6777086,45.2932514],[6.6777703,45.2933514],[6.6777515,45.2934325],[6.6776657,45.2935948],[6.6776308,45.2937363],[6.6772983,45.2939288],[6.677132,45.2939401],[6.6769951,45.2938552],[6.6768986,45.2939307],[6.6768128,45.2939835],[6.6766357,45.2941514],[6.676397,45.2943231],[6.6761878,45.2943571],[6.6761449,45.294376],[6.6760952,45.2944252],[6.6759732,45.2944581],[6.6759008,45.2944703],[6.6758054,45.294535],[6.6757345,45.2946175],[6.6756514,45.2946835],[6.6755441,45.2947212],[6.6755012,45.294676],[6.6756541,45.294576],[6.6757197,45.2944749],[6.6756862,45.294425],[6.6756836,45.294376],[6.6757238,45.294308],[6.6758874,45.2942231],[6.675882,45.2941514],[6.6759142,45.2940288],[6.6758418,45.293925],[6.6757479,45.2938269],[6.6757077,45.2937665],[6.6757271,45.2936508],[6.6748061,45.293905],[6.6744623,45.2934161],[6.6748701,45.2926738],[6.6745489,45.2923316],[6.6733338,45.2923294],[6.67285,45.2919282],[6.6711442,45.2930679],[6.6706602,45.2927242],[6.6709076,45.2915827],[6.6714171,45.2906923],[6.6714711,45.2906182],[6.6715301,45.2905484],[6.6715328,45.2904899],[6.6714524,45.2904729],[6.6713317,45.2904767],[6.6713692,45.2904219],[6.6713907,45.290337],[6.6714255,45.2902408],[6.6715328,45.2901332],[6.6716428,45.2900672],[6.6715892,45.290037],[6.671498,45.2900144],[6.6715114,45.2899408],[6.671557,45.2898483],[6.6715945,45.2897634],[6.671624,45.2897351],[6.6717367,45.2896973],[6.6719057,45.2896407],[6.672072,45.2896068],[6.6721927,45.2895747],[6.6722973,45.2895539],[6.6723026,45.289603],[6.6722704,45.2897615],[6.6722543,45.2898577],[6.672257,45.2899351],[6.6723509,45.289971],[6.6725306,45.2899521],[6.6726567,45.2899257],[6.6727345,45.2899049],[6.6728337,45.2899011],[6.6728873,45.2898464],[6.6729678,45.2898087],[6.6730805,45.2897747],[6.6732682,45.2897766],[6.6734318,45.2897596],[6.6735606,45.2896709],[6.6737215,45.2896445],[6.6736974,45.2895539],[6.6736545,45.2894539],[6.6736142,45.2893633],[6.6735552,45.2892558],[6.6734828,45.289186],[6.673405,45.2891256],[6.6733245,45.2890765],[6.6732441,45.2890256],[6.6730778,45.2890048],[6.6729571,45.2889765],[6.6730107,45.2889274],[6.6731422,45.2888576],[6.6732119,45.288752],[6.6730858,45.2886029],[6.6729732,45.2885916],[6.672823,45.288567],[6.6726701,45.2884915],[6.6726379,45.2884312],[6.6726164,45.2883462],[6.6726567,45.2882481],[6.6726272,45.2881991],[6.6726406,45.2881179],[6.6726218,45.2880575],[6.6727559,45.2880122],[6.6728766,45.2880122],[6.6729303,45.2879726]]},"properties":{"CLC:code":"321","CLC:id":"FR-259729","CLC:year":"2006","natural":"grassland","source":"Union européenne - SOeS, CORINE Land Cover, 2006."}},
{"type":"Feature","geometry":{"type":"LineString","coordinates":[[6.6967749,45.4021409],[6.6967893,45.4016818],[6.6971916,45.4010075],[6.697315,45.4010678],[6.6972935,45.4006422],[6.6974491,45.4006234],[6.6976958,45.4008004],[6.6978621,45.4008192],[6.6979855,45.4009962],[6.6981626,45.4010038],[6.6978085,45.400597],[6.697551,45.4005819],[6.697433,45.4003785],[6.6975886,45.4002655],[6.6977012,45.4003672],[6.6978031,45.4002994],[6.6976154,45.3999755],[6.6976851,45.3998738],[6.6978782,45.4002241],[6.6980445,45.4001375],[6.6978139,45.3995988],[6.6980392,45.3993201],[6.6981196,45.399644],[6.6983503,45.3996101],[6.6985863,45.3991657],[6.6988009,45.3993163],[6.6989618,45.3987061],[6.6987687,45.3982842],[6.6988921,45.3980582],[6.6976529,45.3978624],[6.6968268,45.3980394],[6.6967463,45.3981562],[6.6976637,45.3979904],[6.6987044,45.3981675],[6.6983879,45.3984575],[6.697256,45.4001017],[6.696576,45.400209],[6.6965425,45.4002909],[6.6964768,45.4002231],[6.6961965,45.4003352],[6.696391,45.4003851],[6.6970575,45.4003409],[6.6969824,45.400574400000007],[6.6964245,45.4007703],[6.6965639,45.4008757],[6.6963279,45.4010414],[6.6967785,45.400936],[6.6965989,45.4013306],[6.696344,45.4015198],[6.6961241,45.4015198],[6.6960302,45.4016064],[6.695652,45.4016761],[6.6955715,45.401727],[6.6952336,45.4017533],[6.6946435,45.4015254],[6.6947803,45.4014878],[6.69507,45.4015951],[6.6955689,45.4014237],[6.6957405,45.4015254],[6.6962421,45.4014011],[6.696234,45.4013277],[6.6960302,45.4012279],[6.6958961,45.4013239],[6.6957378,45.4012053],[6.6952631,45.4013842],[6.6949815,45.4010603],[6.695652,45.4008418],[6.6956037,45.400661],[6.6953762,45.4006397],[6.696171,45.4003333],[6.6956179,45.4003452],[6.6947653,45.4001768],[6.6941714,45.400096],[6.6947853,45.3999108],[6.6966176,45.3981411],[6.6946255,45.3991584],[6.6944442,45.3988154],[6.6932773,45.3989834],[6.6930488,45.3983406],[6.6935521,45.3971622],[6.6930253,45.3972839],[6.6923159,45.3970713],[6.6929522,45.3964133],[6.6927391,45.3961033],[6.691972,45.3955622],[6.6914838,45.3948553],[6.6914168,45.394288],[6.6917253,45.3940635],[6.6910289,45.3937206],[6.6912225,45.3933166],[6.6917332,45.3930725],[6.6929217,45.3929821],[6.6940307,45.392673],[6.6950378,45.392289],[6.6951516,45.3923341],[6.6955946,45.3925082],[6.6961615,45.3926235],[6.6963201,45.3924562],[6.6952666,45.3909229],[6.6956844,45.3902804],[6.6948989,45.3900706],[6.6947132,45.3902756],[6.6943967,45.3902266],[6.6939944,45.3904225],[6.6940319,45.3907088],[6.6937584,45.3913605],[6.6933346,45.3914133],[6.6929591,45.3916468],[6.6923583,45.3916694],[6.6922617,45.3918992],[6.6928303,45.3920612],[6.6922617,45.3922081],[6.6919881,45.3921102],[6.6918808,45.3918314],[6.6917145,45.3919444],[6.6916448,45.3922232],[6.6914195,45.3919783],[6.6910708,45.3919595],[6.6909691,45.3918712],[6.6905075,45.3915225],[6.6901213,45.3911458],[6.6896927,45.3910904],[6.688276,45.39051],[6.686849,45.3898461],[6.6869241,45.3901023],[6.6872218,45.3903245],[6.6875571,45.3904601],[6.6876885,45.3906523],[6.6874444,45.3906617],[6.6869965,45.3904168],[6.6867229,45.3903358],[6.6867189,45.3902398],[6.686562,45.3900665],[6.6865405,45.3899742],[6.6866451,45.389944],[6.6865392,45.3897218],[6.6862562,45.3895183],[6.6859804,45.3891924],[6.685469,45.3887233],[6.6849033,45.3883793],[6.6846603,45.3883786],[6.6841207,45.388757],[6.6835719,45.3891419],[6.6835444,45.3900439],[6.6836785,45.3900916],[6.6844454,45.3905561],[6.6853778,45.3911223],[6.6853759,45.391637],[6.6849298,45.3919495],[6.6844269,45.3917135],[6.6843211,45.3918629],[6.6846388,45.3922537],[6.6854849,45.394436],[6.6854844,45.3946331],[6.6860376,45.3948176],[6.6865267,45.3949639],[6.687187,45.3946417],[6.6892362,45.3955721],[6.6899872,45.3970337],[6.6925621,45.3972898],[6.6925299,45.3984349],[6.6931736,45.3993766],[6.6935706,45.4002279],[6.6933346,45.4010264],[6.6938817,45.4013202],[6.6927445,45.4020509],[6.6927552,45.4025782],[6.6916823,45.402985],[6.6912639,45.4034671],[6.6903841,45.4041902],[6.6903841,45.4047778],[6.6894986,45.4051217],[6.6891173,45.4051206],[6.6887513,45.4055595],[6.6884474,45.4065028],[6.6884686,45.4075651],[6.6885378,45.4076514],[6.6885482,45.4077839],[6.6887298,45.4084863],[6.6887586,45.4085775],[6.6885521,45.4086261],[6.6884471,45.4088972],[6.6879827,45.409823],[6.6877152,45.4099889],[6.687378,45.410002],[6.6867708,45.4103118],[6.6852941,45.4105451],[6.684398,45.4111161],[6.6838065,45.4110153],[6.6826916,45.4108268],[6.6809023,45.4122514],[6.6805004,45.4119089],[6.6809907,45.4109956],[6.6805153,45.4105613],[6.679152,45.409968],[6.6789074,45.4102237],[6.6784697,45.4101028],[6.6779503,45.4102054],[6.679059,45.411511],[6.6787679,45.4119834],[6.6795698,45.4126441],[6.6796502,45.4130385],[6.6791773,45.4136141],[6.6782741,45.4138874],[6.6773487,45.4135611],[6.6766381,45.4138229],[6.6755874,45.4138152],[6.6754757,45.4134323],[6.6751364,45.4131937],[6.6740576,45.412691],[6.6736377,45.4129625],[6.6727034,45.4130976],[6.6723035,45.4131724],[6.6719237,45.4133093],[6.6713759,45.4135524],[6.6706354,45.4137141],[6.6705812,45.4138491],[6.6713788,45.4143947],[6.6712187,45.4149033],[6.6725219,45.4150756],[6.6742347,45.415384],[6.6746428,45.4158467],[6.6745515,45.415946],[6.6747973,45.4164703],[6.6747946,45.4170988],[6.6743054,45.4174985],[6.6742142,45.4183333],[6.673583,45.4195069],[6.6730193,45.4200367],[6.6715313,45.4209884],[6.6706455,45.421222],[6.6703698,45.4213345],[6.6705616,45.4221377],[6.6703855,45.4227471],[6.6702189,45.4235506],[6.6708695,45.4234344],[6.6712495,45.4232215],[6.6719845,45.4231439],[6.6724405,45.4230973],[6.6729467,45.4234152],[6.6737487,45.4235215],[6.673884,45.4244495],[6.6739291,45.4250627],[6.6753664,45.4258662],[6.6743165,45.4239389],[6.6747564,45.4238794],[6.6749407,45.4236613],[6.6757967,45.4235773],[6.6758199,45.4233562],[6.6763114,45.4228151],[6.6764741,45.4227581],[6.6767173,45.422623],[6.6770307,45.422388],[6.6772074,45.4220155],[6.6763179,45.4213699],[6.6763204,45.420872],[6.6767122,45.4207081],[6.676925,45.4208012],[6.6780213,45.4212799],[6.6793028,45.4217047],[6.6798878,45.4224926],[6.6808897,45.4232804],[6.6809273,45.4247451],[6.6823101,45.4246526],[6.6820783,45.4220803],[6.6818779,45.4212394],[6.6819716,45.4207053],[6.6823374,45.4204611],[6.6832221,45.4201403],[6.6838722,45.4203132],[6.6852482,45.4211155],[6.6858543,45.4209238],[6.686298,45.4209786],[6.6866343,45.4201749],[6.6872038,45.4194039],[6.6865156,45.4190827],[6.6858648,45.4186762],[6.6853979,45.4182616],[6.685314,45.4170308],[6.6856507,45.4164937],[6.6845387,45.4154376],[6.6842252,45.4149222],[6.6846272,45.4146008],[6.6845825,45.4140359],[6.6855786,45.4139161],[6.6857642,45.4143165],[6.6869586,45.4151788],[6.6876327,45.4148197],[6.6878912,45.4148434],[6.688484,45.4150348],[6.6895779,45.4155755],[6.6898177,45.415351],[6.6897863,45.4140988],[6.6895422,45.4131307],[6.688936,45.4130068],[6.6881285,45.4120923],[6.688292,45.4114068],[6.6889476,45.41038],[6.6906561,45.4091826],[6.6917111,45.4089555],[6.6919971,45.4085569],[6.6935167,45.4080369],[6.6943216,45.4065705],[6.6946757,45.4052749],[6.6964996,45.4045593],[6.6963494,45.4040622],[6.696623,45.4037571],[6.6961724,45.4033051],[6.6961294,45.4029774],[6.6968536,45.403614],[6.6968214,45.4033315],[6.6971272,45.403275],[6.69669,45.4023786],[6.6965076,45.4025518],[6.6963226,45.4025462],[6.6961133,45.4023465],[6.6961294,45.4020754],[6.6962609,45.4018249],[6.6964862,45.4017797],[6.6966256,45.4018569],[6.6967749,45.4021409]]},"properties":{"CLC:code":"321","CLC:id":"FR-259645","CLC:year":"2006","natural":"grassland","source":"Union européenne - SOeS, CORINE Land Cover, 2006."}},
{"type":"Feature","geometry":{"type":"LineString","coordinates":[[6.6671557,45.3884509],[6.6669747,45.3885785],[6.6663062,45.3886045],[6.6659404,45.388577],[6.6658149,45.3883927],[6.6657811,45.3882363],[6.6658019,45.388124],[6.6647901,45.3872038],[6.6639079,45.386693],[6.6633217,45.387004],[6.6625216,45.3871455],[6.6626974,45.3877592],[6.6627196,45.3878991],[6.6639639,45.3897698],[6.6641629,45.3903004],[6.6631439,45.3921802],[6.6631392,45.3931737],[6.6639337,45.3943288],[6.6636969,45.3951432],[6.6636944,45.3956737],[6.6638773,45.3957534],[6.6652609,45.3957447],[6.6662442,45.3954407],[6.6668567,45.3951275],[6.6670254,45.394863],[6.666704,45.3941773],[6.6667061,45.3937965],[6.6673814,45.3924684],[6.6676055,45.3925227],[6.6678882,45.3928575],[6.6687598,45.3923225],[6.6679534,45.390526],[6.667908,45.3904252],[6.6676963,45.3893241],[6.6671557,45.3884509]]},"properties":{"CLC:code":"321","CLC:id":"FR-164492","CLC:year":"2006","natural":"grassland","source":"Union européenne - SOeS, CORINE Land Cover, 2006."}},
{"type":"Feature","geometry":{"type":"LineString","coordinates":[[6.7160391,45.386402],[6.7161748,45.3862157],[6.7164821,45.3863257],[6.7166388,45.3861271],[6.7165154,45.3860725],[6.717414,45.3852003],[6.7165637,45.3843917],[6.7160917,45.3845424],[6.7159227,45.38484],[6.7157939,45.3849794],[6.7157081,45.3851603],[6.7156623,45.3853772],[6.7155096,45.3856991],[6.7153862,45.3860532],[6.715354,45.3863207],[6.7152628,45.386494],[6.7151663,45.3866033],[6.7151126,45.3867069],[6.7149088,45.3869405],[6.7148204,45.3871396],[6.7144636,45.3877128],[6.7146245,45.3880481],[6.714662,45.3884286],[6.7146459,45.3885341],[6.7143455,45.3885755],[6.7142168,45.3887451],[6.7140827,45.389216],[6.7141832,45.3895982],[6.7143335,45.389597],[6.7143737,45.3895122],[6.7148032,45.3895127],[6.7148417,45.3896742],[6.7153639,45.3895463],[6.7152521,45.389192],[6.7153887,45.3893059],[6.7159951,45.3890074],[6.7156598,45.3888812],[6.7153245,45.3889038],[6.7151877,45.3889452],[6.7149893,45.3888849],[6.7149624,45.3887908],[6.7150563,45.3887211],[6.7152655,45.3886721],[6.7154935,45.3887493],[6.7157403,45.3887493],[6.7158207,45.3886175],[6.7157456,45.388593],[6.7161614,45.3876944],[6.715928,45.3876473],[6.7161586,45.3871487],[6.7160246,45.3871199],[6.7161319,45.3868731],[6.7162675,45.386913],[6.7164323,45.3865566],[6.7160391,45.386402]]},"properties":{"CLC:code":"321","CLC:id":"FR-259681","CLC:year":"2006","natural":"grassland","source":"Union européenne - SOeS, CORINE Land Cover, 2006."}},
{"type":"Feature","geometry":{"type":"LineString","coordinates":[[6.7021016,45.3849082],[6.7021437,45.3838423],[6.7020506,45.3833301],[6.7013997,45.3834895],[6.701054,45.3836786],[6.7002815,45.3835091],[6.6994554,45.3831775],[6.699509,45.3828045],[6.6999972,45.3830231],[6.7002279,45.3827744],[6.7007327,45.3829489],[6.701238,45.3813764],[6.7001121,45.3789743],[6.7005185,45.3787478],[6.7012466,45.3788623],[6.703432,45.3801788],[6.7045665,45.3805815],[6.7064339,45.3802977],[6.7067604,45.3793839],[6.706605,45.3782559],[6.7085009,45.3771814],[6.7071793,45.3761284],[6.70694,45.3752131],[6.7061674,45.3746668],[6.7049865,45.3747075],[6.7045095,45.3742318],[6.7044354,45.3736975],[6.7032413,45.37359],[6.7028105,45.3734368],[6.7021597,45.3740074],[6.7006971,45.3746909],[6.7000446,45.3754338],[6.6992332,45.3756604],[6.6988589,45.3755546],[6.6975551,45.3755167],[6.6967893,45.3756038],[6.6964352,45.3759957],[6.6963494,45.3764554],[6.6955018,45.3764554],[6.6946971,45.3763349],[6.6940871,45.3764542],[6.6934754,45.3768888],[6.6931602,45.376982],[6.6931549,45.3770932],[6.6932973,45.3770933],[6.6934285,45.3771601],[6.6934338,45.3772477],[6.6935679,45.3773089],[6.6936806,45.3772223],[6.6937476,45.3772618],[6.6938147,45.3772486],[6.6939434,45.3770433],[6.6940749,45.3769623],[6.6940293,45.376885],[6.6941231,45.3768699],[6.6942117,45.3769623],[6.6941473,45.3771073],[6.69415,45.3772637],[6.6943699,45.3771846],[6.6946167,45.3771412],[6.6948393,45.3772015],[6.695483,45.3770753],[6.6957164,45.3772298],[6.6957995,45.3771149],[6.6958612,45.3772807],[6.6959497,45.3773843],[6.6959229,45.377486],[6.6957781,45.3774465],[6.695711,45.3772863],[6.6956037,45.3776575],[6.6953731,45.3776424],[6.6949627,45.3774672],[6.6947374,45.3774333],[6.6944343,45.377682],[6.6949815,45.3776066],[6.69507,45.377746],[6.695365,45.3777102],[6.6954106,45.3778007],[6.6946945,45.3779439],[6.6945899,45.3780343],[6.6946489,45.3782039],[6.6949788,45.3783395],[6.6951263,45.3782811],[6.6953677,45.378283],[6.6953355,45.3781549],[6.6954428,45.378234],[6.6954267,45.3783753],[6.6955581,45.3784375],[6.6954803,45.3784752],[6.6950029,45.3784036],[6.6949385,45.3784827],[6.6952068,45.3787088],[6.6955098,45.3789028],[6.6955072,45.3790385],[6.6954267,45.3790686],[6.6956949,45.3792099],[6.6958478,45.3791365],[6.6959551,45.3792589],[6.6962957,45.3792344],[6.6965532,45.3794266],[6.6967866,45.3797638],[6.6969448,45.3796583],[6.6968214,45.3795378],[6.6969234,45.3794492],[6.6972399,45.3795717],[6.6971165,45.3797789],[6.6972157,45.3799372],[6.6971916,45.3800238],[6.6975135,45.3804383],[6.6999725,45.3810453],[6.7005873,45.3813313],[6.7004478,45.3823712],[6.7001688,45.3826576],[6.6987795,45.3821866],[6.6975993,45.3820811],[6.6975349,45.3817005],[6.6967088,45.3815498],[6.695286,45.3814506],[6.6944933,45.3816252],[6.6936994,45.381595],[6.6925943,45.3819228],[6.6929725,45.3820811],[6.6929778,45.3822243],[6.6932729,45.382358],[6.6932917,45.382473],[6.6937584,45.3827066],[6.6935009,45.3828874],[6.6939515,45.3829929],[6.6935652,45.3839235],[6.6930771,45.3841647],[6.6927928,45.3847035],[6.694359,45.3850261],[6.6947865,45.3852197],[6.6963789,45.3855845],[6.6970386,45.3856261],[6.6987909,45.3855144],[6.6994607,45.3857212],[6.6998388,45.3856151],[6.7016364,45.3856662],[6.7013651,45.3855625],[6.7016655,45.3854231],[6.7008984,45.3852159],[6.7010325,45.3850312],[6.7013168,45.3850576],[6.7012364,45.3851744],[6.7013597,45.3852159],[6.7015797,45.3850576],[6.7016816,45.3851819],[6.7021016,45.3849082]]},"properties":{"CLC:code":"321","CLC:id":"FR-259685","CLC:year":"2006","natural":"grassland","source":"Union européenne - SOeS, CORINE Land Cover, 2006."}},
{"type":"Feature","geometry":{"type":"LineString","coordinates":[[6.7243788,45.3792428],[6.72455,45.3793784],[6.7251762,45.3795818],[6.7251939,45.3796851],[6.7253233,45.3799251],[6.7252022,45.3801111],[6.7242703,45.380364],[6.72308,45.3803737],[6.7228016,45.3809373],[6.7230879,45.3812573],[6.7233857,45.3816241],[6.7235027,45.3818311],[6.7237599,45.3817063],[6.7242486,45.382036],[6.7247483,45.3821658],[6.7248496,45.3823721],[6.7251617,45.3824567],[6.72546,45.3824447],[6.7258104,45.3822336],[6.7259037,45.382015],[6.7261308,45.3817376],[6.7268644,45.3814569],[6.7270232,45.3813684],[6.7270666,45.381204],[6.7274827,45.3811711],[6.7277348,45.3810845],[6.727851,45.380829],[6.7277067,45.3807428],[6.7273882,45.3807168],[6.7272487,45.3807338],[6.7270073,45.3806961],[6.726714,45.380572],[6.7262878,45.3804583],[6.7262745,45.3804825],[6.7260542,45.3804377],[6.7259343,45.3803936],[6.7260257,45.3801484],[6.7264299,45.3799745],[6.7265714,45.3800384],[6.7267878,45.3800187],[6.7269329,45.3799786],[6.727075,45.3798524],[6.7268729,45.3796357],[6.7266164,45.3793625],[6.7266727,45.3793361],[6.7264983,45.3791515],[6.7263106,45.379225],[6.7261416,45.3789311],[6.7258358,45.3787747],[6.7255167,45.3789217],[6.7256132,45.3790121],[6.7252645,45.3791873],[6.7250634,45.3790328],[6.7243788,45.3792428]]},"properties":{"CLC:code":"321","CLC:id":"FR-259688","CLC:year":"2006","natural":"grassland","source":"Union européenne - SOeS, CORINE Land Cover, 2006."}},
{"type":"Feature","geometry":{"type":"LineString","coordinates":[[6.670566,45.3843947],[6.670573,45.3841275],[6.6696308,45.3818002],[6.6681159,45.3798522],[6.6679611,45.3797118],[6.6678671,45.3795319],[6.6677729,45.3794105],[6.6664718,45.378773],[6.6663829,45.3786785],[6.66424,45.3783214],[6.6636657,45.3785903],[6.6613829,45.3780888],[6.6612632,45.3781723],[6.6612605,45.378731],[6.6617459,45.3791446],[6.662314,45.3791451],[6.6627182,45.3793175],[6.6635718,45.3791976],[6.6640971,45.379488],[6.664095,45.3798902],[6.6635239,45.3804045],[6.6632802,45.3804038],[6.6623042,45.3811445],[6.6619755,45.3820008],[6.6622995,45.3822303],[6.6626246,45.3821163],[6.6630002,45.3823822],[6.6629568,45.3825528],[6.6645063,45.3820737],[6.6662973,45.3816494],[6.6678099,45.3816795],[6.6681439,45.3827308],[6.6680917,45.3829209],[6.6676326,45.383039],[6.6661894,45.3836199],[6.6657922,45.3837311],[6.6654618,45.3846967],[6.6660346,45.3851035],[6.6668441,45.385072],[6.6671505,45.3848011],[6.667905,45.3847932],[6.6693817,45.38464],[6.6693989,45.3845223],[6.670566,45.3843947]]},"properties":{"CLC:code":"332","CLC:id":"FR-164910","CLC:year":"2006","natural":"bare_rock","source":"Union européenne - SOeS, CORINE Land Cover, 2006."}},
{"type":"Feature","geometry":{"type":"LineString","coordinates":[[6.7178129,45.3747582],[6.7176648,45.3747818],[6.7176832,45.3753692],[6.7175682,45.3757312],[6.7176862,45.3758066],[6.7175065,45.3758989],[6.7173268,45.3758669],[6.7169003,45.3758499],[6.7166024,45.3758762],[6.7167329,45.3759665],[6.7160742,45.3767637],[6.7160213,45.376879],[6.7160688,45.3777623],[6.7162083,45.3783482],[6.7160876,45.3783709],[6.7157586,45.3790674],[6.7157551,45.3793334],[6.7154384,45.3805547],[6.718437,45.3804879],[6.7189977,45.380433],[6.7198395,45.380415],[6.7200519,45.380513],[6.7203469,45.3804037],[6.7209483,45.3799536],[6.7209987,45.3797669],[6.7210738,45.3789323],[6.7211704,45.3787816],[6.7213367,45.3786704],[6.7216559,45.3785909],[6.7217819,45.3785253],[6.7218946,45.3783407],[6.7218436,45.3782804],[6.7216626,45.3781944],[6.721503,45.3781014],[6.7212803,45.37793],[6.7194764,45.3762865],[6.7178129,45.3747582]]},"properties":{"CLC:code":"321","CLC:id":"FR-259689","CLC:year":"2006","natural":"grassland","source":"Union européenne - SOeS, CORINE Land Cover, 2006."}},