{"type":"FeatureCollection","features":[
{"type":"Feature","geometry":{"type":"Point","coordinates":[0.8855581,44.8808723]},"properties":{"email":"contact@leportdelimeuil.com","name":"Le Port de Limeuil ****","opening_hours":"Apr 30 - Sep 23","phone":"+33 553 632 976","stars":"4","tourism":"camp_site","website":"https://www.leportdelimeuil.com/"}},
{"type":"Feature","geometry":{"type":"Point","coordinates":[0.9252541,44.9188698]},"properties":{"leisure":"playground"}},
{"type":"Feature","geometry":{"type":"Point","coordinates":[0.9346532,44.8906371]},"properties":{"addr:city":"Le Bugue","addr:postcode":"24260","addr:street":"BP 7","cave:difficulty":"tourist","cave:features":"stalactites","name":"Gouffre de Proumeyssac","phone":"+33 5 53 07 85 85","tourism":"attraction","website":"https://www.gouffre-proumeyssac.com/","wheelchair":"limited"}},
{"type":"Feature","geometry":{"type":"Point","coordinates":[0.9250881,44.8920244]},"properties":{"natural":"spring"}},
{"type":"Feature","geometry":{"type":"Point","coordinates":[0.9868102,44.8210231]},"properties":{"information":"office","tourism":"information"}},
{"type":"Feature","geometry":{"type":"Point","coordinates":[0.9871857,44.8203116]},"properties":{"historic":"memorial","memorial":"war_memorial"}},
{"type":"Feature","geometry":{"type":"Point","coordinates":[0.9173798,44.8365933]},"properties":{"contact:email":"contact@maxange.com","contact:phone":"+33553234280","contact:website":"http://lesgrottesdemaxange.com","name":"Grottes de Maxange","tourism":"attraction","wheelchair":"no","wikidata":"Q1927129","wikipedia":"fr:Grottes de Maxange"}},
{"type":"Feature","geometry":{"type":"Point","coordinates":[0.9361703,44.9164451]},"properties":{"name":"Fontaine de la Brandière","natural":"spring"}},
{"type":"Feature","geometry":{"type":"Point","coordinates":[0.9143362,44.9129636]},"properties":{"noexit":"yes"}},
{"type":"Feature","geometry":{"type":"Point","coordinates":[0.8800175,44.919414]},"properties":{"name":"Fontaine du Reclaud","natural":"spring"}},
{"type":"Feature","geometry":{"type":"Point","coordinates":[0.9242231,44.9188336]},"properties":{"name":"Le Cygne","tourism":"hotel"}},
{"type":"Feature","geometry":{"type":"Point","coordinates":[0.9263797,44.9182145]},"properties":{"name":"Royal Vézère","status":"closed","tourism":"hotel","wheelchair":"yes"}},
{"type":"Feature","geometry":{"type":"Point","coordinates":[0.9269068,44.919329]},"properties":{"name":"Hôtel de Paris","tourism":"hotel"}},
{"type":"Feature","geometry":{"type":"Point","coordinates":[0.9048359,44.9203213]},"properties":{"natural":"spring","source":"cadastre-dgi-fr source : Direction Générale des Impôts - Cadastre ; mise à jour : 2010"}},
{"type":"Feature","geometry":{"type":"Point","coordinates":[0.8883404,44.9213108]},"properties":{"name":"Fontaine de la Truffe","natural":"spring","source":"cadastre-dgi-fr source : Direction Générale des Impôts - Cadastre ; mise à jour : 2010"}},
{"type":"Feature","geometry":{"type":"Point","coordinates":[0.9742628,44.9064879]},"properties":{"caravans":"yes","email":"contact@levaldelamarquise.com","name":"Le Val de la Marquise","opening_hours":"Apr 13 - Sep 29","phone":"+33 5 53 54 74 10","stars":"4","tents":"yes","tourism":"camp_site","website":"https://www.camping-dordogne-marquise.com/"}},
{"type":"Feature","geometry":{"type":"Point","coordinates":[0.9700389,44.9095184]},"properties":{"natural":"cave_entrance"}},
{"type":"Feature","geometry":{"type":"Point","coordinates":[0.9987174,44.7782794]},"properties":{"historic":"memorial","memorial":"war_memorial","source":"Bing ; cadastre-dgi-fr source : Direction Générale des Impôts - Cadastre. Mise à jour : 2012"}},
{"type":"Feature","geometry":{"type":"Point","coordinates":[1.0056701,44.7766664]},"properties":{"historic":"wayside_cross","name":"Calvaire","source":"Bing ; cadastre-dgi-fr source : Direction Générale des Impôts - Cadastre. Mise à jour : 2012"}},
{"type":"Feature","geometry":{"type":"Point","coordinates":[1.0054695,44.7766371]},"properties":{"historic":"memorial","memorial":"war_memorial","ref:FR:MemorialGenWeb":"12832","source":"cadastre-dgi-fr source : Direction Générale des Impôts - Cadastre. Mise à jour : 2012"}},
{"type":"Feature","geometry":{"type":"Point","coordinates":[1.0025348,44.7759526]},"properties":{"historic":"wayside_cross","name":"Calvaire","source":"Bing ; cadastre-dgi-fr source : Direction Générale des Impôts - Cadastre. Mise à jour : 2012"}},
{"type":"Feature","geometry":{"type":"Point","coordinates":[1.0077372,44.7722283]},"properties":{"historic":"memorial","memorial":"war_memorial","name":"Stèle de la Résistance du 24 juin 1944","ref:FR:MemorialGenWeb":"155359","source":"cadastre-dgi-fr source : Direction Générale des Impôts - Cadastre. Mise à jour : 2012"}},
{"type":"Feature","geometry":{"type":"Point","coordinates":[0.9996953,44.8223513]},"properties":{"historic":"castle","name":"Le Trouillol","source":"Bing ; cadastre-dgi-fr source : Direction Générale des Impôts - Cadastre. Mise à jour : 2012"}},
{"type":"Feature","geometry":{"type":"Point","coordinates":[0.9514208,44.822736]},"properties":{"historic":"ruins","name":"Tour de Castelréal","source":"Bing ; cadastre-dgi-fr source : Direction Générale des Impôts - Cadastre. Mise à jour : 2012"}},
{"type":"Feature","geometry":{"type":"Point","coordinates":[0.8737315,44.811472]},"properties":{"denomination":"roman_catholic","heritage":"1","heritage:operator":"whc;mhs","historic":"yes","name":"Cloître de Cadouin","religion":"christian","source":"Bing;cadastre-dgi-fr source : Direction Générale des Impôts - Cadastre. Mise à jour : 2012"}},
{"type":"Feature","geometry":{"type":"Point","coordinates":[0.873601,44.8118248]},"properties":{"amenity":"fountain","drinking_water":"no","historic":"wayside_cross","source":"Bing ; cadastre-dgi-fr source : Direction Générale des Impôts - Cadastre. Mise à jour : 2012","survey:date":"2022-09-09"}},
{"type":"Feature","geometry":{"type":"Point","coordinates":[0.8996835,44.8765617]},"properties":{"historic":"castle","name":"Château du Marais","source":"Bing ; cadastre-dgi-fr source : Direction Générale des Impôts - Cadastre. Mise à jour : 2012","wikidata":"Q3286401"}},
{"type":"Feature","geometry":{"type":"Point","coordinates":[0.8252163,44.810725]},"properties":{"leisure":"playground","name":"terrain de sport ouvert"}},
{"type":"Feature","geometry":{"type":"Point","coordinates":[0.8241087,44.8102749]},"properties":{"name":"Terres et toiles","tourism":"artwork"}},
{"type":"Feature","geometry":{"type":"Point","coordinates":[0.8122553,44.8561082]},"properties":{"historic":"memorial","memorial":"war_memorial","source":"Bing ; cadastre-dgi-fr source : Direction Générale des Impôts - Cadastre. Mise à jour : 2012"}},
{"type":"Feature","geometry":{"type":"Point","coordinates":[0.8849544,44.6952788]},"properties":{"historic":"wayside_cross","source":"Bing ; cadastre-dgi-fr source : Direction Générale des Impôts - Cadastre. Mise à jour : 2013"}},
{"type":"Feature","geometry":{"type":"Point","coordinates":[1.0173926,44.8250106]},"properties":{"historic":"castle","name":"Château de Mirabel","source":"Bing ; cadastre-dgi-fr source : Direction Générale des Impôts - Cadastre. Mise à jour : 2013"}},
{"type":"Feature","geometry":{"type":"Point","coordinates":[0.916862,44.836755]},"properties":{"access":"customers","cave:equipment":"none","cave:features":"stalactites","cave:fee":"yes","contact:email":"contact@maxange.com","contact:phone":"+33553234280","contact:website":"http://lesgrottesdemaxange.com","fee":"yes","name":"Grottes de Maxange","natural":"cave_entrance","wikidata":"Q1927129","wikipedia":"fr:Grottes de Maxange"}},
{"type":"Feature","geometry":{"type":"Point","coordinates":[0.9315853,44.9132973]},"properties":{"leisure":"playground","playground":"rotator","source":"survey; bing"}},
{"type":"Feature","geometry":{"type":"Point","coordinates":[0.9315692,44.913396]},"properties":{"leisure":"playground","playground":"rotator","source":"survey; bing"}},
{"type":"Feature","geometry":{"type":"Point","coordinates":[0.9305282,44.9148878]},"properties":{"source":"survey","tourism":"picnic_site"}},
{"type":"Feature","geometry":{"type":"Point","coordinates":[1.0177364,44.7856191]},"properties":{"historic":"castle","name":"Château Puy-Chanat"}},
{"type":"Feature","geometry":{"type":"Point","coordinates":[0.7995195,44.8624097]},"properties":{"seamark:type":"gate","waterway":"lock_gate"}},
{"type":"Feature","geometry":{"type":"Point","coordinates":[0.799549,44.8627145]},"properties":{"seamark:type":"gate","waterway":"lock_gate"}},
{"type":"Feature","geometry":{"type":"Point","coordinates":[1.0082446,44.7761473]},"properties":{"information":"office","name":"Office de Tourisme du Pays de Belvès","opening_hours":"Mo-Su 10:00-12:30,13:30-18:30","ref:FR:SIRET":"40472622600032","tourism":"information","website":"https://www.belves-en-perigord.com","wheelchair":"yes"}},
{"type":"Feature","geometry":{"type":"Point","coordinates":[1.0073743,44.7771129]},"properties":{"information":"map","tourism":"information"}},
{"type":"Feature","geometry":{"type":"Point","coordinates":[1.0092197,44.7755386]},"properties":{"tourism":"viewpoint"}},
{"type":"Feature","geometry":{"type":"Point","coordinates":[0.8247812,44.8788294]},"properties":{"name":"Camping du Bassin Nautique","tourism":"camp_site"}},
{"type":"Feature","geometry":{"type":"Point","coordinates":[0.818187,44.7745151]},"properties":{"historic":"wayside_cross"}},
{"type":"Feature","geometry":{"type":"Point","coordinates":[0.9388753,44.8921917]},"properties":{"tourism":"viewpoint"}},
{"type":"Feature","geometry":{"type":"Point","coordinates":[0.9487003,44.812307]},"properties":{"historic":"memorial","name":"Monuments Aux Morts 1914-1918"}},
{"type":"Feature","geometry":{"type":"Point","coordinates":[0.9489382,44.812419]},"properties":{"historic":"wayside_cross"}},
{"type":"Feature","geometry":{"type":"Point","coordinates":[0.9729054,44.7957998]},"properties":{"historic":"archaeological_site","name":"Dolmen de Bonarme"}},
{"type":"Feature","geometry":{"type":"Point","coordinates":[0.9258535,44.8631541]},"properties":{"natural":"cave_entrance","source":"survey"}},
{"type":"Feature","geometry":{"type":"Point","coordinates":[0.871557,44.8811066]},"properties":{"historic":"ruins","man_made":"water_well","name":"Puit en ruine"}},
{"type":"Feature","geometry":{"type":"Point","coordinates":[0.889487,44.8837541]},"properties":{"tourism":"viewpoint"}},
{"type":"Feature","geometry":{"type":"Point","coordinates":[0.8900331,44.8852149]},"properties":{"covered":"no","leisure":"picnic_table"}},
{"type":"Feature","geometry":{"type":"Point","coordinates":[0.8651437,44.7494636]},"properties":{"historic":"castle","name":"Château médiéval"}},
{"type":"Feature","geometry":{"type":"Point","coordinates":[0.8137464,44.8875519]},"properties":{"name":"Cingle de Trémolat","tourism":"viewpoint"}},
{"type":"Feature","geometry":{"type":"Point","coordinates":[0.859837,44.8737373]},"properties":{"name":"Camping La Pénétie","phone":"+33 630424624","tourism":"camp_site","website":"https://www.campingdirect.com/fr/reservation-emplacement-mobil-home/dordogne/camping-pauant/camping-ferme-de-la-penetie"}},
{"type":"Feature","geometry":{"type":"Point","coordinates":[1.0154141,44.9130682]},"properties":{"name":"La Combe","phone":"+33 5 53 06 91 52","tourism":"camp_site","website":"https://www.lacombe.be"}},
{"type":"Feature","geometry":{"type":"Point","coordinates":[0.9351477,44.8908579]},"properties":{"access":"customers","leisure":"playground"}},
{"type":"Feature","geometry":{"type":"Point","coordinates":[0.8880606,44.8829555]},"properties":{"information":"office","name":"Office de Tourisme","tourism":"information","wheelchair":"no"}},
{"type":"Feature","geometry":{"type":"Point","coordinates":[0.8901352,44.8855156]},"properties":{"check_date":"2023-08-02","information":"map","tourism":"information"}},
{"type":"Feature","geometry":{"type":"Point","coordinates":[0.8737786,44.8113343]},"properties":{"fax":"+33553732879","name":"Auberge De Jeunesse","phone":"+33 553732878","tourism":"hostel"}},
{"type":"Feature","geometry":{"type":"Point","coordinates":[0.982257,44.9113654]},"properties":{"tourism":"picnic_site"}},
{"type":"Feature","geometry":{"type":"Point","coordinates":[0.9820828,44.9114134]},"properties":{"historic":"archaeological_site","historic:era":"neolithic","name":"Polissoir","wikipedia":"fr:Polissoir (archéologie)"}},
{"type":"Feature","geometry":{"type":"Point","coordinates":[0.9745061,44.91191]},"properties":{"direction":"W","name":"Belvédère","tourism":"viewpoint"}},
{"type":"Feature","geometry":{"type":"Point","coordinates":[0.9765185,44.9101387]},"properties":{"board_type":"history","information":"board","name":"L'Éperon Barré","tourism":"information"}},
{"type":"Feature","geometry":{"type":"Point","coordinates":[0.9457333,44.9063459]},"properties":{"addr:city":"Le Bugue","addr:housenumber":"10","addr:postcode":"24260","addr:street":"Route de Campagne","amenity":"restaurant","contact:email":"contact@vezerelodge.com","contact:phone":"+33 5 53 05 56 57","contact:website":"http://www.vezerelodge.com","name":"Vézère Lodge","tourism":"hotel"}},
{"type":"Feature","geometry":{"type":"Point","coordinates":[0.9342052,44.890036]},"properties":{"name":"Gouffre de Proumeyssac (entrée naturelle)","natural":"cave_entrance"}},
{"type":"Feature","geometry":{"type":"Point","coordinates":[0.9347111,44.8907447]},"properties":{"name":"Gouffre de Proumeyssac (entrée artificielle)","natural":"cave_entrance","wheelchair":"yes"}},
{"type":"Feature","geometry":{"type":"Point","coordinates":[0.9638095,44.8604053]},"properties":{"contact:city":"Coux et Bigaroque-Mouzens","contact:phone":"+33 9 71 36 55 84","contact:postcode":"24220","contact:street":"Coux-Et-Bigaroque","name":"Inspire Villages Séveilles","tourism":"camp_site","website":"https://www.inspire-villages.com/destinations/seveilles"}},
{"type":"Feature","geometry":{"type":"Point","coordinates":[0.9015093,44.9028658]},"properties":{"natural":"spring"}},
{"type":"Feature","geometry":{"type":"Point","coordinates":[0.8010061,44.8359312]},"properties":{"historic":"wayside_cross"}},
{"type":"Feature","geometry":{"type":"Point","coordinates":[0.823637,44.8805192]},"properties":{"leisure":"pitch","name":"Stade de ski nautique","source":"data.gouv.fr:Le ministère des droits des femmes, de la ville, de la jeunesse et des sports - 2014","sport":"water_ski"}},
{"type":"Feature","geometry":{"type":"Point","coordinates":[0.8756103,44.892724]},"properties":{"name":"La Rolandie Haute","tourism":"guest_house"}},
{"type":"Feature","geometry":{"type":"Point","coordinates":[0.8494633,44.8014479]},"properties":{"name":"Perte de la Couronnade","natural":"cave_entrance","source":"data.gouv.fr:Le ministère des droits des femmes, de la ville, de la jeunesse et des sports - 11/2015"}},
{"type":"Feature","geometry":{"type":"Point","coordinates":[0.8231703,44.8135894]},"properties":{"historic":"yes","name":"Ancien pigeonnier"}},
{"type":"Feature","geometry":{"type":"Point","coordinates":[1.0095801,44.7756713]},"properties":{"historic":"castle","name":"Château de Belvès"}},
{"type":"Feature","geometry":{"type":"Point","coordinates":[0.7990536,44.8648125]},"properties":{"leisure":"sports_centre","name":"Club Nautique","source":"data.gouv.fr:Le ministère des droits des femmes, de la ville, de la jeunesse et des sports - 11/2015","sport":"swimming","surface":"concrete"}},
{"type":"Feature","geometry":{"type":"Point","coordinates":[1.008337,44.7756104]},"properties":{"name":"Belle façade","tourism":"attraction","wheelchair":"yes"}},
{"type":"Feature","geometry":{"type":"Point","coordinates":[0.981276,44.8628684]},"properties":{"contact:housenumber":"3655","contact:street":"Route de Saint-Georges","email":"info@camping-le-clou.com","name":"Le Clou","phone":"+33 5 24 15 19 75","tourism":"camp_site","website":"https://www.camping-le-clou.com/fr/"}},
{"type":"Feature","geometry":{"type":"Point","coordinates":[0.9262985,44.837871]},"properties":{"natural":"tree"}},
{"type":"Feature","geometry":{"type":"Point","coordinates":[0.9262282,44.8377763]},"properties":{"natural":"tree"}},
{"type":"Feature","geometry":{"type":"Point","coordinates":[0.8359305,44.7574186]},"properties":{"addr:city":"Saint-Avit-Sénieur","addr:housenumber":"1","addr:postcode":"24440","email":"lacotedecor@orange.fr","internet_access":"wlan","name":"La Côte De Cor","name:en":"La Côte De Cor","name:fr":"La Côte De Cor","opening_hours":"24/7","phone":"+33 6 70 99 30 66","tourism":"guest_house","website":"https://www.lacotedecor.com/"}},
{"type":"Feature","geometry":{"type":"Point","coordinates":[0.9449397,44.8196763]},"properties":{"natural":"tree"}},
{"type":"Feature","geometry":{"type":"Point","coordinates":[0.9447022,44.8196686]},"properties":{"natural":"tree"}},
{"type":"Feature","geometry":{"type":"Point","coordinates":[0.9449303,44.8195156]},"properties":{"natural":"tree"}},
{"type":"Feature","geometry":{"type":"Point","coordinates":[0.9446928,44.8195322]},"properties":{"natural":"tree"}},
{"type":"Feature","geometry":{"type":"Point","coordinates":[0.9574066,44.8057923]},"properties":{"name":"Les Grèzes","tourism":"apartment"}},
{"type":"Feature","geometry":{"type":"Point","coordinates":[0.888467,44.6954779]},"properties":{"heritage":"3","heritage:operator":"mhs","historic":"castle","mhs:inscription_date":"1976-11-29","name":"Château de Marsalès","ref:mhs":"PA00082636","source:heritage":"data.gouv.fr:Ministère de la Culture - 04/2015","wikidata":"Q22919860"}},
{"type":"Feature","geometry":{"type":"Point","coordinates":[1.0290082,44.9210407]},"properties":{"natural":"tree"}},
{"type":"Feature","geometry":{"type":"Point","coordinates":[1.0107644,44.7527748]},"properties":{"castle_type":"manor","heritage":"3","heritage:operator":"mhs","historic":"castle","mhs:inscription_date":"1981-02-23","name":"Manoir de Pech Godou","ref:mhs":"PA00082367","source:heritage":"data.gouv.fr:Ministère de la Culture - 04/2015","start_date":"C12","wikidata":"Q3286259","wikipedia":"fr:Manoir de Pech Godou"}},
{"type":"Feature","geometry":{"type":"Point","coordinates":[1.0094251,44.7762078]},"properties":{"heritage":"3","heritage:operator":"mhs","historic":"yes","man_made":"tower","mhs:inscription_date":"1948-12-06","name":"Tour de l'Hôpital","ref:mhs":"PA00082369","source:heritage":"data.gouv.fr:Ministère de la Culture - 04/2015","start_date":"C12","tower:type":"defensive","wikidata":"Q22987384","wikipedia":"fr:Tour de l'Hôpital"}},
{"type":"Feature","geometry":{"type":"Point","coordinates":[1.0056872,44.7767459]},"properties":{"heritage":"2","heritage:operator":"mhs","historic":"yes","man_made":"tower","mhs:inscription_date":"1910-11-19","name":"Tour de la Mairie","ref:mhs":"PA00082370","source:heritage":"data.gouv.fr:Ministère de la Culture - 04/2015","start_date":"C14","tower:type":"bell_tower","wikidata":"Q22987390"}},
{"type":"Feature","geometry":{"type":"Point","coordinates":[1.0093557,44.7757457]},"properties":{"heritage":"3","heritage:operator":"mhs","historic":"yes","man_made":"tower","mhs:inscription_date":"1948-12-06","name":"Tour dite de l'Auditoire","ref:mhs":"PA00082368","source:heritage":"data.gouv.fr:Ministère de la Culture - 04/2015","start_date":"C12","tower:type":"defensive","wikidata":"Q22987348"}},
{"type":"Feature","geometry":{"type":"Point","coordinates":[1.0081841,44.7761571]},"properties":{"heritage":"3","heritage:operator":"mhs","historic":"yes","man_made":"tower","mhs:inscription_date":"1948-12-06","name":"Beffroi","ref:mhs":"PA00082362","source:heritage":"data.gouv.fr:Ministère de la Culture - 04/2015","start_date":"C13","tower:type":"bell_tower","wikidata":"Q22987241"}},
{"type":"Feature","geometry":{"type":"Point","coordinates":[0.986522,44.8217124]},"properties":{"heritage":"3","heritage:operator":"mhs","historic":"ruins","mhs:inscription_date":"2013-05-23","name":"Château de Siorac","ref:mhs":"PA24000086","source:heritage":"data.gouv.fr:Ministère de la Culture - 04/2015","wikidata":"Q22996230"}},
{"type":"Feature","geometry":{"type":"Point","coordinates":[0.9844842,44.9208134]},"properties":{"historic":"wayside_cross"}},
{"type":"Feature","geometry":{"type":"Point","coordinates":[0.7974918,44.8639279]},"properties":{"addr:city":"Mauzac-et-Grand-Castang","addr:country":"FR","addr:place":"Le Bourg","addr:postcode":"24150","email":"mairie.de.mauzac.et.grand-castang@wanadoo.fr","name":"Camping de Mauzac","operator":"Municipalité","payment:coins":"yes","payment:notes":"yes","phone":"+33 5 53 22 50 57","tourism":"camp_site","website":"https://www.pays-bergerac-tourisme.com/fr/diffusio/fr/campings_mauzac-et-grand-castang/camping-municipal-de-mauzac_TFOHPAAQU024FS00059"}},
{"type":"Feature","geometry":{"type":"Point","coordinates":[1.016583,44.851583]},"properties":{"heritage":"3","heritage:operator":"mhs","historic":"castle","mhs:inscription_date":"2005-03-01","name":"Château de Monsec","ref:mhs":"PA00082707","source:heritage":"data.gouv.fr, Ministère de la Culture - 2016","start_date":"C14","wikidata":"Q2969927","wikipedia":"fr:Château de Monsec"}},
{"type":"Feature","geometry":{"type":"Point","coordinates":[0.9494789,44.8012728]},"properties":{"heritage":"3","heritage:operator":"mhs","historic":"castle","mhs:inscription_date":"2005-09-12","name":"Domaine du château de la Bourlie","ref:mhs":"PA00082416","source:heritage":"data.gouv.fr, Ministère de la Culture - 2016","start_date":"C15","wikidata":"Q2971164","wikipedia":"fr:Château de la Bourlie"}},
{"type":"Feature","geometry":{"type":"Point","coordinates":[0.8433251,44.7111382]},"properties":{"historic":"wayside_cross"}},
{"type":"Feature","geometry":{"type":"Point","coordinates":[0.9109387,44.8439309]},"properties":{"historic":"memorial"}},
{"type":"Feature","geometry":{"type":"Point","coordinates":[0.8656083999999999,44.7492833]},"properties":{"historic":"wayside_shrine"}},
{"type":"Feature","geometry":{"type":"Point","coordinates":[0.8663283,44.7506438]},"properties":{"historic":"wayside_cross"}},
{"type":"Feature","geometry":{"type":"Point","coordinates":[1.0279136,44.8741815]},"properties":{"historic":"castle","name":"La Manaurie"}},
{"type":"Feature","geometry":{"type":"Point","coordinates":[0.8141792,44.8874249]},"properties":{"information":"board","tourism":"information"}},
{"type":"Feature","geometry":{"type":"Point","coordinates":[0.8902198,44.8865602]},"properties":{"tourism":"attraction"}},
{"type":"Feature","geometry":{"type":"Point","coordinates":[0.8895694,44.886316]},"properties":{"tourism":"attraction"}},
{"type":"Feature","geometry":{"type":"Point","coordinates":[0.8900549,44.8862799]},"properties":{"historic":"memorial","memorial":"war_memorial"}},
{"type":"Feature","geometry":{"type":"Point","coordinates":[0.8904156,44.8860956]},"properties":{"denomination":"catholic","historic":"wayside_cross","religion":"christian"}},
{"type":"Feature","geometry":{"type":"Point","coordinates":[0.8888841,44.8854941]},"properties":{"denomination":"catholic","historic":"wayside_cross","religion":"christian"}},
{"type":"Feature","geometry":{"type":"Point","coordinates":[0.8540395,44.74389]},"properties":{"historic":"wayside_cross"}},
{"type":"Feature","geometry":{"type":"Point","coordinates":[0.8729947,44.7381802]},"properties":{"historic":"wayside_cross"}},
{"type":"Feature","geometry":{"type":"Point","coordinates":[0.8643097,44.7458446]},"properties":{"historic":"wayside_cross"}},
{"type":"Feature","geometry":{"type":"Point","coordinates":[0.8771038,44.7552031]},"properties":{"historic":"wayside_cross"}},
{"type":"Feature","geometry":{"type":"Point","coordinates":[0.8710742,44.7569982]},"properties":{"historic":"wayside_cross"}},
{"type":"Feature","geometry":{"type":"Point","coordinates":[0.8679521,44.7583648]},"properties":{"historic":"wayside_cross"}},
{"type":"Feature","geometry":{"type":"Point","coordinates":[0.8741909,44.7630432]},"properties":{"historic":"wayside_cross"}},
{"type":"Feature","geometry":{"type":"Point","coordinates":[0.83318,44.819934]},"properties":{"historic":"wayside_cross"}},
{"type":"Feature","geometry":{"type":"Point","coordinates":[0.9271726,44.823309]},"properties":{"historic":"wayside_cross"}},
{"type":"Feature","geometry":{"type":"Point","coordinates":[0.9230849,44.8218499]},"properties":{"historic":"wayside_cross"}},
{"type":"Feature","geometry":{"type":"Point","coordinates":[0.9237742,44.7488306]},"properties":{"historic":"wayside_cross"}},
{"type":"Feature","geometry":{"type":"Point","coordinates":[0.9185976,44.753306]},"properties":{"historic":"wayside_cross"}},
{"type":"Feature","geometry":{"type":"Point","coordinates":[0.801495,44.716157]},"properties":{"historic":"wayside_cross"}},
{"type":"Feature","geometry":{"type":"Point","coordinates":[0.7978805,44.742454]},"properties":{"historic":"wayside_cross"}},
{"type":"Feature","geometry":{"type":"Point","coordinates":[0.8302322,44.7401331]},"properties":{"historic":"wayside_cross"}},
{"type":"Feature","geometry":{"type":"Point","coordinates":[0.8643767,44.7421773]},"properties":{"historic":"wayside_cross"}},
{"type":"Feature","geometry":{"type":"Point","coordinates":[0.8661604,44.7507116]},"properties":{"historic":"wayside_cross"}},
{"type":"Feature","geometry":{"type":"Point","coordinates":[0.8586931,44.7514812]},"properties":{"historic":"wayside_cross"}},
{"type":"Feature","geometry":{"type":"Point","coordinates":[0.8825487,44.7678317]},"properties":{"historic":"wayside_cross"}},
{"type":"Feature","geometry":{"type":"Point","coordinates":[0.8590499,44.7853142]},"properties":{"historic":"wayside_cross"}},
{"type":"Feature","geometry":{"type":"Point","coordinates":[0.8937094,44.7944131]},"properties":{"historic":"wayside_cross"}},
{"type":"Feature","geometry":{"type":"Point","coordinates":[0.9358254,44.821222]},"properties":{"historic":"wayside_cross"}},
{"type":"Feature","geometry":{"type":"Point","coordinates":[0.8611903,44.73923]},"properties":{"historic":"wayside_cross"}},
{"type":"Feature","geometry":{"type":"Point","coordinates":[0.8655918,44.7492773]},"properties":{"historic":"wayside_cross"}},
{"type":"Feature","geometry":{"type":"Point","coordinates":[0.8646905,44.7607607]},"properties":{"historic":"wayside_cross"}},
{"type":"Feature","geometry":{"type":"Point","coordinates":[0.8254364,44.8116972]},"properties":{"historic":"wayside_cross"}},
{"type":"Feature","geometry":{"type":"Point","coordinates":[0.8789411,44.8077487]},"properties":{"historic":"wayside_cross"}},
{"type":"Feature","geometry":{"type":"Point","coordinates":[0.8735391,44.8096954]},"properties":{"historic":"wayside_cross"}},
{"type":"Feature","geometry":{"type":"Point","coordinates":[0.9430593,44.8155941]},"properties":{"historic":"wayside_cross"}},
{"type":"Feature","geometry":{"type":"Point","coordinates":[0.8671555,44.7671576]},"properties":{"historic":"wayside_cross"}},
{"type":"Feature","geometry":{"type":"Point","coordinates":[0.8948547,44.7712127]},"properties":{"historic":"wayside_cross"}},
{"type":"Feature","geometry":{"type":"Point","coordinates":[0.9316975,44.8231112]},"properties":{"historic":"wayside_cross"}},
{"type":"Feature","geometry":{"type":"Point","coordinates":[0.9368742,44.799494]},"properties":{"historic":"wayside_cross"}},
{"type":"Feature","geometry":{"type":"Point","coordinates":[0.8896445,44.8824793]},"properties":{"tourism":"picnic_site"}},
{"type":"Feature","geometry":{"type":"Point","coordinates":[0.8309376,44.9141544]},"properties":{"name":"La Maison Des Bois","tourism":"guest_house"}},
{"type":"Feature","geometry":{"type":"Point","coordinates":[0.9260461,44.8379266]},"properties":{"castle_type":"manor","heritage":"3","heritage:operator":"mhs","historic":"castle","mhs:inscription_date":"1965-02-16","name":"Manoir de la Bourgonie","ref:mhs":"PA00082422","source:heritage":"data.gouv.fr, Ministère de la Culture - 2016","start_date":"C15","wikidata":"Q22987630"}},
{"type":"Feature","geometry":{"type":"Point","coordinates":[0.8145735,44.7985481]},"properties":{"castle_type":"manor","heritage":"3","heritage:operator":"mhs","historic":"castle","mhs:inscription_date":"1972-03-20","name":"Manoir de Sautet","ref:mhs":"PA00082650","source:heritage":"data.gouv.fr, Ministère de la Culture - 2016","start_date":"C17","wikidata":"Q3286284","wikipedia":"fr:Manoir de Sautet"}},
{"type":"Feature","geometry":{"type":"Point","coordinates":[0.9163003,44.890528]},"properties":{"castle_type":"manor","heritage":"3","heritage:operator":"mhs","historic":"castle","mhs:inscription_date":"1971-04-29","name":"Manoir de Perdigat","ref:mhs":"PA00082812","source:heritage":"data.gouv.fr, Ministère de la Culture - 2016","start_date":"C15","wikidata":"Q22987832"}},
{"type":"Feature","geometry":{"type":"Point","coordinates":[0.8104764,44.722697]},"properties":{"archaeological_site":"megalith","heritage":"2","heritage:operator":"mhs","historic":"archaeological_site","megalith_type":"dolmen","mhs:inscription_date":"1889","name":"Dolmen dit La Peyrelevade près de Beaumont","ref:mhs":"PA00082779","source:heritage":"data.gouv.fr, Ministère de la Culture - 2016","wikidata":"Q22987801"}},
{"type":"Feature","geometry":{"type":"Point","coordinates":[0.916913,44.8368005]},"properties":{"barrier":"gate"}},
{"type":"Feature","geometry":{"type":"Point","coordinates":[0.9941329,44.9055411]},"properties":{"name":"Trou du Chien","natural":"cave_entrance"}},
{"type":"Feature","geometry":{"type":"Point","coordinates":[0.858949,44.7461493]},"properties":{"leisure":"picnic_table"}},
{"type":"Feature","geometry":{"type":"Point","coordinates":[0.858943,44.746013]},"properties":{"leisure":"picnic_table"}},
{"type":"Feature","geometry":{"type":"Point","coordinates":[0.8569409,44.889376]},"properties":{"natural":"tree"}},
{"type":"Feature","geometry":{"type":"Point","coordinates":[0.8569385,44.8892701]},"properties":{"natural":"tree"}},
{"type":"Feature","geometry":{"type":"Point","coordinates":[0.8572351,44.8886217]},"properties":{"natural":"tree"}},
{"type":"Feature","geometry":{"type":"Point","coordinates":[0.8571766,44.8888635]},"properties":{"natural":"tree"}},
{"type":"Feature","geometry":{"type":"Point","coordinates":[0.856838,44.88911]},"properties":{"access":"customers","leisure":"garden","name":"Les Jardins de la Chartreuse du Colombier"}},
{"type":"Feature","geometry":{"type":"Point","coordinates":[1.0069647,44.7763695]},"properties":{"name":"Musée Organistrum et vielles à roue","ref:FR:CRTA":"PCUAQU024FS00030","source":"Réseau SIRTAQUI - Comité Régional de Tourisme d'Aquitaine - www.sirtaqui-aquitaine.com - 08/2018","tourism":"museum"}},
{"type":"Feature","geometry":{"type":"Point","coordinates":[0.9867496,44.8216914]},"properties":{"name":"Musée des Arts Culinaires","ref:FR:CRTA":"PCUAQU024FS0004S","source":"Réseau SIRTAQUI - Comité Régional de Tourisme d'Aquitaine - www.sirtaqui-aquitaine.com - 08/2018","tourism":"museum"}},
{"type":"Feature","geometry":{"type":"Point","coordinates":[1.0072982,44.7475528]},"properties":{"hiking":"yes","horse":"yes","information":"map","mtb":"yes","tourism":"information"}},
{"type":"Feature","geometry":{"type":"Point","coordinates":[1.0072134,44.7472383]},"properties":{"highway":"trailhead","hiking":"yes","horse":"yes","information":"guidepost","mtb":"yes","ski":"no","tourism":"information"}},
{"type":"Feature","geometry":{"type":"Point","coordinates":[0.9988748,44.7502907]},"properties":{"hiking":"yes","horse":"yes","information":"guidepost","mtb":"yes","tourism":"information"}},
{"type":"Feature","geometry":{"type":"Point","coordinates":[0.9894877,44.749833]},"properties":{"hiking":"yes","horse":"yes","information":"guidepost","mtb":"yes","tourism":"information"}},
{"type":"Feature","geometry":{"type":"Point","coordinates":[1.0000777,44.711388]},"properties":{"hiking":"yes","horse":"yes","information":"map","mtb":"yes","tourism":"information"}},
{"type":"Feature","geometry":{"type":"Point","coordinates":[1.0002749,44.7115758]},"properties":{"highway":"trailhead","hiking":"yes","horse":"yes","information":"guidepost","mtb":"yes","tourism":"information"}},
{"type":"Feature","geometry":{"type":"Point","coordinates":[0.9945483,44.7302357]},"properties":{"hiking":"yes","horse":"yes","information":"guidepost","mtb":"yes","tourism":"information"}},
{"type":"Feature","geometry":{"type":"Point","coordinates":[0.9890136,44.7362349]},"properties":{"hiking":"yes","horse":"yes","information":"guidepost","mtb":"yes","tourism":"information"}},
{"type":"Feature","geometry":{"type":"Point","coordinates":[0.9762248,44.7042234]},"properties":{"hiking":"yes","horse":"yes","information":"guidepost","mtb":"yes","tourism":"information"}},
{"type":"Feature","geometry":{"type":"Point","coordinates":[0.9836841,44.7008662]},"properties":{"hiking":"yes","horse":"yes","information":"guidepost","mtb":"yes","tourism":"information"}},
{"type":"Feature","geometry":{"type":"Point","coordinates":[0.9626019,44.7257938]},"properties":{"natural":"tree"}},
{"type":"Feature","geometry":{"type":"Point","coordinates":[0.9193245,44.8606962]},"properties":{"archaeological_site":"megalith","heritage":"3","heritage:operator":"mhs","historic":"archaeological_site","megalith_type":"dolmen","mhs:inscription_date":"2008-12-01","name":"Dolmen de Cantegrel","ref:mhs":"PA24000070","source:heritage":"data.gouv.fr, Ministère de la Culture - 2016","wikidata":"Q22996212"}},
{"type":"Feature","geometry":{"type":"Point","coordinates":[0.9275554,44.918182]},"properties":{"name":"Office du tourisme","tourism":"information"}},
{"type":"Feature","geometry":{"type":"Point","coordinates":[0.9119866,44.8464058]},"properties":{"name":"Office du tourisme","tourism":"information"}},
{"type":"Feature","geometry":{"type":"Point","coordinates":[0.8693369,44.8120582]},"properties":{"tourism":"picnic_site"}},
{"type":"Feature","geometry":{"type":"Point","coordinates":[0.8606182,44.9093576]},"properties":{"natural":"tree"}},
{"type":"Feature","geometry":{"type":"Point","coordinates":[0.8595970000000001,44.9056157]},"properties":{"natural":"tree"}},
{"type":"Feature","geometry":{"type":"Point","coordinates":[0.8595031,44.9052358]},"properties":{"natural":"tree"}},
{"type":"Feature","geometry":{"type":"Point","coordinates":[0.8594267,44.905459]},"properties":{"natural":"tree"}},
{"type":"Feature","geometry":{"type":"Point","coordinates":[0.8593261,44.9053346]},"properties":{"natural":"tree"}},
{"type":"Feature","geometry":{"type":"Point","coordinates":[0.8588701,44.9051335]},"properties":{"denotation":"memorial","leaf_cycle":"deciduous","leaf_type":"broadleaved","natural":"tree"}},
{"type":"Feature","geometry":{"type":"Point","coordinates":[0.8568625,44.9021971]},"properties":{"historic":"wayside_cross"}},
{"type":"Feature","geometry":{"type":"Point","coordinates":[0.9687113,44.9129335]},"properties":{"addr:city":"Campagne","addr:housenumber":"681","addr:postcode":"24260","addr:street":"Route des Eyzies","email":"contact@aupredessources.fr","internet_access":"wlan","name":"Au Pré des Sources","operator":"Au Pré des Sources","phone":"+33 6 80 26 67 65","rooms":"4","smoking":"outside","tourism":"guest_house","website":"https://www.aupredessources.com/"}},
{"type":"Feature","geometry":{"type":"Point","coordinates":[0.9703669,44.9076969]},"properties":{"barrier":"gate"}},
{"type":"Feature","geometry":{"type":"Point","coordinates":[0.9689087,44.9096888]},"properties":{"barrier":"gate"}},
{"type":"Feature","geometry":{"type":"Point","coordinates":[0.9671324,44.9077031]},"properties":{"barrier":"gate"}},
{"type":"Feature","geometry":{"type":"Point","coordinates":[0.9660754,44.9083517]},"properties":{"barrier":"gate","historic":"city_gate"}},
{"type":"Feature","geometry":{"type":"Point","coordinates":[0.9965545,44.9188419]},"properties":{"natural":"spring"}},
{"type":"Feature","geometry":{"type":"Point","coordinates":[0.8128387,44.8564312]},"properties":{"historic":"wayside_cross"}},
{"type":"Feature","geometry":{"type":"Point","coordinates":[0.9750803,44.9067611]},"properties":{"leisure":"picnic_table","source":"survey"}},
{"type":"Feature","geometry":{"type":"Point","coordinates":[0.8104906,44.8867431]},"properties":{"climbing:bolted":"yes","climbing:deepwater":"no","name":"Cingle de Trémolat","natural":"cliff","sport":"climbing"}},
{"type":"Feature","geometry":{"type":"Point","coordinates":[0.8104316,44.8867825]},"properties":{"name":"Cingle de Trémolat","tourism":"viewpoint"}},
{"type":"Feature","geometry":{"type":"Point","coordinates":[0.9349512,44.8905853]},"properties":{"leisure":"picnic_table"}},
{"type":"Feature","geometry":{"type":"Point","coordinates":[0.8195356,44.916333]},"properties":{"name":"La Forêt","tourism":"camp_site"}},
{"type":"Feature","geometry":{"type":"Point","coordinates":[0.9342198,44.9108394]},"properties":{"name":"Animaux de la ferme","tourism":"zoo","zoo":"petting_zoo"}},
{"type":"Feature","geometry":{"type":"Point","coordinates":[0.931508,44.9137931]},"properties":{"barrier":"gate"}},
{"type":"Feature","geometry":{"type":"Point","coordinates":[0.8479659,44.8297083]},"properties":{"alt_name":"Grotte des Amoureux","name":"Grotte de Cussac","natural":"cave_entrance","wikidata":"Q3087510"}},
{"type":"Feature","geometry":{"type":"Point","coordinates":[0.8307485,44.8759974]},"properties":{"historic":"wayside_cross"}},
{"type":"Feature","geometry":{"type":"Point","coordinates":[0.8283103,44.8774711]},"properties":{"historic":"wayside_cross"}},
{"type":"Feature","geometry":{"type":"Point","coordinates":[0.830272,44.8756072]},"properties":{"historic":"memorial","name":"Monument aux Morts"}},
{"type":"Feature","geometry":{"type":"Point","coordinates":[0.8299311,44.8724692]},"properties":{"historic":"wayside_cross"}},
{"type":"Feature","geometry":{"type":"Point","coordinates":[0.9268108,44.9182482]},"properties":{"natural":"tree"}},
{"type":"Feature","geometry":{"type":"Point","coordinates":[0.9268662,44.9180549]},"properties":{"natural":"tree"}},
{"type":"Feature","geometry":{"type":"Point","coordinates":[0.9270283,44.9180738]},"properties":{"natural":"tree"}},
{"type":"Feature","geometry":{"type":"Point","coordinates":[0.9270081,44.91803]},"properties":{"natural":"tree"}},
{"type":"Feature","geometry":{"type":"Point","coordinates":[0.9271606,44.9180337]},"properties":{"natural":"tree"}},
{"type":"Feature","geometry":{"type":"Point","coordinates":[0.9272512,44.9179424]},"properties":{"natural":"tree"}},
{"type":"Feature","geometry":{"type":"Point","coordinates":[0.9273696,44.9179091]},"properties":{"natural":"tree"}},
{"type":"Feature","geometry":{"type":"Point","coordinates":[0.927232,44.9181561]},"properties":{"natural":"tree"}},
{"type":"Feature","geometry":{"type":"Point","coordinates":[0.9273643,44.918181]},"properties":{"natural":"tree"}},
{"type":"Feature","geometry":{"type":"Point","coordinates":[0.9275381,44.9181062]},"properties":{"natural":"tree"}},
{"type":"Feature","geometry":{"type":"Point","coordinates":[0.9274485,44.9181561]},"properties":{"natural":"tree"}},
{"type":"Feature","geometry":{"type":"Point","coordinates":[1.0055602,44.776031]},"properties":{"description":"Arbre remarquable","natural":"tree"}},
{"type":"Feature","geometry":{"type":"Point","coordinates":[1.0052787,44.7764205]},"properties":{"name":"Le Home","tourism":"hotel"}},
{"type":"Feature","geometry":{"type":"Point","coordinates":[0.9742958,44.9068297]},"properties":{"information":"board","name":"Les Sports de Nature","source":"survey","tourism":"information"}},
{"type":"Feature","geometry":{"type":"Point","coordinates":[0.7994418,44.8623559]},"properties":{"board_type":"history","information":"board","tourism":"information"}},
{"type":"Feature","geometry":{"type":"Point","coordinates":[0.7997113,44.8623626]},"properties":{"bicycle":"no","hiking":"yes","horse":"yes","information":"map","mtb":"yes","tourism":"information"}},
{"type":"Feature","geometry":{"type":"Point","coordinates":[0.799199,44.8626382]},"properties":{"covered":"no","leisure":"picnic_table"}},
{"type":"Feature","geometry":{"type":"Point","coordinates":[0.7991923,44.8625812]},"properties":{"covered":"no","leisure":"picnic_table"}},
{"type":"Feature","geometry":{"type":"Point","coordinates":[0.7991856,44.8625128]},"properties":{"covered":"no","leisure":"picnic_table"}},
{"type":"Feature","geometry":{"type":"Point","coordinates":[0.7991776,44.8624453]},"properties":{"covered":"no","leisure":"picnic_table"}},
{"type":"Feature","geometry":{"type":"Point","coordinates":[0.8127066,44.7532822]},"properties":{"natural":"spring"}},
{"type":"Feature","geometry":{"type":"Point","coordinates":[0.9689668,44.9090627]},"properties":{"hiking":"yes","information":"map","map_size":"site","map_type":"scheme","name":"Réserve biologique du Domaine Départemental de Campagne","tourism":"information"}},
{"type":"Feature","geometry":{"type":"Point","coordinates":[0.9725703,44.9105159]},"properties":{"board_type":"plants","information":"board","name":"La charmaie","tourism":"information"}},
{"type":"Feature","geometry":{"type":"Point","coordinates":[0.9737223,44.9118779]},"properties":{"board_type":"wildlife","description":"Description mode de vie et trace de pas","information":"board","name":"Le Chevreuil","species":"Capreolus capreolus","species:fr":"Chevreuil","tourism":"information"}},
{"type":"Feature","geometry":{"type":"Point","coordinates":[0.9719333,44.9079486]},"properties":{"board_type":"wildlife","description":"Description mode de vie et trace de pas","genus":"Genetta","genus:fr":"Genette","information":"board","name":"La genette","species":"Genetta genetta","species:fr":"Genette d'europe","tourism":"information"}},
{"type":"Feature","geometry":{"type":"Point","coordinates":[0.9709188,44.9084206]},"properties":{"board_type":"wildlife","description":"Description mode de vie et trace de pas","genus":"Meles","genus:fr":"Blaireau","information":"board","name":"Le blaireau","species":"Meles meles","species:fr":"Blaireau Européen","tourism":"information"}},
{"type":"Feature","geometry":{"type":"Point","coordinates":[0.970096,44.9090043]},"properties":{"board_type":"wildlife","description":"Pic Mar, Pic Vert, Pic Epeichette, Pic Épeiche - Description mode de vie","genus":"Picus","genus:fr":"Pic","information":"board","name":"Les Pics","tourism":"information"}},
{"type":"Feature","geometry":{"type":"Point","coordinates":[0.984759,44.9097181]},"properties":{"board_type":"notice","information":"board","name":"Bike-Park","tourism":"information"}},
{"type":"Feature","geometry":{"type":"Point","coordinates":[0.9821626,44.9114149]},"properties":{"board_type":"history","description":"2 hypothèses de polissage","information":"board","name":"Le polissoir des salles","tourism":"information"}},
{"type":"Feature","geometry":{"type":"Point","coordinates":[0.9821512,44.9114096]},"properties":{"description":"En faisant aller l'outil en pierre de gauche à droite, tu reproduis le geste des polisseurs qui ont marqué ce site","tourism":"attraction"}},
{"type":"Feature","geometry":{"type":"Point","coordinates":[0.9790918,44.9096746]},"properties":{"board_type":"wildlife","information":"board","name":"Le cerf","species":"Cervus elaphus","tourism":"information"}},
{"type":"Feature","geometry":{"type":"Point","coordinates":[0.9759593,44.9112202]},"properties":{"board_type":"plants","information":"board","name":"La chênaie pubescente","tourism":"information"}},
{"type":"Feature","geometry":{"type":"Point","coordinates":[0.9745552,44.9118997]},"properties":{"colour":"brown","leisure":"picnic_table","material":"wood"}},
{"type":"Feature","geometry":{"type":"Point","coordinates":[0.9745625,44.9119413]},"properties":{"board_type":"wildlife","information":"board","name":"Les rapaces","tourism":"information"}},
{"type":"Feature","geometry":{"type":"Point","coordinates":[0.9708289,44.9147062]},"properties":{"artwork_type":"statue","material":"metal","tourism":"artwork"}},
{"type":"Feature","geometry":{"type":"Point","coordinates":[0.9698667,44.9092579]},"properties":{"board_type":"history","information":"board","name":"Les Cluzeaux","tourism":"information"}},
{"type":"Feature","geometry":{"type":"Point","coordinates":[0.970434,44.9090945]},"properties":{"description":"Poteau en bois avec capuchon jaune noté \"Randonnées Dordogne-Périgord\"","direction_north":"Liaison les Eyzies; Saint Cyprien/Meyrals","direction_south":"Site d'escalade 100m","direction_west":"Boucle du Polissoir 800m; Retour Château de Campagne","hiking":"yes","information":"guidepost","osmc:symbol":"yellow:white:yellow_bar","tourism":"information"}},
{"type":"Feature","geometry":{"type":"Point","coordinates":[0.9693376,44.9090917]},"properties":{"hiking":"yes","information":"guidepost","tourism":"information"}},
{"type":"Feature","geometry":{"type":"Point","coordinates":[0.9684075,44.9086657]},"properties":{"leaf_type":"broadleaved","natural":"tree","species":"Fagus sylvatica","species:fr":"Hêtre commun"}},
{"type":"Feature","geometry":{"type":"Point","coordinates":[0.968425,44.9086369]},"properties":{"board_type":"plants","information":"board","name":"Hêtre commun","tourism":"information"}},
{"type":"Feature","geometry":{"type":"Point","coordinates":[0.9683351,44.908665]},"properties":{"leaf_type":"broadleaved","natural":"tree","species":"Liriodendron tulipifera","species:fr":"Tulipier de Virginie"}},
{"type":"Feature","geometry":{"type":"Point","coordinates":[0.9680615,44.9086514]},"properties":{"leaf_type":"needleleaved","natural":"tree","species":"Sequoia giganteum","species:fr":"Séquoïa géant"}},
{"type":"Feature","geometry":{"type":"Point","coordinates":[0.9680749,44.9086039]},"properties":{"board_type":"plants","information":"board","name":"Séquoïa géant","tourism":"information"}},
{"type":"Feature","geometry":{"type":"Point","coordinates":[0.9679489,44.9085842]},"properties":{"board_type":"plants","information":"board","name":"Tulipier de Virginie","tourism":"information"}},
{"type":"Feature","geometry":{"type":"Point","coordinates":[0.9679462,44.9086379]},"properties":{"leaf_type":"broadleaved","natural":"tree","species":"Liriodendron tulipifera","species:fr":"Tulipier de Virginie"}},
{"type":"Feature","geometry":{"type":"Point","coordinates":[0.9686315,44.9082195]},"properties":{"board_type":"plants","information":"board","name":"Tilleul argenté","tourism":"information"}},
{"type":"Feature","geometry":{"type":"Point","coordinates":[0.9686261,44.9082361]},"properties":{"leaf_type":"broadleaved","natural":"tree","species":"Tilia tomentosa","species:fr":"Tilleul argenté"}},
{"type":"Feature","geometry":{"type":"Point","coordinates":[0.9685772,44.9081314]},"properties":{"board_type":"history","information":"board","name":"Le Château","tourism":"information"}},
{"type":"Feature","geometry":{"type":"Point","coordinates":[0.9692591,44.9082278]},"properties":{"board_type":"history","information":"board","name":"Les Communs","tourism":"information"}},
{"type":"Feature","geometry":{"type":"Point","coordinates":[0.9696514,44.9078503]},"properties":{"board_type":"plants","information":"board","name":"Bouleau blanc pleureur","tourism":"information"}},
{"type":"Feature","geometry":{"type":"Point","coordinates":[0.9696903,44.907855]},"properties":{"leaf_type":"broadleaved","natural":"tree","species":"Betula verrucosa pendula","species:fr":"Bouleau blanc pleureur"}},
{"type":"Feature","geometry":{"type":"Point","coordinates":[0.9690814,44.9077702]},"properties":{"board_type":"plants","information":"board","name":"Sophora du Japon pleureur","tourism":"information"}},
{"type":"Feature","geometry":{"type":"Point","coordinates":[0.9691163,44.9077617]},"properties":{"leaf_type":"broadleaved","natural":"tree","species":"Sophora japonica pendula","species:fr":"Sophora du Japon pleureur"}},
{"type":"Feature","geometry":{"type":"Point","coordinates":[0.9687381,44.9077812]},"properties":{"board_type":"plants","information":"board","name":"Chêne des marais","tourism":"information"}},
{"type":"Feature","geometry":{"type":"Point","coordinates":[0.9687328,44.9077978]},"properties":{"leaf_type":"broadleaved","natural":"tree","species":"Quercus palustris","species:fr":"Chêne des marais"}},
{"type":"Feature","geometry":{"type":"Point","coordinates":[0.968657,44.9077871]},"properties":{"board_type":"plants","information":"board","name":"Érable à écorce de papier","tourism":"information"}},
{"type":"Feature","geometry":{"type":"Point","coordinates":[0.9686516,44.9078037]},"properties":{"leaf_type":"broadleaved","natural":"tree","species":"Acer griseum","species:fr":"Érable à écorce de papier"}},
{"type":"Feature","geometry":{"type":"Point","coordinates":[0.9680025,44.9078533]},"properties":{"leaf_type":"broadleaved","natural":"tree","species":"Gleditsia triacanthos","species:fr":"Févier d'Amérique"}},
{"type":"Feature","geometry":{"type":"Point","coordinates":[0.9680079,44.9078367]},"properties":{"board_type":"plants","information":"board","name":"Févier d'Amérique","tourism":"information"}},
{"type":"Feature","geometry":{"type":"Point","coordinates":[0.9676471,44.9079813]},"properties":{"board_type":"history","information":"board","name":"La Serpentine","tourism":"information"}},
{"type":"Feature","geometry":{"type":"Point","coordinates":[0.96734,44.9080378]},"properties":{"description":"Plan d'ensemble du château","information":"map","map_size":"site","map_type":"topo","name":"Château de Campagne","tourism":"information"}},
{"type":"Feature","geometry":{"type":"Point","coordinates":[0.9671191,44.9081067]},"properties":{"board_type":"plants","information":"board","name":"Chêne chevelu fastigié","tourism":"information"}},
{"type":"Feature","geometry":{"type":"Point","coordinates":[0.9671137,44.9081233]},"properties":{"leaf_type":"broadleaved","natural":"tree","species":"Quercus cerris fastigiata","species:fr":"Chêne chevelu fastigié"}},
{"type":"Feature","geometry":{"type":"Point","coordinates":[0.9670118,44.9080314]},"properties":{"board_type":"plants","information":"board","name":"Savonnier de chine","tourism":"information"}},
{"type":"Feature","geometry":{"type":"Point","coordinates":[0.9670178,44.9080143]},"properties":{"leaf_type":"broadleaved","natural":"tree","species":"Koelreuteria paniculata","species:fr":"Savonnier de chine"}},
{"type":"Feature","geometry":{"type":"Point","coordinates":[0.9668452,44.9079585]},"properties":{"board_type":"plants","information":"board","name":"Mélèze commun","tourism":"information"}},
{"type":"Feature","geometry":{"type":"Point","coordinates":[0.9668445,44.9079372]},"properties":{"leaf_type":"needleleaved","natural":"tree","species":"Lacix Decidua","species:fr":"Mélèze commun"}},
{"type":"Feature","geometry":{"type":"Point","coordinates":[0.9664103,44.9083475]},"properties":{"board_type":"history","information":"board","name":"Le Ha-Ha","tourism":"information"}},
{"type":"Feature","geometry":{"type":"Point","coordinates":[0.9664177,44.9083793]},"properties":{"board_type":"notice","description":"Parc en gestion differenciée - Une gestion adaptée et durable sans pesticide","information":"board","tourism":"information"}},
{"type":"Feature","geometry":{"type":"Point","coordinates":[0.9665126,44.9089231]},"properties":{"leaf_type":"broadleaved","natural":"tree","species":"Prunus serruia","species:fr":"Cerisier du tibet","start_date":"2014"}},
{"type":"Feature","geometry":{"type":"Point","coordinates":[0.966648,44.9088908]},"properties":{"leaf_type":"broadleaved","natural":"tree","species":"Magnolia grandiflora","species:fr":"Magnolia à grande fleur"}},
{"type":"Feature","geometry":{"type":"Point","coordinates":[0.9666172,44.9089069]},"properties":{"board_type":"plants","information":"board","name":"Magnolia à Grande fleur","tourism":"information"}},
{"type":"Feature","geometry":{"type":"Point","coordinates":[0.9668391,44.9088158]},"properties":{"leaf_type":"broadleaved","natural":"tree","species":"Liquidambar styraciflua","species:fr":"Copalme d'Amérique"}},
{"type":"Feature","geometry":{"type":"Point","coordinates":[0.966882,44.9087749]},"properties":{"board_type":"plants","information":"board","name":"Copalme d'Amérique","tourism":"information"}},
{"type":"Feature","geometry":{"type":"Point","coordinates":[0.9671781,44.9090943]},"properties":{"leaf_type":"needleleaved","natural":"tree","species":"Taxodium distichum","species:fr":"Cyprès chauve"}},
{"type":"Feature","geometry":{"type":"Point","coordinates":[0.9671566,44.9091066]},"properties":{"board_type":"plants","information":"board","name":"Cyprès chauve","tourism":"information"}},
{"type":"Feature","geometry":{"type":"Point","coordinates":[0.9671278,44.9094039]},"properties":{"board_type":"history","information":"board","name":"Le Verger conservatoire","tourism":"information"}},
{"type":"Feature","geometry":{"type":"Point","coordinates":[0.9673692,44.9096661]},"properties":{"board_type":"history","information":"board","name":"Le Labyrinthe","tourism":"information"}},
{"type":"Feature","geometry":{"type":"Point","coordinates":[0.9676555,44.9099235]},"properties":{"board_type":"history","information":"board","name":"Le Potager","tourism":"information"}},
{"type":"Feature","geometry":{"type":"Point","coordinates":[0.9681678,44.910264]},"properties":{"board_type":"history","information":"board","name":"La Maison du Jardinier","tourism":"information"}},
{"type":"Feature","geometry":{"type":"Point","coordinates":[0.9685611,44.9095388]},"properties":{"board_type":"plants","information":"board","name":"Cèdre de l'Atlas","tourism":"information"}},
{"type":"Feature","geometry":{"type":"Point","coordinates":[0.9685725,44.9095374]},"properties":{"genus":"Cedrus","genus:fr":"Cèdre","leaf_type":"needleleaved","natural":"tree","species":"Cedrus Atlantica","species:fr":"Cèdre de l'Atlas"}},
{"type":"Feature","geometry":{"type":"Point","coordinates":[0.9689271,44.9090289]},"properties":{"board_type":"history","information":"board","name":"L'Escalier Des Dames","tourism":"information"}},
{"type":"Feature","geometry":{"type":"Point","coordinates":[0.9739108,44.9071251]},"properties":{"description":"Poteau en bois avec capuchon jaune noté \"Randonnées Dordogne-Périgord\"","direction_west":"Boucle du Polissoir 1.2km; Boucle du Polissoir 5.3km; Boucle de la Marquise 3.7km; Les Eyzies/Saint Cyprien/Meyrals; Audrix/Le Bulgue; Site d'escalade 800m / Bike Park 3.1km","hiking":"yes","information":"guidepost","osmc:symbol":"yellow:white:yellow_bar","tourism":"information"}},
{"type":"Feature","geometry":{"type":"Point","coordinates":[1.0080094,44.7757832]},"properties":{"addr:postcode":"24170","addr:street":"Place d'Armes","name":"Les Troglos de Belvès","name:fr":"Habitats troglodytiques","tourism":"attraction","website":"https://www.perigordnoir-valleedordogne.com/","wheelchair":"yes"}},
{"type":"Feature","geometry":{"type":"Point","coordinates":[1.0057175,44.7767007]},"properties":{"name":"Tour Médiévale","name:es":"Torre Medieval","tourism":"attraction"}},
{"type":"Feature","geometry":{"type":"Point","coordinates":[0.8587052,44.905099]},"properties":{"drinking_water":"no","natural":"spring"}},
{"type":"Feature","geometry":{"type":"Point","coordinates":[0.8592161,44.9051064]},"properties":{"historic":"wayside_cross"}},
{"type":"Feature","geometry":{"type":"Point","coordinates":[0.8591391,44.9054219]},"properties":{"historic":"yes","name":"Bacade à cochons"}},
{"type":"Feature","geometry":{"type":"Point","coordinates":[0.9726071,44.7959735]},"properties":{"leisure":"picnic_table"}},
{"type":"Feature","geometry":{"type":"Point","coordinates":[0.9698543,44.7912722]},"properties":{"information":"board","name":"Numero 3","tourism":"information"}},
{"type":"Feature","geometry":{"type":"Point","coordinates":[0.9748322,44.9062166]},"properties":{"access":"customers","leisure":"playground"}},
{"type":"Feature","geometry":{"type":"Point","coordinates":[0.9584642,44.9038372]},"properties":{"whitewater":"put_in;egress"}},
{"type":"Feature","geometry":{"type":"Point","coordinates":[0.8590122,44.9052783]},"properties":{"natural":"tree"}},
{"type":"Feature","geometry":{"type":"Point","coordinates":[0.859004,44.9053627]},"properties":{"natural":"tree"}},
{"type":"Feature","geometry":{"type":"Point","coordinates":[0.8589211,44.9054296]},"properties":{"natural":"tree"}},
{"type":"Feature","geometry":{"type":"Point","coordinates":[0.9475212,44.8800939]},"properties":{"name":"Auberge Médiévale","tourism":"hotel","website":"https://www.auberge-medievale.fr"}},
{"type":"Feature","geometry":{"type":"Point","coordinates":[0.9471725,44.8798268]},"properties":{"leisure":"picnic_table"}},
{"type":"Feature","geometry":{"type":"Point","coordinates":[0.947145,44.8798895]},"properties":{"leisure":"picnic_table"}},
{"type":"Feature","geometry":{"type":"Point","coordinates":[0.9474742,44.8799893]},"properties":{"historic":"memorial","memorial":"war_memorial"}},
{"type":"Feature","geometry":{"type":"Point","coordinates":[0.9471484,44.8800096]},"properties":{"leisure":"picnic_table"}},
{"type":"Feature","geometry":{"type":"Point","coordinates":[0.9471467,44.8799783]},"properties":{"leisure":"picnic_table"}},
{"type":"Feature","geometry":{"type":"Point","coordinates":[0.9472481,44.8799808]},"properties":{"leisure":"picnic_table"}},
{"type":"Feature","geometry":{"type":"Point","coordinates":[0.815939,44.7779891]},"properties":{"denomination":"catholic","historic":"wayside_cross","religion":"christian"}},
{"type":"Feature","geometry":{"type":"Point","coordinates":[0.8160465,44.7779064]},"properties":{"hiking":"yes","horse":"yes","information":"guidepost","mtb":"yes","tourism":"information"}},
{"type":"Feature","geometry":{"type":"Point","coordinates":[0.8001192,44.7920367]},"properties":{"hiking":"yes","horse":"yes","information":"guidepost","mtb":"yes","tourism":"information"}},
{"type":"Feature","geometry":{"type":"Point","coordinates":[0.7985059,44.7692824]},"properties":{"hiking":"yes","horse":"yes","information":"guidepost","mtb":"yes","tourism":"information"}},
{"type":"Feature","geometry":{"type":"Point","coordinates":[0.7969441,44.7696182]},"properties":{"hiking":"yes","horse":"yes","information":"guidepost","mtb":"yes","tourism":"information"}},
{"type":"Feature","geometry":{"type":"Point","coordinates":[0.8141215,44.772914]},"properties":{"hiking":"yes","horse":"yes","information":"guidepost","mtb":"yes","tourism":"information"}},
{"type":"Feature","geometry":{"type":"Point","coordinates":[0.8151153,44.7727341]},"properties":{"board_type":"history","information":"board","tourism":"information"}},
{"type":"Feature","geometry":{"type":"Point","coordinates":[0.8174367,44.7736814]},"properties":{"hiking":"yes","horse":"yes","information":"guidepost","mtb":"yes","tourism":"information"}},
{"type":"Feature","geometry":{"type":"Point","coordinates":[0.816966,44.7739213]},"properties":{"board_type":"history","information":"board","tourism":"information"}},
{"type":"Feature","geometry":{"type":"Point","coordinates":[0.8167568,44.7738604]},"properties":{"denomination":"catholic","historic":"wayside_cross","religion":"christian"}},
{"type":"Feature","geometry":{"type":"Point","coordinates":[0.8164544,44.7741464]},"properties":{"board_type":"history","information":"board","tourism":"information"}},
{"type":"Feature","geometry":{"type":"Point","coordinates":[0.8156039,44.7747126]},"properties":{"board_type":"history","information":"board","tourism":"information"}},
{"type":"Feature","geometry":{"type":"Point","coordinates":[0.8158864,44.7745487]},"properties":{"board_type":"history","information":"board","tourism":"information"}},
{"type":"Feature","geometry":{"type":"Point","coordinates":[0.8166039,44.7756725]},"properties":{"information":"map","tourism":"information"}},
{"type":"Feature","geometry":{"type":"Point","coordinates":[0.8167762,44.7756397]},"properties":{"hiking":"yes","horse":"yes","information":"guidepost","mtb":"yes","tourism":"information"}},
{"type":"Feature","geometry":{"type":"Point","coordinates":[0.8167752,44.7756201]},"properties":{"hiking":"yes","horse":"yes","information":"map","mtb":"yes","tourism":"information"}},
{"type":"Feature","geometry":{"type":"Point","coordinates":[0.8168365,44.7755737]},"properties":{"board_type":"notice","information":"board","tourism":"information"}},
{"type":"Feature","geometry":{"type":"Point","coordinates":[0.8141262,44.7728721]},"properties":{"board_type":"history","information":"board","tourism":"information"}},
{"type":"Feature","geometry":{"type":"Point","coordinates":[0.8249378,44.8096972]},"properties":{"hiking":"yes","horse":"yes","information":"guidepost","mtb":"yes","tourism":"information"}},
{"type":"Feature","geometry":{"type":"Point","coordinates":[0.8242967,44.8105605]},"properties":{"historic":"memorial","memorial":"war_memorial"}},
{"type":"Feature","geometry":{"type":"Point","coordinates":[0.8242796,44.8105796]},"properties":{"hiking":"yes","horse":"yes","information":"guidepost","mtb":"yes","tourism":"information"}},
{"type":"Feature","geometry":{"type":"Point","coordinates":[0.8246575,44.8111771]},"properties":{"hiking":"yes","horse":"yes","information":"guidepost","mtb":"yes","tourism":"information"}},
{"type":"Feature","geometry":{"type":"Point","coordinates":[0.9178901,44.7593395]},"properties":{"hiking":"yes","horse":"yes","information":"map","mtb":"yes","tourism":"information"}},
{"type":"Feature","geometry":{"type":"Point","coordinates":[0.9179699,44.7593718]},"properties":{"hiking":"yes","horse":"yes","information":"guidepost","mtb":"yes","tourism":"information"}},
{"type":"Feature","geometry":{"type":"Point","coordinates":[0.9181121,44.7593561]},"properties":{"denomination":"catholic","historic":"wayside_cross","religion":"christian"}},
{"type":"Feature","geometry":{"type":"Point","coordinates":[0.9386936,44.8989254]},"properties":{"tourism":"attraction"}},
{"type":"Feature","geometry":{"type":"Point","coordinates":[0.9788818,44.8064363]},"properties":{"name":"Fontaine de Barthalem","natural":"spring"}},
{"type":"Feature","geometry":{"type":"Point","coordinates":[0.9790955,44.8036642]},"properties":{"name":"Source de Fonpeyrine","natural":"spring"}},
{"type":"Feature","geometry":{"type":"Point","coordinates":[0.9709204,44.8071155]},"properties":{"natural":"spring"}},
{"type":"Feature","geometry":{"type":"Point","coordinates":[0.9709276,44.8069937]},"properties":{"name":"Fontaine du Soulleilal","natural":"spring"}},
{"type":"Feature","geometry":{"type":"Point","coordinates":[0.9757061,44.8052245]},"properties":{"access":"private","historic":"ruins","name":"Four de Barthalem","ruins":"oven"}},
{"type":"Feature","geometry":{"type":"Point","coordinates":[0.9812915,44.9049869]},"properties":{"denomination":"catholic","historic":"wayside_cross","religion":"christian"}},
{"type":"Feature","geometry":{"type":"Point","coordinates":[0.9101466,44.8468447]},"properties":{"board_type":"history","description":"La Dordogne","information":"board","tourism":"information"}},
{"type":"Feature","geometry":{"type":"Point","coordinates":[0.910105,44.8468665]},"properties":{"artist_name":"Pierre Traverse","artwork_type":"sculpture","name":"La Dordogne","start_date":"1953","tourism":"artwork"}},
{"type":"Feature","geometry":{"type":"Point","coordinates":[0.9998169,44.9033204]},"properties":{"historic":"ruins","man_made":"tower","material":"stone","tower:type":"watchtower"}},
{"type":"Feature","geometry":{"type":"Point","coordinates":[0.7979659,44.7423999]},"properties":{"historic":"memorial","memorial":"war_memorial","name":"Monument aux morts"}},
{"type":"Feature","geometry":{"type":"Point","coordinates":[0.7982581,44.7426182]},"properties":{"natural":"tree"}},
{"type":"Feature","geometry":{"type":"Point","coordinates":[0.7982098,44.7425686]},"properties":{"natural":"tree"}},
{"type":"Feature","geometry":{"type":"Point","coordinates":[0.798124,44.7424877]},"properties":{"natural":"tree"}},
{"type":"Feature","geometry":{"type":"Point","coordinates":[0.7980583,44.742441]},"properties":{"natural":"tree"}},
{"type":"Feature","geometry":{"type":"Point","coordinates":[0.7980194,44.742401]},"properties":{"natural":"tree"}},
{"type":"Feature","geometry":{"type":"Point","coordinates":[0.7981763,44.7425305]},"properties":{"leisure":"picnic_table"}},
{"type":"Feature","geometry":{"type":"Point","coordinates":[0.7981589,44.7425124]},"properties":{"leisure":"picnic_table"}},
{"type":"Feature","geometry":{"type":"Point","coordinates":[0.9315182,44.9144709]},"properties":{"historic":"castle","name":"Aquarium du Périgord noir"}},
{"type":"Feature","geometry":{"type":"Point","coordinates":[0.9492659,44.8247905]},"properties":{"tourism":"picnic_site"}},
{"type":"Feature","geometry":{"type":"Point","coordinates":[0.8108436,44.8749045]},"properties":{"natural":"tree"}},
{"type":"Feature","geometry":{"type":"Point","coordinates":[1.0043666,44.9194536]},"properties":{"description":"symbole vtt orange n°1","information":"route_marker","mtb":"yes","osmc:symbol":"white:orange_pointer","tourism":"information"}},
{"type":"Feature","geometry":{"type":"Point","coordinates":[1.0122187,44.9216244]},"properties":{"description":"symbole vtt orange n°1","information":"route_marker","mtb":"yes","osmc:symbol":"white:orange_pointer","tourism":"information"}},
{"type":"Feature","geometry":{"type":"Point","coordinates":[1.0177401,44.9202693]},"properties":{"natural":"cave_entrance"}},
{"type":"Feature","geometry":{"type":"Point","coordinates":[1.0035177,44.9180538]},"properties":{"description":"symbole vtt orange n°1","information":"route_marker","mtb":"yes","osmc:symbol":"white:orange_pointer","tourism":"information"}},
{"type":"Feature","geometry":{"type":"Point","coordinates":[1.002253,44.9154318]},"properties":{"description":"symbole vtt orange n°1","information":"route_marker","mtb":"yes","osmc:symbol":"white:orange_pointer","tourism":"information"}},
{"type":"Feature","geometry":{"type":"Point","coordinates":[0.9981036,44.9173629]},"properties":{"description":"Poteau en bois avec capuchon vert noté \"Randonnées Dordogne-Périgord\"","hiking":"yes","information":"route_marker","osmc:symbol":"green:green","tourism":"information"}},
{"type":"Feature","geometry":{"type":"Point","coordinates":[0.9934815,44.9153601]},"properties":{"description":"Poteau en bois avec capuchon vert noté \"Randonnées Dordogne-Périgord\"","hiking":"yes","information":"route_marker","osmc:symbol":"green:white:green_bar","tourism":"information"}},
{"type":"Feature","geometry":{"type":"Point","coordinates":[0.9933937,44.9159076]},"properties":{"description":"Poteau en bois avec capuchon vert noté \"Randonnées Dordogne-Périgord\"","hiking":"yes","information":"route_marker","osmc:symbol":"green:green","tourism":"information"}},
{"type":"Feature","geometry":{"type":"Point","coordinates":[1.0220752,44.9210072]},"properties":{"email":"bouffe@introweb.nl","name":"Gîte le Grabou","tourism":"chalet","website":"http://www.gitelegrabou.com"}},
{"type":"Feature","geometry":{"type":"Point","coordinates":[1.0227491,44.9217564]},"properties":{"direction_south":"La Bassetie","direction_west":"Gite le Grabou","information":"guidepost","source":"survey","tourism":"information"}},
{"type":"Feature","geometry":{"type":"Point","coordinates":[1.0227987,44.9180951]},"properties":{"description":"Poteau en bois avec capuchon vert noté \"Randonnées Dordogne-Périgord\"","hiking":"yes","information":"route_marker","osmc:symbol":"green:green","tourism":"information"}},
{"type":"Feature","geometry":{"type":"Point","coordinates":[1.0249928,44.9182552]},"properties":{"description":"Poteau en bois avec capuchon vert noté \"Randonnées Dordogne-Périgord\"","hiking":"yes","information":"route_marker","osmc:symbol":"green:green","tourism":"information"}},
{"type":"Feature","geometry":{"type":"Point","coordinates":[1.0272633,44.9203301]},"properties":{"description":"Poteau en bois avec capuchon vert noté \"Randonnées Dordogne-Périgord\"","hiking":"yes","information":"route_marker","osmc:symbol":"green:green","tourism":"information"}},
{"type":"Feature","geometry":{"type":"Point","coordinates":[1.0275536,44.9204878]},"properties":{"description":"Poteau en bois avec capuchon vert noté \"Randonnées Dordogne-Périgord\"","hiking":"yes","information":"route_marker","osmc:symbol":"green:green","tourism":"information"}},
{"type":"Feature","geometry":{"type":"Point","coordinates":[1.028896,44.9209336]},"properties":{"description":"Poteau en bois avec capuchon vert noté \"Randonnées Dordogne-Périgord\"","hiking":"yes","information":"route_marker","osmc:symbol":"green:green","tourism":"information"}},
{"type":"Feature","geometry":{"type":"Point","coordinates":[1.0290463,44.9209103]},"properties":{"description":"Poteau en bois avec capuchon vert noté \"Randonnées Dordogne-Périgord\"","hiking":"yes","information":"route_marker","osmc:symbol":"green:green","tourism":"information"}},
{"type":"Feature","geometry":{"type":"Point","coordinates":[1.0292816,44.9206577]},"properties":{"description":"Poteau en bois avec capuchon jaune noté \"Randonnées Dordogne-Périgord\" - Ecriture verte","direction_east":"Boucle de Carmensac à 1.3km - Meyrals-St Cyprien - Allas les Mines-Le Coux","direction_north":"Les Eyzies de Tayac par Boucle de la Mouthe 3.4km ROUFFIGNAC-MONTIGNAC","direction_south":"Campagne Forêt Domaniale et Boucles Le Bugue-St Chamassy","hiking":"yes","information":"guidepost","source":"survey","tourism":"information"}},
{"type":"Feature","geometry":{"type":"Point","coordinates":[1.0298127,44.9163796]},"properties":{"description":"Poteau en bois avec capuchon vert noté \"Randonnées Dordogne-Périgord\"","hiking":"yes","information":"route_marker","osmc:symbol":"green:green","tourism":"information"}},
{"type":"Feature","geometry":{"type":"Point","coordinates":[1.0263352,44.9141563]},"properties":{"description":"Poteau en bois avec capuchon vert noté \"Randonnées Dordogne-Périgord\"","hiking":"yes","information":"route_marker","osmc:symbol":"green:green","tourism":"information"}},
{"type":"Feature","geometry":{"type":"Point","coordinates":[1.0237429,44.9147541]},"properties":{"description":"Poteau en bois avec capuchon vert noté \"Randonnées Dordogne-Périgord\"","hiking":"yes","information":"route_marker","osmc:symbol":"green:green","tourism":"information"}},
{"type":"Feature","geometry":{"type":"Point","coordinates":[1.0219042,44.9147005]},"properties":{"description":"Poteau en bois avec capuchon vert noté \"Randonnées Dordogne-Périgord\"","hiking":"yes","information":"route_marker","osmc:symbol":"green:green","tourism":"information"}},
{"type":"Feature","geometry":{"type":"Point","coordinates":[1.0185796,44.9144688]},"properties":{"description":"Poteau en bois avec capuchon vert noté \"Randonnées Dordogne-Périgord\"","hiking":"yes","information":"route_marker","osmc:symbol":"green:green","tourism":"information"}},
{"type":"Feature","geometry":{"type":"Point","coordinates":[1.0171701,44.9140205]},"properties":{"email":"accromagnon24@gmail.com","name":"Gîtes Accromagnon","phone":"+33 5 53 05 77 36","source":"survey","tourism":"chalet","website":"https://www.accromagnon.fr/"}},
{"type":"Feature","geometry":{"type":"Point","coordinates":[1.0102996,44.9145257]},"properties":{"email":"aubergeetangjoli@wanadoo.fr","name":"L'Auberge de l'Étang Joli","phone":"+33 5 53 35 29 87","tourism":"guest_house","website":"https://auberge-etangjoli.fr/"}},
{"type":"Feature","geometry":{"type":"Point","coordinates":[1.0094111,44.914469]},"properties":{"description":"Poteau en bois avec capuchon vert noté \"Randonnées Dordogne-Périgord\"","hiking":"yes","information":"route_marker","osmc:symbol":"green:green","tourism":"information"}},
{"type":"Feature","geometry":{"type":"Point","coordinates":[1.0032585,44.916126]},"properties":{"description":"symbole vtt orange n°1","information":"route_marker","mtb":"yes","osmc:symbol":"white:orange_pointer","tourism":"information"}},
{"type":"Feature","geometry":{"type":"Point","coordinates":[1.0022993,44.9163967]},"properties":{"description":"symbole vtt orange n°1","information":"route_marker","mtb":"yes","osmc:symbol":"white:orange_pointer","tourism":"information"}},
{"type":"Feature","geometry":{"type":"Point","coordinates":[1.0021853,44.9164171]},"properties":{"description":"Poteau en bois avec capuchon vert noté \"Randonnées Dordogne-Périgord\"","hiking":"yes","information":"route_marker","osmc:symbol":"green:green","tourism":"information"}},
{"type":"Feature","geometry":{"type":"Point","coordinates":[0.9982049,44.9173226]},"properties":{"hiking":"yes","information":"route_marker","osmc:symbol":"green:green","symbol":"Poteau en bois avec capuchon vert noté \"Randonnées Dordogne-Périgord\"","tourism":"information"}},
{"type":"Feature","geometry":{"type":"Point","coordinates":[0.9977697,44.9185944]},"properties":{"dog":"no","email":"vero.franck92@gmail.com","level":"1","name":"Gite de Pagenal","phone":"+33 6 19 17 61 26","tourism":"chalet","website":"https://www.pagenal.fr"}},
{"type":"Feature","geometry":{"type":"Point","coordinates":[0.9966921,44.9188022]},"properties":{"description":"Poteau en bois avec capuchon vert noté \"Randonnées Dordogne-Périgord\"","hiking":"yes","information":"route_marker","osmc:symbol":"green:green","tourism":"information"}},
{"type":"Feature","geometry":{"type":"Point","coordinates":[0.9923298,44.9179538]},"properties":{"description":"Poteau en bois avec capuchon vert noté \"Randonnées Dordogne-Périgord\"","hiking":"yes","information":"route_marker","osmc:symbol":"green:green","tourism":"information"}},
{"type":"Feature","geometry":{"type":"Point","coordinates":[0.9635554,44.9041772]},"properties":{"description":"Poteau en bois avec capuchon vert noté \"Randonnées Dordogne-Périgord\"","hiking":"yes","information":"route_marker","osmc:symbol":"green:white:green_bar","tourism":"information"}},
{"type":"Feature","geometry":{"type":"Point","coordinates":[0.9847932,44.8697709]},"properties":{"description":"Poteau en bois avec capuchon vert noté \"Randonnées Dordogne-Périgord\"","hiking":"yes","information":"route_marker","osmc:symbol":"green:white:green_bar","tourism":"information"}},
{"type":"Feature","geometry":{"type":"Point","coordinates":[0.9853041,44.8703949]},"properties":{"description":"Poteau en bois avec capuchon vert noté \"Randonnées Dordogne-Périgord\"","hiking":"yes","information":"route_marker","osmc:symbol":"green:white:green_bar","tourism":"information"}},
{"type":"Feature","geometry":{"type":"Point","coordinates":[0.9849527,44.8700703]},"properties":{"bicycle":"yes","direction_northeast":"St Cyprien","information":"route_marker","tourism":"information"}},
{"type":"Feature","geometry":{"type":"Point","coordinates":[0.9852652,44.8692729]},"properties":{"name":"La Ptite Poule Rouge","phone":"+33 6 03 51 24 45","source":"survey","tourism":"guest_house","website":"https://laptitepoulerouge.com/"}},
{"type":"Feature","geometry":{"type":"Point","coordinates":[0.9752016,44.9066207]},"properties":{"leisure":"picnic_table","source":"survey"}},
{"type":"Feature","geometry":{"type":"Point","coordinates":[0.9698586,44.9069816]},"properties":{"description":"Poteau en bois avec capuchon jaune noté \"Randonnées Dordogne-Périgord\"","hiking":"yes","information":"route_marker","osmc:symbol":"yellow:white:yellow_bar","tourism":"information"}},
{"type":"Feature","geometry":{"type":"Point","coordinates":[0.9693007,44.9067936]},"properties":{"description":"Poteau en bois avec capuchon jaune noté \"Randonnées Dordogne-Périgord\"","hiking":"yes","information":"route_marker","osmc:symbol":"yellow:white:yellow_bar","tourism":"information"}},
{"type":"Feature","geometry":{"type":"Point","coordinates":[0.9687991,44.906653]},"properties":{"description":"Poteau en bois avec capuchon jaune noté \"Randonnées Dordogne-Périgord\"","hiking":"yes","information":"route_marker","osmc:symbol":"yellow:white:yellow_bar","tourism":"information"}},
{"type":"Feature","geometry":{"type":"Point","coordinates":[0.9690204,44.9067888]},"properties":{"description":"Poteau en bois avec capuchon jaune noté \"Randonnées Dordogne-Périgord\"","hiking":"yes","information":"route_marker","osmc:symbol":"yellow:white:yellow_bar","tourism":"information"}},
{"type":"Feature","geometry":{"type":"Point","coordinates":[0.9685001,44.9064545]},"properties":{"description":"Poteau en bois avec capuchon jaune noté \"Randonnées Dordogne-Périgord\"","hiking":"yes","information":"route_marker","osmc:symbol":"yellow:white:yellow_bar","tourism":"information"}},
{"type":"Feature","geometry":{"type":"Point","coordinates":[0.9673923,44.9042954]},"properties":{"description":"Poteau en bois avec capuchon jaune noté \"Randonnées Dordogne-Périgord\"","hiking":"yes","information":"route_marker","osmc:symbol":"yellow:white:yellow_bar","tourism":"information"}},
{"type":"Feature","geometry":{"type":"Point","coordinates":[0.972231,44.9005081]},"properties":{"description":"Poteau en bois avec capuchon vert noté \"Randonnées Dordogne-Périgord\"","hiking":"yes","information":"route_marker","osmc:symbol":"green:white:green_bar","tourism":"information"}},
{"type":"Feature","geometry":{"type":"Point","coordinates":[0.9722351,44.9005489]},"properties":{"description":"Poteau en bois avec capuchon jaune noté \"Randonnées Dordogne-Périgord\"","direction_north":"Château de Campagne; Boucle de la Marquise 1.7km","direction_northwest":"Audrix; Le Bugue","hiking":"yes","information":"guidepost","osmc:symbol":"yellow:white:yellow_bar","tourism":"information"}},
{"type":"Feature","geometry":{"type":"Point","coordinates":[0.9757776,44.8996814]},"properties":{"description":"symbole vtt orange n°1 et 3","information":"route_marker","mtb":"yes","osmc:symbol":"white:orange_pointer","tourism":"information"}},
{"type":"Feature","geometry":{"type":"Point","coordinates":[0.9758668,44.899636]},"properties":{"description":"Poteau en bois avec capuchon jaune noté \"Randonnées Dordogne-Périgord\"","hiking":"yes","information":"route_marker","osmc:symbol":"yellow:white:yellow_bar","tourism":"information"}},
{"type":"Feature","geometry":{"type":"Point","coordinates":[0.9769095,44.9003984]},"properties":{"description":"Poteau en bois avec capuchon jaune noté \"Randonnées Dordogne-Périgord\"","hiking":"yes","information":"route_marker","osmc:symbol":"yellow:white:yellow_bar","tourism":"information"}},
{"type":"Feature","geometry":{"type":"Point","coordinates":[0.9768371,44.9005808]},"properties":{"description":"Poteau en bois avec capuchon jaune noté \"Randonnées Dordogne-Périgord\"","hiking":"yes","information":"route_marker","osmc:symbol":"yellow:white:yellow_bar","tourism":"information"}},
{"type":"Feature","geometry":{"type":"Point","coordinates":[0.9757045,44.902938]},"properties":{"description":"Poteau en bois avec capuchon jaune noté \"Randonnées Dordogne-Périgord\"","hiking":"yes","information":"route_marker","osmc:symbol":"yellow:white:yellow_bar","tourism":"information"}},
{"type":"Feature","geometry":{"type":"Point","coordinates":[0.9698284,44.9071498]},"properties":{"description":"Poteau en bois avec capuchon jaune noté \"Randonnées Dordogne-Périgord\"","direction_southeast":"Boucle de la Marquise 3.2km; Audrix; Le Bugue","direction_west":"Château de Campagne 500m; Retour Parking 600m","hiking":"yes","information":"guidepost","osmc:symbol":"yellow:white:yellow_bar","tourism":"information"}},
{"type":"Feature","geometry":{"type":"Point","coordinates":[0.9689748,44.9073687]},"properties":{"description":"Poteau en bois avec capuchon jaune noté \"Randonnées Dordogne-Périgord\"","hiking":"yes","information":"route_marker","osmc:symbol":"yellow:white:yellow_bar","tourism":"information"}},
{"type":"Feature","geometry":{"type":"Point","coordinates":[0.9689426,44.9073336]},"properties":{"information":"board","name":"Réserve Biologique du Domaine Départemental de Campagne","source":"survey","tourism":"information"}},
{"type":"Feature","geometry":{"type":"Point","coordinates":[0.971136,44.9077434]},"properties":{"description":"symbole vtt orange n°3","information":"route_marker","mtb":"yes","osmc:symbol":"white:orange_pointer","tourism":"information"}},
{"type":"Feature","geometry":{"type":"Point","coordinates":[0.9710797,44.9077596]},"properties":{"description":"Poteau en bois avec capuchon jaune noté \"Randonnées Dordogne-Périgord\"","direction_southwest":"Boucle de la Marquise 3.5km; Château de Campagne; Audrix/Le Bugue","direction_west":"Boucle du Polissoir 1km; Boucle du Polissoir 5.1km; Les Eyzies/Saint Cyprien/Meyrals; Site d'escalade 600m / Bike Park 2.8km","hiking":"yes","information":"guidepost","osmc:symbol":"yellow:white:yellow_bar","tourism":"information"}},
{"type":"Feature","geometry":{"type":"Point","coordinates":[0.971129,44.9077401]},"properties":{"description":"Poteau en bois avec capuchon jaune noté \"Randonnées Dordogne-Périgord\"","hiking":"yes","information":"route_marker","osmc:symbol":"yellow:white:yellow_bar","tourism":"information"}},
{"type":"Feature","geometry":{"type":"Point","coordinates":[0.9743104,44.9068358]},"properties":{"information":"board","name":"Les Circuits de Randonnée","source":"survey","tourism":"information"}},
{"type":"Feature","geometry":{"type":"Point","coordinates":[0.9742896,44.9068168]},"properties":{"information":"board","name":"Les Milieux Naturels","source":"survey","tourism":"information"}},
{"type":"Feature","geometry":{"type":"Point","coordinates":[0.9743309,44.9068779]},"properties":{"description":"Poteau en bois avec capuchon jaune noté \"Randonnées Dordogne-Périgord\"","direction_west":"Boucle du Polissoir 1.2km; Boucle du Polissoir 5.3km; Boucle de la Marquise 3.7km; Les Eyzies/Saint Cyprien/Meyrals; Audrix/Le Bulgue; Site d'escalade 800m / Bike Park 3.1km","hiking":"yes","information":"guidepost","osmc:symbol":"yellow:white:yellow_bar","tourism":"information"}},
{"type":"Feature","geometry":{"type":"Point","coordinates":[0.9742427,44.9068111]},"properties":{"leisure":"picnic_table","source":"survey"}},
{"type":"Feature","geometry":{"type":"Point","coordinates":[0.9739664,44.9071274]},"properties":{"description":"symbole vtt orange n°3","information":"route_marker","mtb":"yes","osmc:symbol":"white:orange_pointer","tourism":"information"}},
{"type":"Feature","geometry":{"type":"Point","coordinates":[0.9739771,44.9074442]},"properties":{"description":"Poteau en bois avec capuchon jaune noté \"Randonnées Dordogne-Périgord\"","hiking":"yes","information":"route_marker","osmc:symbol":"yellow:white:yellow_bar","tourism":"information"}},
{"type":"Feature","geometry":{"type":"Point","coordinates":[0.970037,44.9093533]},"properties":{"description":"Poteau en bois avec capuchon jaune noté \"Randonnées Dordogne-Périgord\"","direction_north":"Liaison les Eyzies; Saint Cyprien/Meyrals; Site d'escalade 300m","direction_south":"Boucle des Cluzeaux 600m; Boucle du Polissoir 600m; Retour Parking 600m","hiking":"yes","information":"guidepost","osmc:symbol":"yellow:white:yellow_bar","tourism":"information"}},
{"type":"Feature","geometry":{"type":"Point","coordinates":[0.9699994,44.9094778]},"properties":{"description":"Poteau en bois avec capuchon jaune noté \"Randonnées Dordogne-Périgord\"","hiking":"yes","information":"route_marker","osmc:symbol":"yellow:white:yellow_bar","tourism":"information"}},
{"type":"Feature","geometry":{"type":"Point","coordinates":[0.9699116,44.9095718]},"properties":{"description":"symbole vtt orange n°3","information":"route_marker","mtb":"yes","osmc:symbol":"white:orange_pointer","tourism":"information"}},
{"type":"Feature","geometry":{"type":"Point","coordinates":[0.9701845,44.9099831]},"properties":{"description":"Poteau en bois avec capuchon jaune noté \"Randonnées Dordogne-Périgord\"","hiking":"yes","information":"route_marker","osmc:symbol":"yellow:white:yellow_bar","tourism":"information"}},
{"type":"Feature","geometry":{"type":"Point","coordinates":[0.9736848,44.9113802]},"properties":{"description":"Poteau en bois avec capuchon jaune noté \"Randonnées Dordogne-Périgord\"","hiking":"yes","information":"route_marker","osmc:symbol":"yellow:white:yellow_bar","tourism":"information"}},
{"type":"Feature","geometry":{"type":"Point","coordinates":[0.9741025,44.910193]},"properties":{"description":"Poteau en bois avec capuchon jaune noté \"Randonnées Dordogne-Périgord\"","hiking":"yes","information":"route_marker","osmc:symbol":"yellow:white:yellow_bar","tourism":"information"}},
{"type":"Feature","geometry":{"type":"Point","coordinates":[0.9746068,44.9117397]},"properties":{"description":"symbole vtt orange n°3","information":"route_marker","mtb":"yes","osmc:symbol":"white:orange_pointer","tourism":"information"}},
{"type":"Feature","geometry":{"type":"Point","coordinates":[0.9751627,44.912254]},"properties":{"description":"Poteau en bois avec capuchon jaune noté \"Randonnées Dordogne-Périgord\"","direction_west":"Point de vue","hiking":"yes","information":"guidepost","osmc:symbol":"yellow:white:yellow_bar","tourism":"information"}},
{"type":"Feature","geometry":{"type":"Point","coordinates":[0.9751627,44.912253]},"properties":{"description":"symbole vtt orange n°3","information":"route_marker","mtb":"yes","osmc:symbol":"white:orange_pointer","tourism":"information"}},
{"type":"Feature","geometry":{"type":"Point","coordinates":[0.9762978,44.9104932]},"properties":{"description":"Poteau en bois avec capuchon jaune noté \"Randonnées Dordogne-Périgord\"","hiking":"yes","information":"route_marker","osmc:symbol":"yellow:white:yellow_bar","tourism":"information"}},
{"type":"Feature","geometry":{"type":"Point","coordinates":[0.9827257,44.9114599]},"properties":{"description":"symbole vtt orange","information":"route_marker","mtb":"yes","osmc:symbol":"white:orange_pointer","tourism":"information"}},
{"type":"Feature","geometry":{"type":"Point","coordinates":[0.9827257,44.911461]},"properties":{"description":"Poteau en bois avec capuchon jaune noté \"Randonnées Dordogne-Périgord\"","direction_southeast":"Les Eyzies; Saint Cyprien/Meyrals; Bike Park 400m","direction_west":"Boucle du Polissoir 2.7 km; Le Polissoir 50m; Château de Campagne 2.2km","hiking":"yes","information":"guidepost","osmc:symbol":"yellow:white:yellow_bar","tourism":"information"}},
{"type":"Feature","geometry":{"type":"Point","coordinates":[0.9838871,44.9094379]},"properties":{"description":"Poteau en bois avec capuchon vert noté \"Randonnées Dordogne-Périgord\"","hiking":"yes","information":"route_marker","osmc:symbol":"green:white:green_bar","tourism":"information"}},
{"type":"Feature","geometry":{"type":"Point","coordinates":[0.9844778,44.9088813]},"properties":{"description":"Poteau en bois avec capuchon vert noté \"Randonnées Dordogne-Périgord\"","hiking":"yes","information":"route_marker","osmc:symbol":"green:white:green_bar","tourism":"information"}},
{"type":"Feature","geometry":{"type":"Point","coordinates":[0.9844768,44.9088831]},"properties":{"description":"symbole vtt orange n°3","direction_north":"Retour départ bike park","information":"route_marker","mtb":"yes","osmc:symbol":"white:orange_pointer","tourism":"information"}},
{"type":"Feature","geometry":{"type":"Point","coordinates":[0.9848795,44.9088317]},"properties":{"description":"Poteau en bois avec capuchon vert noté \"Randonnées Dordogne-Périgord\"","hiking":"yes","information":"route_marker","osmc:symbol":"green:white:green_bar","tourism":"information"}},
{"type":"Feature","geometry":{"type":"Point","coordinates":[0.9866355,44.9084656]},"properties":{"description":"symbole vtt orange n°3","information":"route_marker","mtb":"yes","osmc:symbol":"white:orange_pointer","tourism":"information"}},
{"type":"Feature","geometry":{"type":"Point","coordinates":[0.9866365,44.9084638]},"properties":{"description":"Poteau en bois avec capuchon vert noté \"Randonnées Dordogne-Périgord\"","hiking":"yes","information":"route_marker","osmc:symbol":"green:white:green_bar","tourism":"information"}},
{"type":"Feature","geometry":{"type":"Point","coordinates":[0.9866298,44.9082091]},"properties":{"description":"Poteau en bois avec capuchon vert noté \"Randonnées Dordogne-Périgord\"","hiking":"yes","information":"route_marker","osmc:symbol":"green:white:green_bar","tourism":"information"}},
{"type":"Feature","geometry":{"type":"Point","coordinates":[0.9914112,44.9061705]},"properties":{"description":"symbole vtt orange n°3","information":"route_marker","mtb":"yes","osmc:symbol":"white:orange_pointer","tourism":"information"}},
{"type":"Feature","geometry":{"type":"Point","coordinates":[0.991417,44.9061689]},"properties":{"description":"Poteau en bois avec capuchon vert noté \"Randonnées Dordogne-Périgord\"","direction_north":"Les Eyzies 9.4 km par la Vergnolle","direction_southwest":"Forêt de Campagne; Campagne - Le Bugue; Audrix - Le COux Bigaroque","hiking":"yes","information":"guidepost","osmc:symbol":"yellow:white:yellow_bar","tourism":"information"}},
{"type":"Feature","geometry":{"type":"Point","coordinates":[0.9914351,44.9062061]},"properties":{"description":"Poteau en bois avec capuchon vert noté \"Randonnées Dordogne-Périgord\"","hiking":"yes","information":"route_marker","osmc:symbol":"green:white:green_bar","tourism":"information"}},
{"type":"Feature","geometry":{"type":"Point","coordinates":[0.9918829,44.9068434]},"properties":{"description":"Poteau en bois avec capuchon vert noté \"Randonnées Dordogne-Périgord\"","hiking":"yes","information":"route_marker","osmc:symbol":"green:white:green_bar","tourism":"information"}},
{"type":"Feature","geometry":{"type":"Point","coordinates":[0.9907098,44.9147351]},"properties":{"description":"Poteau en bois avec capuchon vert noté \"Randonnées Dordogne-Périgord\"","hiking":"yes","information":"route_marker","osmc:symbol":"green:white:green_bar","tourism":"information"}},
{"type":"Feature","geometry":{"type":"Point","coordinates":[0.9909039,44.914866]},"properties":{"description":"Poteau en bois avec capuchon vert noté \"Randonnées Dordogne-Périgord\"","hiking":"yes","information":"route_marker","osmc:symbol":"green:white:green_bar","tourism":"information"}},
{"type":"Feature","geometry":{"type":"Point","coordinates":[0.9926071,44.9145585]},"properties":{"description":"Poteau en bois avec capuchon vert noté \"Randonnées Dordogne-Périgord\"","hiking":"yes","information":"route_marker","osmc:symbol":"green:white:green_bar","tourism":"information"}},
{"type":"Feature","geometry":{"type":"Point","coordinates":[0.8793377,44.8932031]},"properties":{"access":"customers","addr:city":"Limeuil","addr:postcode":"24510","addr:street":"Route des Poutiroux","capacity:caravans":"26","fee":"yes","name":"CAMPING LES POUTIROUX","operator":"PASCAL COUVEZ","tourism":"camp_site"}},
{"type":"Feature","geometry":{"type":"Point","coordinates":[0.8753148,44.8114223]},"properties":{"hiking":"yes","horse":"yes","information":"guidepost","mtb":"yes","tourism":"information"}},
{"type":"Feature","geometry":{"type":"Point","coordinates":[0.8703648,44.8118428]},"properties":{"highway":"trailhead","hiking":"yes","horse":"yes","information":"guidepost","mtb":"yes","tourism":"information"}},
{"type":"Feature","geometry":{"type":"Point","coordinates":[0.8703721,44.8118057]},"properties":{"hiking":"yes","horse":"yes","information":"map","mtb":"yes","tourism":"information"}},
{"type":"Feature","geometry":{"type":"Point","coordinates":[0.9108559,44.8551135]},"properties":{"lifeguard":"no","name":"Plage du Pont de Vicq","natural":"beach","supervised":"no","surface":"grass"}},
{"type":"Feature","geometry":{"type":"Point","coordinates":[0.8718238,44.812653]},"properties":{"survey:date":"2022-09-09","tourism":"viewpoint"}},
{"type":"Feature","geometry":{"type":"Point","coordinates":[0.8711044,44.8120658]},"properties":{"information":"map","survey:date":"2022-09-09","tourism":"information"}},
{"type":"Feature","geometry":{"type":"Point","coordinates":[0.872936,44.8119754]},"properties":{"information":"office","internet_access":"wlan","name":"Office de tourisme","survey:date":"2022-09-09","tourism":"information","wheelchair":"yes"}},
{"type":"Feature","geometry":{"type":"Point","coordinates":[0.9422191,44.8816445]},"properties":{"access":"yes","name":"lavoir de la Bertrandie","natural":"spring"}},
{"type":"Feature","geometry":{"type":"Point","coordinates":[0.9539065,44.8831976]},"properties":{"name":"Le Lavoir de Gravard","natural":"spring"}},
{"type":"Feature","geometry":{"type":"Point","coordinates":[0.9457596,44.8789769]},"properties":{"amenity":"lavoir","name":"Lavoir de la Servantie","natural":"spring"}},
{"type":"Feature","geometry":{"type":"Point","coordinates":[0.941769,44.8793198]},"properties":{"amenity":"lavoir","natural":"spring"}},
{"type":"Feature","geometry":{"type":"Point","coordinates":[0.9397016,44.8763514]},"properties":{"natural":"spring"}},
{"type":"Feature","geometry":{"type":"Point","coordinates":[0.94577,44.8790527]},"properties":{"natural":"spring"}},
{"type":"Feature","geometry":{"type":"Point","coordinates":[0.9428438,44.8816915]},"properties":{"name":"Pigeonnier-source","natural":"spring"}},
{"type":"Feature","geometry":{"type":"Point","coordinates":[0.9381144,44.8738651]},"properties":{"amenity":"lavoir","natural":"spring"}},
{"type":"Feature","geometry":{"type":"Point","coordinates":[0.938101,44.873926]},"properties":{"natural":"spring"}},
{"type":"Feature","geometry":{"type":"Point","coordinates":[0.9356303,44.8786015]},"properties":{"amenity":"lavoir","natural":"spring"}},
{"type":"Feature","geometry":{"type":"Point","coordinates":[0.9385549,44.8798397]},"properties":{"natural":"spring"}},
{"type":"Feature","geometry":{"type":"Point","coordinates":[0.9539533,44.8831398]},"properties":{"natural":"spring"}},
{"type":"Feature","geometry":{"type":"Point","coordinates":[0.8872794,44.8875199]},"properties":{"hiking":"yes","horse":"yes","information":"guidepost","mtb":"yes","tourism":"information"}},
{"type":"Feature","geometry":{"type":"Point","coordinates":[0.8894426,44.8826396]},"properties":{"highway":"trailhead","hiking":"yes","horse":"yes","information":"map","mtb":"yes","tourism":"information"}},
{"type":"Feature","geometry":{"type":"Point","coordinates":[0.8883637,44.8894933]},"properties":{"hiking":"yes","horse":"yes","information":"guidepost","mtb":"yes","tourism":"information"}},
{"type":"Feature","geometry":{"type":"Point","coordinates":[1.0168282,44.7256344]},"properties":{"drinking_water":"no","intermittent":"no","name":"Fontaine de Saint Pierre Thomas","natural":"spring"}},
{"type":"Feature","geometry":{"type":"Point","coordinates":[1.0077392,44.7761974]},"properties":{"historic":"memorial","memorial":"plaque","name":"Pilori"}},
{"type":"Feature","geometry":{"type":"Point","coordinates":[0.8587521,44.9051532]},"properties":{"hiking":"yes","information":"guidepost","mtb":"yes","tourism":"information"}},
{"type":"Feature","geometry":{"type":"Point","coordinates":[0.8595353,44.9055075]},"properties":{"highway":"trailhead","hiking":"yes","information":"guidepost","mtb":"yes","tourism":"information"}},
{"type":"Feature","geometry":{"type":"Point","coordinates":[0.8595259,44.9054932]},"properties":{"hiking":"yes","horse":"no","information":"map","mtb":"yes","tourism":"information"}},
{"type":"Feature","geometry":{"type":"Point","coordinates":[0.881559,44.9030938]},"properties":{"hiking":"yes","horse":"yes","information":"guidepost","mtb":"yes","tourism":"information"}},
{"type":"Feature","geometry":{"type":"Point","coordinates":[0.8600483,44.9060817]},"properties":{"hiking":"yes","horse":"yes","information":"guidepost","mtb":"yes","tourism":"information"}},
{"type":"Feature","geometry":{"type":"Point","coordinates":[0.8822899,44.8993092]},"properties":{"hiking":"yes","horse":"yes","information":"guidepost","mtb":"yes","tourism":"information"}},
{"type":"Feature","geometry":{"type":"Point","coordinates":[1.0029724,44.7759511]},"properties":{"natural":"tree"}},
{"type":"Feature","geometry":{"type":"Point","coordinates":[1.0030153,44.7760082]},"properties":{"natural":"tree"}},
{"type":"Feature","geometry":{"type":"Point","coordinates":[1.0031806,44.7758536]},"properties":{"natural":"tree"}},
{"type":"Feature","geometry":{"type":"Point","coordinates":[1.0032256,44.7758894]},"properties":{"natural":"tree"}},
{"type":"Feature","geometry":{"type":"Point","coordinates":[1.0032718,44.7759245]},"properties":{"natural":"tree"}},
{"type":"Feature","geometry":{"type":"Point","coordinates":[1.0030765,44.775977]},"properties":{"natural":"tree"}},
{"type":"Feature","geometry":{"type":"Point","coordinates":[1.003158,44.7759222]},"properties":{"natural":"tree"}},
{"type":"Feature","geometry":{"type":"Point","coordinates":[0.912187,44.8456431]},"properties":{"leisure":"fitness_centre"}},
{"type":"Feature","geometry":{"type":"Point","coordinates":[0.7971022,44.7150763]},"properties":{"hiking":"yes","horse":"yes","information":"guidepost","mtb":"yes","tourism":"information"}},
{"type":"Feature","geometry":{"type":"Point","coordinates":[0.7970949,44.7150696]},"properties":{"hiking":"yes","horse":"yes","information":"map","mtb":"yes","tourism":"information"}},
{"type":"Feature","geometry":{"type":"Point","coordinates":[0.9767845000000001,44.8952816]},"properties":{"name":"Roc de Marsal","natural":"cave_entrance","wikipedia":"fr:Roc de Marsal"}},
{"type":"Feature","geometry":{"type":"Point","coordinates":[0.9083724,44.7445132]},"properties":{"denomination":"catholic","historic":"wayside_cross","material":"wood","religion":"christian"}},
{"type":"Feature","geometry":{"type":"Point","coordinates":[0.9145318,44.7615047]},"properties":{"denomination":"catholic","historic":"wayside_cross","material":"stone","religion":"christian"}},
{"type":"Feature","geometry":{"type":"Point","coordinates":[0.9304455,44.9020377]},"properties":{"natural":"tree"}},
{"type":"Feature","geometry":{"type":"Point","coordinates":[0.9305593,44.9020475]},"properties":{"natural":"tree"}},
{"type":"Feature","geometry":{"type":"Point","coordinates":[0.9306573,44.9020445]},"properties":{"natural":"tree"}},
{"type":"Feature","geometry":{"type":"Point","coordinates":[0.9307893,44.9020143]},"properties":{"natural":"tree"}},
{"type":"Feature","geometry":{"type":"Point","coordinates":[0.9308904,44.9020626]},"properties":{"natural":"tree"}},
{"type":"Feature","geometry":{"type":"Point","coordinates":[0.9310469,44.9020731]},"properties":{"natural":"tree"}},
{"type":"Feature","geometry":{"type":"Point","coordinates":[0.9312321,44.9021161]},"properties":{"natural":"tree"}},
{"type":"Feature","geometry":{"type":"Point","coordinates":[0.9311501,44.9020588]},"properties":{"natural":"tree"}},
{"type":"Feature","geometry":{"type":"Point","coordinates":[0.9314183,44.9022307]},"properties":{"natural":"tree"}},
{"type":"Feature","geometry":{"type":"Point","coordinates":[0.9316504,44.901911]},"properties":{"natural":"tree"}},
{"type":"Feature","geometry":{"type":"Point","coordinates":[0.9316366,44.9018666]},"properties":{"natural":"tree"}},
{"type":"Feature","geometry":{"type":"Point","coordinates":[0.931693,44.9016977]},"properties":{"natural":"tree"}},
{"type":"Feature","geometry":{"type":"Point","coordinates":[0.9315184,44.9017994]},"properties":{"natural":"tree"}},
{"type":"Feature","geometry":{"type":"Point","coordinates":[0.931214,44.9016177]},"properties":{"natural":"tree"}},
{"type":"Feature","geometry":{"type":"Point","coordinates":[0.9307627,44.9016049]},"properties":{"natural":"tree"}},
{"type":"Feature","geometry":{"type":"Point","coordinates":[0.9319122,44.9024071]},"properties":{"natural":"tree"}},
{"type":"Feature","geometry":{"type":"Point","coordinates":[0.9320347,44.9023581]},"properties":{"natural":"tree"}},
{"type":"Feature","geometry":{"type":"Point","coordinates":[0.9318356,44.9021794]},"properties":{"natural":"tree"}},
{"type":"Feature","geometry":{"type":"Point","coordinates":[0.9319154,44.9020415]},"properties":{"natural":"tree"}},
{"type":"Feature","geometry":{"type":"Point","coordinates":[0.9320134,44.9019517]},"properties":{"natural":"tree"}},
{"type":"Feature","geometry":{"type":"Point","coordinates":[0.932041,44.9019314]},"properties":{"natural":"tree"}},