{"type":"FeatureCollection","features":[
{"type":"Feature","geometry":{"type":"Point","coordinates":[7.2822591,48.1360937]},"properties":{"description":"RENARD 1er RCA Escadron d'Etat-Major M 4 A4 n° 06 matricule : 420-243","historic":"tank","inscription":"RENARD","memorial":"war_memorial","name":"Char Sherman \"RENARD\"","note":"Vehicule 2e D.B.","source":"https://www.chars-francais.net/2015/index.php/classement-individuel/m-4-sherman?task=view&id=1043"}},
{"type":"Feature","geometry":{"type":"Point","coordinates":[7.2777119,48.0872617]},"properties":{"name":"Les Deux Clés","stars":"3","tourism":"hotel"}},
{"type":"Feature","geometry":{"type":"Point","coordinates":[7.3573984,48.085973]},"properties":{"addr:housenumber":"2","source":"cadastre-dgi-fr source : Direction Générale des Impôts - Cadastre. Mise à jour : 2010"}},
{"type":"Feature","geometry":{"type":"Point","coordinates":[7.3576749,48.0858528]},"properties":{"addr:housenumber":"17","source":"cadastre-dgi-fr source : Direction Générale des Impôts - Cadastre. Mise à jour : 2010"}},
{"type":"Feature","geometry":{"type":"Point","coordinates":[7.2802287,48.0864729]},"properties":{"historic":"monument","source":"cadastre-dgi-fr source : Direction Générale des Impôts - Cadastre. Mise à jour : 2010"}},
{"type":"Feature","geometry":{"type":"Point","coordinates":[7.278694,48.1256875]},"properties":{"name":"Gites d'Hotes Thomas","tourism":"guest_house"}},
{"type":"Feature","geometry":{"type":"Point","coordinates":[7.2816432,48.1243023]},"properties":{"information":"office","name":"Office de Tourisme","tourism":"information"}},
{"type":"Feature","geometry":{"type":"Point","coordinates":[7.2788874,48.1249157]},"properties":{"name":"Gites d'Hotes Thomas","tourism":"guest_house"}},
{"type":"Feature","geometry":{"type":"Point","coordinates":[7.2726595,48.153707]},"properties":{"historic":"wayside_shrine","name":"Chêne de la Chapelle","religion":"christian","wheelchair":"no"}},
{"type":"Feature","geometry":{"type":"Point","coordinates":[7.2872247,48.1895969]},"properties":{"access":"yes","historic":"ruins","historic:civilization":"medieval","name":"Ruines couvent des Dominicaines de Sylo","ruins":"church"}},
{"type":"Feature","geometry":{"type":"Point","coordinates":[7.2969331,48.1340338]},"properties":{"historic":"wayside_cross","name":"Calvaire","source":"cadastre-dgi-fr source : Direction Générale des Impôts - Cadastre. Mise à jour : 2010"}},
{"type":"Feature","geometry":{"type":"Point","coordinates":[7.3006816,48.1346492]},"properties":{"historic":"wayside_cross","name":"Calvaire","source":"cadastre-dgi-fr source : Direction Générale des Impôts - Cadastre. Mise à jour : 2010"}},
{"type":"Feature","geometry":{"type":"Point","coordinates":[7.3012007,48.1377622]},"properties":{"historic":"wayside_cross","name":"Calvaire","source":"cadastre-dgi-fr source : Direction Générale des Impôts - Cadastre. Mise à jour : 2010"}},
{"type":"Feature","geometry":{"type":"Point","coordinates":[7.2847771,48.1362586]},"properties":{"historic":"memorial","memorial":"war_memorial","name":"Monument aux Morts","source":"cadastre-dgi-fr source : Direction Générale des Impôts - Cadastre. Mise à jour : 2010"}},
{"type":"Feature","geometry":{"type":"Point","coordinates":[7.287645,48.1374477]},"properties":{"historic":"wayside_cross","name":"Calvaire","source":"cadastre-dgi-fr source : Direction Générale des Impôts - Cadastre. Mise à jour : 2010"}},
{"type":"Feature","geometry":{"type":"Point","coordinates":[7.2711732,48.1244506]},"properties":{"historic":"wayside_cross","name":"Calvaire","religion":"christian","source":"cadastre-dgi-fr source : Direction Générale des Impôts - Cadastre. Mise à jour : 2010"}},
{"type":"Feature","geometry":{"type":"Point","coordinates":[7.2670467,48.1251616]},"properties":{"historic":"wayside_cross","name":"Calvaire","source":"cadastre-dgi-fr source : Direction Générale des Impôts - Cadastre. Mise à jour : 2010"}},
{"type":"Feature","geometry":{"type":"Point","coordinates":[7.2676161,48.1247622]},"properties":{"historic":"wayside_cross","name":"Calvaire","source":"cadastre-dgi-fr source : Direction Générale des Impôts - Cadastre. Mise à jour : 2010"}},
{"type":"Feature","geometry":{"type":"Point","coordinates":[7.2858374,48.108025]},"properties":{"historic":"wayside_cross","name":"Calvaire","source":"cadastre-dgi-fr source : Direction Générale des Impôts - Cadastre. Mise à jour : 2010"}},
{"type":"Feature","geometry":{"type":"Point","coordinates":[7.2786586,48.1071743]},"properties":{"historic":"wayside_cross","name":"Calvaire","source":"cadastre-dgi-fr source : Direction Générale des Impôts - Cadastre. Mise à jour : 2010"}},
{"type":"Feature","geometry":{"type":"Point","coordinates":[7.285511,48.1093122]},"properties":{"historic":"wayside_cross","name":"Calvaire","source":"cadastre-dgi-fr source : Direction Générale des Impôts - Cadastre. Mise à jour : 2010"}},
{"type":"Feature","geometry":{"type":"Point","coordinates":[7.2584983,48.1816343]},"properties":{"ele":"693","name":"Col de Brudermatt","natural":"saddle"}},
{"type":"Feature","geometry":{"type":"Point","coordinates":[7.2976589,48.1668889]},"properties":{"addr:city":"Riquewihr","addr:country":"FR","addr:housenumber":"1","addr:postcode":"68340","addr:street":"Rue des Trois Églises"}},
{"type":"Feature","geometry":{"type":"Point","coordinates":[7.2984452,48.166649]},"properties":{"addr:city":"Riquewihr","addr:country":"FR","addr:housenumber":"16","addr:postcode":"68340","addr:street":"Rue du Général de Gaulle"}},
{"type":"Feature","geometry":{"type":"Point","coordinates":[7.2953295,48.1672829]},"properties":{"addr:city":"Riquewihr","addr:country":"FR","addr:housenumber":"64","addr:postcode":"68340","addr:street":"Rue du Général de Gaulle"}},
{"type":"Feature","geometry":{"type":"Point","coordinates":[7.2990051,48.1661381]},"properties":{"addr:city":"Riquewihr","addr:country":"FR","addr:housenumber":"2","addr:postcode":"68340","addr:street":"Cour du Château"}},
{"type":"Feature","geometry":{"type":"Point","coordinates":[7.2962515,48.1672233]},"properties":{"addr:city":"Riquewihr","addr:country":"FR","addr:housenumber":"52","addr:postcode":"68340","addr:street":"Rue du Général de Gaulle"}},
{"type":"Feature","geometry":{"type":"Point","coordinates":[7.2837988,48.1442746]},"properties":{"historic":"wayside_cross","name":"Calvaire","source":"cadastre-dgi-fr source : Direction Générale des Impôts - Cadastre. Mise à jour : 2010"}},
{"type":"Feature","geometry":{"type":"Point","coordinates":[7.2667589,48.1380824]},"properties":{"historic":"wayside_cross","name":"Calvaire","source":"cadastre-dgi-fr source : Direction Générale des Impôts - Cadastre. Mise à jour : 2010"}},
{"type":"Feature","geometry":{"type":"Point","coordinates":[7.2640454,48.1375347]},"properties":{"historic":"monument","name":"Monument Geiler","source":"cadastre-dgi-fr source : Direction Générale des Impôts - Cadastre. Mise à jour : 2010"}},
{"type":"Feature","geometry":{"type":"Point","coordinates":[7.351053,48.1994931]},"properties":{"tourism":"viewpoint"}},
{"type":"Feature","geometry":{"type":"Point","coordinates":[7.3025765,48.0983627]},"properties":{"addr:housenumber":"19","source":"cadastre-dgi-fr source : Direction Générale des Impôts - Cadastre. Mise à jour : 2010"}},
{"type":"Feature","geometry":{"type":"Point","coordinates":[7.302565,48.0984517]},"properties":{"addr:housenumber":"17","source":"cadastre-dgi-fr source : Direction Générale des Impôts - Cadastre. Mise à jour : 2010"}},
{"type":"Feature","geometry":{"type":"Point","coordinates":[7.3165689,48.1960595]},"properties":{"addr:city":"Ribeauvillé","addr:country":"FR","addr:housenumber":"5","addr:postcode":"68150","addr:street":"Place de la Sinne","source":"cadastre-dgi-fr source : Direction Générale des Impôts - Cadastre. Mise à jour : 2010"}},
{"type":"Feature","geometry":{"type":"Point","coordinates":[7.3133536,48.1965571]},"properties":{"addr:city":"Ribeauvillé","addr:country":"FR","addr:housenumber":"122","addr:postcode":"68150","addr:street":"Grand'Rue","source":"cadastre-dgi-fr source : Direction Générale des Impôts - Cadastre. Mise à jour : 2010"}},
{"type":"Feature","geometry":{"type":"Point","coordinates":[7.3193115,48.1948574]},"properties":{"addr:city":"Ribeauvillé","addr:country":"FR","addr:housenumber":"1","addr:postcode":"68150","addr:street":"Rue de la Mairie","source":"cadastre-dgi-fr source : Direction Générale des Impôts - Cadastre. Mise à jour : 2010"}},
{"type":"Feature","geometry":{"type":"Point","coordinates":[7.3167254,48.1959393]},"properties":{"addr:city":"Ribeauvillé","addr:country":"FR","addr:housenumber":"6","addr:postcode":"68150","addr:street":"Place de la Sinne","source":"cadastre-dgi-fr source : Direction Générale des Impôts - Cadastre. Mise à jour : 2010"}},
{"type":"Feature","geometry":{"type":"Point","coordinates":[7.3246558,48.1929473]},"properties":{"historic":"wayside_cross","name":"Calvaire","source":"cadastre-dgi-fr source : Direction Générale des Impôts - Cadastre. Mise à jour : 2010"}},
{"type":"Feature","geometry":{"type":"Point","coordinates":[7.3239367,48.1932073]},"properties":{"addr:city":"Ribeauvillé","addr:country":"FR","addr:housenumber":"2","addr:postcode":"68150","addr:street":"Grand'Rue","source":"cadastre-dgi-fr source : Direction Générale des Impôts - Cadastre. Mise à jour : 2010"}},
{"type":"Feature","geometry":{"type":"Point","coordinates":[7.316718,48.1967202]},"properties":{"historic":"wayside_cross","name":"Calvaire","source":"cadastre-dgi-fr source : Direction Générale des Impôts - Cadastre. Mise à jour : 2010"}},
{"type":"Feature","geometry":{"type":"Point","coordinates":[7.2740859,48.0998204]},"properties":{"amenity":"restaurant","name":"Hôtel-Restaurant à l'Ange","tourism":"hotel"}},
{"type":"Feature","geometry":{"type":"Point","coordinates":[7.3009951,48.1300146]},"properties":{"barrier":"bollard","bollard":"removable"}},
{"type":"Feature","geometry":{"type":"Point","coordinates":[7.2952256,48.1672264]},"properties":{"barrier":"bollard","bollard":"rising"}},
{"type":"Feature","geometry":{"type":"Point","coordinates":[7.3136157,48.1946913]},"properties":{"historic":"wayside_cross","name":"Calvaire","source":"cadastre-dgi-fr source : Direction Générale des Impôts - Cadastre. Mise à jour : 2010"}},
{"type":"Feature","geometry":{"type":"Point","coordinates":[7.3126671,48.1969253]},"properties":{"amenity":"restaurant","name":"Aux Trois Châteaux","opening_hours:kitchen":"Mo,Tu,Fr-Su 12:00-13:45, 18:45-20:45","source":"cadastre-dgi-fr source : Direction Générale des Impôts - Cadastre. Mise à jour : 2010","tourism":"hotel"}},
{"type":"Feature","geometry":{"type":"Point","coordinates":[7.3107542,48.1972705]},"properties":{"historic":"wayside_cross","inscription":"O Crux ave spec unica","name":"Calvaire","source":"cadastre-dgi-fr source : Direction Générale des Impôts - Cadastre. Mise à jour : 2010","start_date":"1901"}},
{"type":"Feature","geometry":{"type":"Point","coordinates":[7.3245717,48.1922026]},"properties":{"addr:housenumber":"8","source":"cadastre-dgi-fr source : Direction Générale des Impôts - Cadastre. Mise à jour : 2010"}},
{"type":"Feature","geometry":{"type":"Point","coordinates":[7.321511,48.1947721]},"properties":{"historic":"wayside_cross","name":"Calvaire","source":"cadastre-dgi-fr source : Direction Générale des Impôts - Cadastre. Mise à jour : 2010"}},
{"type":"Feature","geometry":{"type":"Point","coordinates":[7.3240776,48.1941916]},"properties":{"historic":"wayside_cross","name":"Calvaire","source":"cadastre-dgi-fr source : Direction Générale des Impôts - Cadastre. Mise à jour : 2010"}},
{"type":"Feature","geometry":{"type":"Point","coordinates":[7.3193259,48.1959949]},"properties":{"historic":"wayside_cross","name":"Calvaire","source":"cadastre-dgi-fr source : Direction Générale des Impôts - Cadastre. Mise à jour : 2010"}},
{"type":"Feature","geometry":{"type":"Point","coordinates":[7.3250216,48.1426455]},"properties":{"historic":"wayside_cross","name":"Calvaire","source":"cadastre-dgi-fr source : Direction Générale des Impôts - Cadastre. Mise à jour : 2010"}},
{"type":"Feature","geometry":{"type":"Point","coordinates":[7.3245527,48.1448138]},"properties":{"heritage":"3","heritage:operator":"mhs","historic":"memorial","memorial":"war_memorial","mhs:inscription_date":"1996-06-21","name":"Monument de la Fidélité","ref:mhs":"PA68000001","source":"cadastre-dgi-fr source : Direction Générale des Impôts - Cadastre. Mise à jour : 2010","source:heritage":"Ministère de la Culture - 06/2019","start_date":"C20","wikidata":"Q15952790","wikipedia":"fr:Monument de la Fidélité"}},
{"type":"Feature","geometry":{"type":"Point","coordinates":[7.3152536,48.1501341]},"properties":{"addr:city":"Mittelwihr","addr:country":"FR","addr:housenumber":"16","addr:postcode":"68630","addr:street":"Rue du Bouxhof","source":"cadastre-dgi-fr source : Direction Générale des Impôts - Cadastre. Mise à jour : 2010"}},
{"type":"Feature","geometry":{"type":"Point","coordinates":[7.3205257,48.1506109]},"properties":{"addr:city":"Mittelwihr","addr:country":"FR","addr:housenumber":"19","addr:postcode":"68630","addr:street":"Place des Cigognes","source":"cadastre-dgi-fr source : Direction Générale des Impôts - Cadastre. Mise à jour : 2010"}},
{"type":"Feature","geometry":{"type":"Point","coordinates":[7.3219268,48.1481616]},"properties":{"historic":"wayside_cross","name":"Croix","source":"cadastre-dgi-fr source : Direction Générale des Impôts - Cadastre. Mise à jour : 2010"}},
{"type":"Feature","geometry":{"type":"Point","coordinates":[7.3250213,48.1426454]},"properties":{"historic":"wayside_cross","name":"Calvaire","source":"cadastre-dgi-fr source : Direction Générale des Impôts - Cadastre. Mise à jour : 2010"}},
{"type":"Feature","geometry":{"type":"Point","coordinates":[7.3251561,48.1464796]},"properties":{"addr:city":"Bennwihr","addr:country":"FR","addr:housenumber":"7","addr:postcode":"68630","addr:street":"Rue du Maréchal de Lattre de Tassigny","source":"cadastre-dgi-fr source : Direction Générale des Impôts - Cadastre. Mise à jour : 2010"}},
{"type":"Feature","geometry":{"type":"Point","coordinates":[7.322019,48.1524741]},"properties":{"addr:city":"Mittelwihr","addr:country":"FR","addr:housenumber":"1a","addr:postcode":"68630","addr:street":"Mandelbergweg","source":"cadastre-dgi-fr source : Direction Générale des Impôts - Cadastre. Mise à jour : 2010"}},
{"type":"Feature","geometry":{"type":"Point","coordinates":[7.2993505,48.166324]},"properties":{"addr:city":"Riquewihr","addr:country":"FR","addr:housenumber":"1","addr:postcode":"68340","addr:street":"Rue du Général de Gaulle","source":"cadastre-dgi-fr source : Direction Générale des Impôts - Cadastre. Mise à jour : 2010"}},
{"type":"Feature","geometry":{"type":"Point","coordinates":[7.2782336,48.0868261]},"properties":{"information":"office","name":"Office De Tourisme","opening_hours":"Mo-Sa 09:00-13:00,14:00-17:00","tourism":"information"}},
{"type":"Feature","geometry":{"type":"Point","coordinates":[7.2975709,48.1672362]},"properties":{"historic":"memorial","memorial":"war_memorial","name":"Monument aux Morts","source":"cadastre-dgi-fr source : Direction Générale des Impôts - Cadastre. Mise à jour : 2010"}},
{"type":"Feature","geometry":{"type":"Point","coordinates":[7.2956814,48.167218]},"properties":{"addr:city":"Riquewihr","addr:country":"FR","addr:housenumber":"57","addr:postcode":"68340","addr:street":"Rue du Général de Gaulle","source":"cadastre-dgi-fr source : Direction Générale des Impôts - Cadastre. Mise à jour : 2010"}},
{"type":"Feature","geometry":{"type":"Point","coordinates":[7.3267173,48.1578384]},"properties":{"addr:city":"Beblenheim","addr:country":"FR","addr:housenumber":"4","addr:postcode":"68980","addr:street":"Rue des Raisins","source":"cadastre-dgi-fr source : Direction Générale des Impôts - Cadastre. Mise à jour : 2010"}},
{"type":"Feature","geometry":{"type":"Point","coordinates":[7.3280575,48.1584711]},"properties":{"addr:city":"Beblenheim","addr:country":"FR","addr:housenumber":"8","addr:postcode":"68980","addr:street":"Rue de la Grande Cave","source":"cadastre-dgi-fr source : Direction Générale des Impôts - Cadastre. Mise à jour : 2010"}},
{"type":"Feature","geometry":{"type":"Point","coordinates":[7.3189577,48.1680285]},"properties":{"addr:city":"Zellenberg","addr:country":"FR","addr:housenumber":"59a","addr:postcode":"68340","addr:street":"Rue de la Fontaine","source":"cadastre-dgi-fr source : Direction Générale des Impôts - Cadastre. Mise à jour : 2010"}},
{"type":"Feature","geometry":{"type":"Point","coordinates":[7.325505,48.1924816]},"properties":{"historic":"monument","name":"Monument","source":"cadastre-dgi-fr source : Direction Générale des Impôts - Cadastre. Mise à jour : 2010"}},
{"type":"Feature","geometry":{"type":"Point","coordinates":[7.2773366,48.0867843]},"properties":{"addr:city":"Turckheim","addr:country":"FR","addr:housenumber":"8","addr:postcode":"68230","addr:street":"Grand'Rue","source":"cadastre-dgi-fr source : Direction Générale des Impôts - Cadastre. Mise à jour : 2010"}},
{"type":"Feature","geometry":{"type":"Point","coordinates":[7.2781001,48.0868554]},"properties":{"name":"Corps de Garde","source":"cadastre-dgi-fr source : Direction Générale des Impôts - Cadastre. Mise à jour : 2010","tourism":"attraction"}},
{"type":"Feature","geometry":{"type":"Point","coordinates":[7.2778905,48.0871882]},"properties":{"addr:city":"Turckheim","addr:country":"FR","addr:housenumber":"3","addr:postcode":"68230","addr:street":"Rue du Conseil","source":"cadastre-dgi-fr source : Direction Générale des Impôts - Cadastre. Mise à jour : 2010"}},
{"type":"Feature","geometry":{"type":"Point","coordinates":[7.2777586,48.0868585]},"properties":{"addr:city":"Turckheim","addr:country":"FR","addr:housenumber":"2","addr:postcode":"68230","addr:street":"Grand'Rue","source":"cadastre-dgi-fr source : Direction Générale des Impôts - Cadastre. Mise à jour : 2010"}},
{"type":"Feature","geometry":{"type":"Point","coordinates":[7.2778456,48.0863199]},"properties":{"addr:city":"Turckheim","addr:country":"FR","addr:housenumber":"4","addr:postcode":"68230","addr:street":"Rue du Tir","source":"cadastre-dgi-fr source : Direction Générale des Impôts - Cadastre. Mise à jour : 2010"}},
{"type":"Feature","geometry":{"type":"Point","coordinates":[7.277074,48.0866642]},"properties":{"addr:city":"Turckheim","addr:country":"FR","addr:housenumber":"13","addr:postcode":"68230","addr:street":"Grand'Rue","source":"cadastre-dgi-fr source : Direction Générale des Impôts - Cadastre. Mise à jour : 2010"}},
{"type":"Feature","geometry":{"type":"Point","coordinates":[7.2751571,48.0864293]},"properties":{"addr:city":"Turckheim","addr:country":"FR","addr:housenumber":"49","addr:postcode":"68230","addr:street":"Rue des Fossés","source":"cadastre-dgi-fr source : Direction Générale des Impôts - Cadastre. Mise à jour : 2010"}},
{"type":"Feature","geometry":{"type":"Point","coordinates":[7.2723937,48.0862037]},"properties":{"addr:city":"Turckheim","addr:country":"FR","addr:housenumber":"85","addr:postcode":"68230","addr:street":"Grand'Rue","source":"cadastre-dgi-fr source : Direction Générale des Impôts - Cadastre. Mise à jour : 2010"}},
{"type":"Feature","geometry":{"type":"Point","coordinates":[7.2733814,48.086301]},"properties":{"addr:city":"Turckheim","addr:country":"FR","addr:housenumber":"71","addr:postcode":"68230","addr:street":"Grand'Rue","source":"cadastre-dgi-fr source : Direction Générale des Impôts - Cadastre. Mise à jour : 2010"}},
{"type":"Feature","geometry":{"type":"Point","coordinates":[7.2735854,48.0863743]},"properties":{"addr:city":"Turckheim","addr:country":"FR","addr:housenumber":"62","addr:postcode":"68230","addr:street":"Rue des Écoles","source":"cadastre-dgi-fr source : Direction Générale des Impôts - Cadastre. Mise à jour : 2010"}},
{"type":"Feature","geometry":{"type":"Point","coordinates":[7.2655354,48.138797]},"properties":{"addr:city":"Kaysersberg","addr:country":"FR","addr:housenumber":"13","addr:postcode":"68240","addr:street":"Rue du Général de Gaulle","addr:suburb":"Kaysersberg","amenity":"restaurant","cuisine":"french","name":"Le Chambard","phone":"+33 389471017","source":"http://www.lechambard.fr/","source:date":"2016-04-01","stars":"5","tourism":"hotel","website":"http://www.lechambard.fr/"}},
{"type":"Feature","geometry":{"type":"Point","coordinates":[7.2640125,48.1388863]},"properties":{"check_date":"2024-05-03","information":"office","name":"Office du Tourisme","source":"survey","tourism":"information"}},
{"type":"Feature","geometry":{"type":"Point","coordinates":[7.2589573,48.1408261]},"properties":{"addr:city":"Kaysersberg","addr:country":"FR","addr:housenumber":"126","addr:postcode":"68240","addr:street":"Rue du Général de Gaulle","source":"survey"}},
{"type":"Feature","geometry":{"type":"Point","coordinates":[7.2627294,48.1385744]},"properties":{"addr:city":"Kaysersberg","addr:country":"FR","addr:housenumber":"10","addr:postcode":"68240","addr:street":"Rue du Père Kohlmann","addr:suburb":"Kaysersberg","email":"reservation@hotel-constantin.com","fax":"+33 389473782","name":"Hôtel Constantin","phone":"+33 389471990","source":"http://www.hotel-constantin.com/","source:date":"2016-04-01","stars":"3","tourism":"hotel","website":"http://www.hotel-constantin.com/"}},
{"type":"Feature","geometry":{"type":"Point","coordinates":[7.2594275,48.1405967]},"properties":{"addr:city":"Kaysersberg","addr:country":"FR","addr:housenumber":"129","addr:postcode":"68240","addr:street":"Rue du Général de Gaulle","addr:suburb":"Kaysersberg","name":"Chez Roger Hassenforder","opening_hours":"12:00-14:15,19:00-21:15","operator":"Roger Hassenforder","outdoor_seating":"terrace","phone":"+33 389471354","source":"http://www.roger-hassenforder.com/","source:date":"2016-04-01","tourism":"hotel","website":"http://www.roger-hassenforder.com/"}},
{"type":"Feature","geometry":{"type":"Point","coordinates":[7.2796095,48.1753907]},"properties":{"tourism":"picnic_site"}},
{"type":"Feature","geometry":{"type":"Point","coordinates":[7.2591917,48.1415927]},"properties":{"addr:city":"Kaysersberg","addr:country":"FR","addr:housenumber":"5","addr:postcode":"68240","addr:street":"Place Gouraud"}},
{"type":"Feature","geometry":{"type":"Point","coordinates":[7.2601297,48.1422953]},"properties":{"addr:city":"Kaysersberg","addr:country":"FR","addr:housenumber":"4","addr:postcode":"68240","addr:street":"Rue de la Flieh","source":"cadastre-dgi-fr source : Direction Générale des Impôts - Cadastre. Mise à jour : 2010"}},
{"type":"Feature","geometry":{"type":"Point","coordinates":[7.3253298,48.1396976]},"properties":{"direction":"both","traffic_calming":"table"}},
{"type":"Feature","geometry":{"type":"Point","coordinates":[7.287381,48.1370835]},"properties":{"barrier":"gate","source":"survey"}},
{"type":"Feature","geometry":{"type":"Point","coordinates":[7.246564,48.1078766]},"properties":{"tourism":"viewpoint"}},
{"type":"Feature","geometry":{"type":"Point","coordinates":[7.2479556,48.1052437]},"properties":{"ele":"636","name":"Rocher du Pfaffenrod","natural":"stone","source":"survey","tourism":"viewpoint"}},
{"type":"Feature","geometry":{"type":"Point","coordinates":[7.2907575,48.1009061]},"properties":{"access":"no","name":"Grotte de Florimont","natural":"cave_entrance"}},
{"type":"Feature","geometry":{"type":"Point","coordinates":[7.3022284,48.2005184]},"properties":{"historic":"wayside_shrine","name":"Marienbild"}},
{"type":"Feature","geometry":{"type":"Point","coordinates":[7.2461753,48.0942234]},"properties":{"tourism":"viewpoint"}},
{"type":"Feature","geometry":{"type":"Point","coordinates":[7.2473009,48.0907306]},"properties":{"historic":"wayside_cross"}},
{"type":"Feature","geometry":{"type":"Point","coordinates":[7.2708247,48.0904277]},"properties":{"historic":"memorial","name":"Mémorial AEDEIF"}},
{"type":"Feature","geometry":{"type":"Point","coordinates":[7.2524259,48.130531]},"properties":{"denomination":"catholic","ele":"446.00","historic":"wayside_shrine","name":"Chapelle Flieger","religion":"christian","source":"survey"}},
{"type":"Feature","geometry":{"type":"Point","coordinates":[7.2487099,48.1886502]},"properties":{"ele":"945","name":"Koenigsstuhl","name:de":"Königsstuhl","natural":"peak"}},
{"type":"Feature","geometry":{"type":"Point","coordinates":[7.266207,48.1923959]},"properties":{"tourism":"picnic_site"}},
{"type":"Feature","geometry":{"type":"Point","coordinates":[7.3386978,48.1564162]},"properties":{"source":"cadastre-dgi-fr source : Direction Générale des Impôts - Cadastre. Mise à jour : 2011","tourism":"picnic_site"}},
{"type":"Feature","geometry":{"type":"Point","coordinates":[7.342392,48.1608307]},"properties":{"source":"cadastre-dgi-fr source : Direction Générale des Impôts - Cadastre. Mise à jour : 2011","tourism":"picnic_site"}},
{"type":"Feature","geometry":{"type":"Point","coordinates":[7.3188498,48.1342417]},"properties":{"historic":"wayside_cross","name":"Calvaire","source":"cadastre-dgi-fr source : Direction Générale des Impôts - Cadastre. Mise à jour : 2011"}},
{"type":"Feature","geometry":{"type":"Point","coordinates":[7.2798361,48.1760781]},"properties":{"tourism":"picnic_site"}},
{"type":"Feature","geometry":{"type":"Point","coordinates":[7.3214614,48.1797844]},"properties":{"access":"customers","leisure":"playground"}},
{"type":"Feature","geometry":{"type":"Point","coordinates":[7.2850839,48.1259272]},"properties":{"addr:city":"Ammerschwihr","addr:country":"FR","addr:housenumber":"1","addr:postcode":"68770","addr:street":"Route du Vin","name":"Domaine Maurice Griss","shop":"alcohol","tasting":"yes","tourism":"winery","wine":"yes"}},
{"type":"Feature","geometry":{"type":"Point","coordinates":[7.355822,48.0932116]},"properties":{"artist_name":"Guillaume Roche","artwork_type":"sculpture","historic":"monument","name":"Sculpture Liebherr (Exclos 72)","start_date":"2011","tourism":"artwork"}},
{"type":"Feature","geometry":{"type":"Point","coordinates":[7.2712946,48.0903015]},"properties":{"amenity":"bench","tourism":"viewpoint"}},
{"type":"Feature","geometry":{"type":"Point","coordinates":[7.2548811,48.089026]},"properties":{"historic":"wayside_cross"}},
{"type":"Feature","geometry":{"type":"Point","coordinates":[7.3059178,48.1169144]},"properties":{"historic":"wayside_cross","name":"Calvaire","source":"cadastre-dgi-fr source : Direction Générale des Impôts - Cadastre. Mise à jour : 2011"}},
{"type":"Feature","geometry":{"type":"Point","coordinates":[7.3051551,48.1076846]},"properties":{"historic":"wayside_cross","name":"Calvaire","source":"cadastre-dgi-fr source : Direction Générale des Impôts - Cadastre. Mise à jour : 2011"}},
{"type":"Feature","geometry":{"type":"Point","coordinates":[7.2615385,48.1389914]},"properties":{"addr:city":"Kaysersberg","addr:country":"FR","addr:housenumber":"60","addr:postcode":"68240","addr:street":"Rue du Général de Gaulle","addr:suburb":"Kaysersberg","email":"kappjj@hotmail.fr","name":"Les Loges du Capucin","operator":"Jean-Jacques et Gabrielle Kapp","phone":"+33 389782052","rooms":"5","source":"http://www.lecapucin.info/","source:date":"2016-04-01","tourism":"guest_house","website":"http://www.lecapucin.info/"}},
{"type":"Feature","geometry":{"type":"Point","coordinates":[7.2611698,48.1399267]},"properties":{"board_type":"history","check_date":"2024-05-04","information":"board","name":"Maison Herzer 1592","source":"survey","tourism":"information"}},
{"type":"Feature","geometry":{"type":"Point","coordinates":[7.2599756,48.1401407]},"properties":{"addr:city":"Kaysersberg","addr:country":"FR","addr:housenumber":"115","addr:postcode":"68240","addr:street":"Rue du Général de Gaulle","addr:suburb":"Kaysersberg","fixme":"name?","source":"survey","tourism":"guest_house"}},
{"type":"Feature","geometry":{"type":"Point","coordinates":[7.2612014,48.1397484]},"properties":{"addr:housenumber":"99","addr:street":"Rue du Général de Gaulle","addr:suburb":"Kaysersberg","check_date":"2024-05-05","name":"Sur le Pont de Kaysersberg","network":"Gîtes de France","source":"cadastre-dgi-fr source : Direction Générale des Impôts - Cadastre. Mise à jour : 2010","tourism":"guest_house"}},
{"type":"Feature","geometry":{"type":"Point","coordinates":[7.2611695,48.1399246]},"properties":{"board_type":"history","information":"board","ref":"14","source":"survey","tourism":"information"}},
{"type":"Feature","geometry":{"type":"Point","coordinates":[7.260981,48.1400068]},"properties":{"board_type":"notice","information":"board","ref":"15","source":"survey","tourism":"information"}},
{"type":"Feature","geometry":{"type":"Point","coordinates":[7.2975639,48.1667735]},"properties":{"check_date":"2022-09-28","information":"office","source":"survey","tourism":"information"}},
{"type":"Feature","geometry":{"type":"Point","coordinates":[7.3042867,48.1794459]},"properties":{"tourism":"picnic_site"}},
{"type":"Feature","geometry":{"type":"Point","coordinates":[7.2554473,48.1785132]},"properties":{"name":"Fontaine","natural":"spring","source":"cadastre-dgi-fr source : Direction Générale des Impôts - Cadastre."}},
{"type":"Feature","geometry":{"type":"Point","coordinates":[7.2578925,48.1913698]},"properties":{"name":"Sapin des Français","natural":"tree","source":"cadastre-dgi-fr source : Direction Générale des Impôts - Cadastre."}},
{"type":"Feature","geometry":{"type":"Point","coordinates":[7.3109536,48.1787112]},"properties":{"tourism":"picnic_site"}},
{"type":"Feature","geometry":{"type":"Point","coordinates":[7.2737118,48.1878203]},"properties":{"ele":"676","name":"Col de Seelacker","natural":"saddle"}},
{"type":"Feature","geometry":{"type":"Point","coordinates":[7.2593352,48.1409457]},"properties":{"addr:city":"Kaysersberg-Vignoble","addr:housenumber":"1","addr:postcode":"68240","addr:street":"Rue Haute du Rempart","addr:suburb":"Kaysersberg","amenity":"restaurant","cuisine":"regional;burger;meat","delivery":"no","email":"arbrevertkaysersberg@orange.fr","fax":"+33 3 69 63 82 60","name":"L'Arbre Vert","outdoor_seating":"yes","phone":"+33 3 89 47 11 51","source":"http://www.hotel-restaurant-arbrevert.com/","source:date":"2016-04-01","tourism":"hotel","website":"http://www.hotel-restaurant-arbrevert.com/"}},
{"type":"Feature","geometry":{"type":"Point","coordinates":[7.2708512,48.0904387]},"properties":{"historic":"wayside_cross","name":"Calvaire","source":"cadastre-dgi-fr source : Direction Générale des Impôts - Cadastre. Mise à jour : 2012"}},
{"type":"Feature","geometry":{"type":"Point","coordinates":[7.2714965,48.1299041]},"properties":{"ele":"408","historic":"wayside_cross","name":"Wetterkreuz","religion":"christian"}},
{"type":"Feature","geometry":{"type":"Point","coordinates":[7.2839717,48.1328541]},"properties":{"historic":"wayside_cross","name":"Calvaire","source":"cadastre-dgi-fr source : Direction Générale des Impôts - Cadastre. Mise à jour : 2013"}},
{"type":"Feature","geometry":{"type":"Point","coordinates":[7.2567519,48.0868847]},"properties":{"historic":"wayside_cross","religion":"christian"}},
{"type":"Feature","geometry":{"type":"Point","coordinates":[7.2851857,48.1141775]},"properties":{"name":"Non potable","natural":"spring"}},
{"type":"Feature","geometry":{"type":"Point","coordinates":[7.2541192,48.1334728]},"properties":{"drinking_water":"yes","name":"Potable","natural":"spring","source":"survey"}},
{"type":"Feature","geometry":{"type":"Point","coordinates":[7.2715918,48.1299669]},"properties":{"tourism":"viewpoint"}},
{"type":"Feature","geometry":{"type":"Point","coordinates":[7.3052519,48.2030705]},"properties":{"ele":"510","historic":"castle","name":"Château de Saint-Ulrich","name:de":"Ulrichsburg","ruins":"yes","source":"cadastre-dgi-fr source : Direction Générale des Impôts - Cadastre. Mise à jour : 2013","tourism":"attraction","tourism_1":"viewpoint","website":"https://www.tourisme-alsace.com/en/229002138-Chateau-Saint-Ulrich.html","wikidata":"Q282646","wikipedia":"fr:Château de Saint-Ulrich"}},
{"type":"Feature","geometry":{"type":"Point","coordinates":[7.2857768,48.1366271]},"properties":{"addr:city":"Kaysersberg-Vignoble","addr:housenumber":"2","addr:postcode":"68240","addr:street":"Rue du Maréchal Foch","addr:suburb":"Kientzheim","fax":"+33 389782973","internet_access":"wlan","internet_access:fee":"no","name":"L'abbaye d'Alspach","phone":"+33 389471600","rooms":"6","source":"http://www.hotel-abbaye-alspach.com/","source:date":"2016-04-01","stars":"3","tourism":"hotel","website":"http://www.hotel-abbaye-alspach.com/"}},
{"type":"Feature","geometry":{"type":"Point","coordinates":[7.2783351,48.1099314]},"properties":{"tourism":"picnic_site"}},
{"type":"Feature","geometry":{"type":"Point","coordinates":[7.2784279,48.109109]},"properties":{"direction":"97","tourism":"viewpoint"}},
{"type":"Feature","geometry":{"type":"Point","coordinates":[7.2639437,48.1392553]},"properties":{"access":"yes","leisure":"playground"}},
{"type":"Feature","geometry":{"type":"Point","coordinates":[7.2584192,48.1404836]},"properties":{"tourism":"picnic_site"}},
{"type":"Feature","geometry":{"type":"Point","coordinates":[7.3015439,48.1792253]},"properties":{"tourism":"picnic_site"}},
{"type":"Feature","geometry":{"type":"Point","coordinates":[7.287519,48.1373233]},"properties":{"name":"Le Derrala","tourism":"picnic_site"}},
{"type":"Feature","geometry":{"type":"Point","coordinates":[7.3202391,48.1937125]},"properties":{"check_date":"2024-08-19","internet_access":"wlan","name":"Gite Meyer-Liss","tourism":"guest_house"}},
{"type":"Feature","geometry":{"type":"Point","coordinates":[7.2758977,48.0945707]},"properties":{"ele":"324","mountain_pass":"yes","name":"Col du Brand","natural":"saddle"}},
{"type":"Feature","geometry":{"type":"Point","coordinates":[7.2571365,48.1903391]},"properties":{"historic":"wayside_cross"}},
{"type":"Feature","geometry":{"type":"Point","coordinates":[7.3098035,48.1853615]},"properties":{"tourism":"picnic_site"}},
{"type":"Feature","geometry":{"type":"Point","coordinates":[7.2850604,48.1239807]},"properties":{"denomination":"catholic","historic":"wayside_cross","name":"Calvaire moderne","religion":"christian"}},
{"type":"Feature","geometry":{"type":"Point","coordinates":[7.2913912,48.1143668]},"properties":{"denomination":"catholic","historic":"wayside_cross","religion":"christian"}},
{"type":"Feature","geometry":{"type":"Point","coordinates":[7.3110391,48.189992]},"properties":{"tourism":"viewpoint"}},
{"type":"Feature","geometry":{"type":"Point","coordinates":[7.2695522,48.1516953]},"properties":{"ele":"621","name":"Rocher des Corbeaux","tourism":"viewpoint","wheelchair":"no"}},
{"type":"Feature","geometry":{"type":"Point","coordinates":[7.2551129,48.1784587]},"properties":{"leaf_cycle":"deciduous","leaf_type":"broadleaved","natural":"tree","source":"knowledge"}},
{"type":"Feature","geometry":{"type":"Point","coordinates":[7.2552328,48.178506]},"properties":{"leaf_cycle":"deciduous","leaf_type":"broadleaved","natural":"tree","source":"knowledge"}},
{"type":"Feature","geometry":{"type":"Point","coordinates":[7.2553511,48.178542]},"properties":{"leaf_cycle":"deciduous","leaf_type":"broadleaved","natural":"tree","source":"knowledge"}},
{"type":"Feature","geometry":{"type":"Point","coordinates":[7.2556095,48.1785724]},"properties":{"leaf_cycle":"deciduous","leaf_type":"broadleaved","natural":"tree","source":"knowledge"}},
{"type":"Feature","geometry":{"type":"Point","coordinates":[7.2557227,48.1785758]},"properties":{"leaf_cycle":"deciduous","leaf_type":"broadleaved","natural":"tree","source":"knowledge"}},
{"type":"Feature","geometry":{"type":"Point","coordinates":[7.3147733,48.168355]},"properties":{"tourism":"picnic_site"}},
{"type":"Feature","geometry":{"type":"Point","coordinates":[7.3301456,48.1568788]},"properties":{"addr:city":"Beblenheim","addr:country":"FR","addr:housenumber":"13","addr:postcode":"68980","addr:street":"Rue du Petit Château","email":"hansi68@club-internet.fr","name":"Résidence l'Erable","phone":"+33389478894","tourism":"apartment","website":"https://gites-erable-alsace.com/"}},
{"type":"Feature","geometry":{"type":"Point","coordinates":[7.261068,48.1409026]},"properties":{"addr:city":"Kaysersberg","addr:country":"FR","addr:housenumber":"16","addr:postcode":"68240","addr:street":"Rue des Forgerons","capacity":"4","check_date":"2024-05-04","cooking":"yes","email":"jfa21@neuf.fr","fax":"+33389412076","name":"Gîte du Bien Être","number_of_apartments":"1","operator":"Famille Abbes","phone":"+33687448867","smoking":"no","source":"survey","tourism":"apartment","website":"http://www.gites-kaysersberg-colmar.fr/","wheelchair":"no"}},
{"type":"Feature","geometry":{"type":"Point","coordinates":[7.2867276,48.1371121]},"properties":{"leisure":"pitch","source":"survey","sport":"table_tennis"}},
{"type":"Feature","geometry":{"type":"Point","coordinates":[7.3240284,48.1930458]},"properties":{"addr:city":"Ribeauvillé","addr:country":"FR","addr:housenumber":"1","addr:postcode":"68150","addr:street":"Grand'Rue","contact:phone":"+33 389 732323","contact:website":"https://www.ribeauville-riquewihr.com/","information":"office","name":"Office du tourisme","opening_hours":"Mo-Sa 10:00-12:00,14:00-17:00; Su,PH off","tourism":"information"}},
{"type":"Feature","geometry":{"type":"Point","coordinates":[7.2876833,48.1361585]},"properties":{"addr:city":"Kientzheim","addr:housenumber":"2","addr:postcode":"68240","addr:street":"Place Schwendi","addr:suburb":"Kientzheim","fax":"+33 389490449","fixme":"position estimated","name":"Hostellerie Schwendi","phone":"+33 389473050","source":"http://www.schwendi.fr/","source:date":"2016-04-01","stars":"3","tourism":"hotel","website":"http://www.schwendi.fr/"}},
{"type":"Feature","geometry":{"type":"Point","coordinates":[7.3169629,48.1995804]},"properties":{"name":"Vue sur les ruines du Girsberg et du Haut Ribeaupierre","name:de":"Blick auf die Ruinen Girsberg und Hohrappoltstein","tourism":"viewpoint"}},
{"type":"Feature","geometry":{"type":"Point","coordinates":[7.3185843,48.1713345]},"properties":{"natural":"tree"}},
{"type":"Feature","geometry":{"type":"Point","coordinates":[7.2580671,48.1737195]},"properties":{"historic":"wayside_cross"}},
{"type":"Feature","geometry":{"type":"Point","coordinates":[7.2726667,48.1536567]},"properties":{"covered":"no","leisure":"picnic_table"}},
{"type":"Feature","geometry":{"type":"Point","coordinates":[7.2608814,48.1397799]},"properties":{"check_date":"2024-05-05","name":"Gîtes Du Stekala","tourism":"guest_house"}},
{"type":"Feature","geometry":{"type":"Point","coordinates":[7.2624894,48.140734]},"properties":{"tourism":"viewpoint"}},
{"type":"Feature","geometry":{"type":"Point","coordinates":[7.3023013,48.0970441]},"properties":{"height":"19","leaf_cycle":"evergreen","leaf_type":"needleleaved","name":"Pin noir","natural":"tree","species":"Pinus nigra"}},
{"type":"Feature","geometry":{"type":"Point","coordinates":[7.2564335,48.146829]},"properties":{"leisure":"pitch","sport":"skateboard"}},
{"type":"Feature","geometry":{"type":"Point","coordinates":[7.3115401,48.1808]},"properties":{"name":"Le clis Seiler","tourism":"chalet"}},
{"type":"Feature","geometry":{"type":"Point","coordinates":[7.3201887,48.1687383]},"properties":{"name":"Chambre d'Hôtes","tourism":"guest_house"}},
{"type":"Feature","geometry":{"type":"Point","coordinates":[7.3189891,48.1674141]},"properties":{"check_date":"2024-05-07","name":"Gite de France","tourism":"chalet"}},
{"type":"Feature","geometry":{"type":"Point","coordinates":[7.3383229,48.1828652]},"properties":{"leisure":"picnic_table","tourism":"picnic_site"}},
{"type":"Feature","geometry":{"type":"Point","coordinates":[7.338907,48.1836212]},"properties":{"tourism":"picnic_site"}},
{"type":"Feature","geometry":{"type":"Point","coordinates":[7.2910465,48.1695164]},"properties":{"tourism":"viewpoint"}},
{"type":"Feature","geometry":{"type":"Point","coordinates":[7.2610148,48.1422637]},"properties":{"check_date":"2024-05-03","name":"Hôtel les remparts","name:fr":"Hôtel les remparts","tourism":"hotel"}},
{"type":"Feature","geometry":{"type":"Point","coordinates":[7.3052646,48.2030844]},"properties":{"tourism":"viewpoint"}},
{"type":"Feature","geometry":{"type":"Point","coordinates":[7.3211418,48.1707114]},"properties":{"capacity":"3","caravan_site":"motorhome_stopover","caravan_site:type":"village","caravans":"no","fee":"no","name":"Domaine Edmond Rentz - Zellenberg","phone":"+33 389 479015","tents":"no","toilets":"no","tourism":"caravan_site"}},
{"type":"Feature","geometry":{"type":"Point","coordinates":[7.2980609,48.1651382]},"properties":{"capacity":"12","caravan_site":"motorhome_stopover","caravan_site:type":"parking_lot;village","charge":"30 EUR","description":"Parking seulement bus et camping cars. 7/7, 09:00-19:00: 20 EUR; 19:00-09:00 10 EUR","email":"mairie@riquewihr.fr","fee":"yes","name":"Aire de Stationnement Riquewihr (Place Jean Monnet)","phone":"+33 389 490910","source":"tourisme-alsace.com","tourism":"caravan_site","website":"https://riquewihr.fr/fr/rb/724791/circulation-et-stationnement-1"}},
{"type":"Feature","geometry":{"type":"Point","coordinates":[7.3016013,48.166513]},"properties":{"caravan_site":"motorhome_stopover","caravan_site:type":"village","charge":"30 EUR","fee":"yes","name":"Aire d'accueil pour camping-car Riquewihr Avenue Jacques Preiss","phone":"+33 389 474985","sanitary_dump_station":"yes","tourism":"caravan_site","website":"https://www.ribeauville-riquewihr.com/LEI/Aire-d'accueil-pour-camping-car.htm?HTMLPage=/aires-de-campings-cars.htm&action=&page=1&commune=&categorie=1900003s1900006&genre=1900001&nom_recherche=&ID=229002440&GENRE=1900001&CATEGORIE=1900003"}},
{"type":"Feature","geometry":{"type":"Point","coordinates":[7.3316514,48.087533]},"properties":{"denomination":"catholic","historic":"wayside_cross","name":"Calvaire","religion":"christian","source":"cadastre-dgi-fr source : Direction Générale des Impôts - Cadastre. Mise à jour : 2017"}},
{"type":"Feature","geometry":{"type":"Point","coordinates":[7.295744,48.1666655]},"properties":{"contact:email":"hotelsaintnicolas@orange.fr","contact:phone":"+33 389 490151","name":"Hôtel Saint-Nicolas","tourism":"hotel"}},
{"type":"Feature","geometry":{"type":"Point","coordinates":[7.2952243,48.1665022]},"properties":{"fee":"no","tourism":"gallery"}},
{"type":"Feature","geometry":{"type":"Point","coordinates":[7.2946282,48.0993052]},"properties":{"natural":"tree"}},
{"type":"Feature","geometry":{"type":"Point","coordinates":[7.2957013,48.1664906]},"properties":{"heritage":"3","heritage:operator":"mhs","historic":"building","mhs:inscription_date":"1930-03-18","ref:mhs":"PA00085631","source:heritage":"data.gouv.fr:Ministère de la Culture - 04/2015","wikidata":"Q15952584","wikipedia":"fr:Maison aux 6-8 rue Saint-Nicolas à Riquewihr"}},
{"type":"Feature","geometry":{"type":"Point","coordinates":[7.2967675,48.1661895]},"properties":{"heritage":"3","heritage:operator":"mhs","mhs:inscription_date":"1988-05-09","name":"Ancienne Cour des Evêques de Strasbourg","ref:mhs":"PA00085600","source:heritage":"data.gouv.fr:Ministère de la Culture - 04/2015","tourism":"attraction","wikidata":"Q15948445","wikipedia":"fr:Cour des évêques de Strasbourg"}},
{"type":"Feature","geometry":{"type":"Point","coordinates":[7.2985093,48.1671713]},"properties":{"heritage":"3","heritage:operator":"mhs","historic":"building","mhs:inscription_date":"1930-03-18","ref:mhs":"PA00085626","source:heritage":"data.gouv.fr:Ministère de la Culture - 04/2015","wikidata":"Q15952445","wikipedia":"fr:Maison au 4 rue Kilian à Riquewihr"}},
{"type":"Feature","geometry":{"type":"Point","coordinates":[7.2985362,48.1667572]},"properties":{"heritage":"3","heritage:operator":"mhs","mhs:inscription_date":"1930-03-18","name":"Maison Nid de Cigognes","ref:mhs":"PA00085619","source:heritage":"data.gouv.fr:Ministère de la Culture - 04/2015","tourism":"attraction","wikidata":"Q14627679","wikipedia":"fr:Nid de Cigognes"}},
{"type":"Feature","geometry":{"type":"Point","coordinates":[7.2648602,48.1370129]},"properties":{"alt_name":"Burger Turm","heritage":"3","heritage:operator":"mhs","historic":"yes","man_made":"tower","mhs:inscription_date":"1932-06-03","name":"Tour de l'Hôpital","ref:mhs":"PA00085493","source:heritage":"data.gouv.fr, Ministère de la Culture - 2016","start_date":"C13","tower:type":"defensive","wikidata":"Q15953402","wikipedia":"fr:Tour de l'Hôpital (Kaysersberg)"}},
{"type":"Feature","geometry":{"type":"Point","coordinates":[7.3389879,48.1658412]},"properties":{"natural":"tree","source":"BDOrtho IGN - available 2018"}},
{"type":"Feature","geometry":{"type":"Point","coordinates":[7.3387881,48.1656498]},"properties":{"natural":"tree","source":"BDOrtho IGN - available 2018"}},
{"type":"Feature","geometry":{"type":"Point","coordinates":[7.3383361,48.165199]},"properties":{"natural":"tree","source":"BDOrtho IGN - available 2018"}},
{"type":"Feature","geometry":{"type":"Point","coordinates":[7.3312511,48.165419]},"properties":{"natural":"tree","source":"BDOrtho IGN - available 2018"}},
{"type":"Feature","geometry":{"type":"Point","coordinates":[7.3475989,48.1959021]},"properties":{"description":"Ferme du Rotenberg - 68750 Bergheim","name":"Ferme du Rotenberg","tourism":"trail_riding_station"}},
{"type":"Feature","geometry":{"type":"Point","coordinates":[7.2875414,48.1355793]},"properties":{"addr:city":"Kientzheim","addr:housenumber":"6","addr:postcode":"68240","addr:street":"Rue Philippe Aimé de Golbéry","historic":"castle","name":"Château des Ifs","source":"survey","wikidata":"Q17346995","wikipedia":"fr:Château des Ifs (Haut-Rhin)"}},
{"type":"Feature","geometry":{"type":"Point","coordinates":[7.2872022,48.1373054]},"properties":{"source":"survey","tourism":"picnic_site"}},
{"type":"Feature","geometry":{"type":"Point","coordinates":[7.2853942,48.1368383]},"properties":{"addr:city":"Kientzheim","addr:housenumber":"21","addr:postcode":"68240","addr:street":"Rue de l'Abbaye d'Alspach","name":"Gîte chez Mamie Schlop","phone":"+33 6 13 99 94 44","source":"survey","tourism":"chalet"}},
{"type":"Feature","geometry":{"type":"Point","coordinates":[7.2947972,48.1103424]},"properties":{"denomination":"catholic","historic":"wayside_cross","religion":"christian"}},
{"type":"Feature","geometry":{"type":"Point","coordinates":[7.2978106,48.1084503]},"properties":{"denomination":"catholic","historic":"wayside_cross","religion":"christian"}},
{"type":"Feature","geometry":{"type":"Point","coordinates":[7.2852203,48.1256031]},"properties":{"denomination":"catholic","historic":"wayside_cross","religion":"christian"}},
{"type":"Feature","geometry":{"type":"Point","coordinates":[7.2903192,48.1151266]},"properties":{"denomination":"catholic","historic":"wayside_cross","religion":"christian"}},
{"type":"Feature","geometry":{"type":"Point","coordinates":[7.2741348,48.1341497]},"properties":{"denomination":"catholic","historic":"wayside_cross","religion":"christian"}},
{"type":"Feature","geometry":{"type":"Point","coordinates":[7.2497964,48.1488047]},"properties":{"denomination":"catholic","historic":"wayside_cross","religion":"christian"}},
{"type":"Feature","geometry":{"type":"Point","coordinates":[7.251397,48.1475802]},"properties":{"denomination":"catholic","historic":"wayside_cross","religion":"christian"}},
{"type":"Feature","geometry":{"type":"Point","coordinates":[7.2982607,48.136856]},"properties":{"historic":"wayside_cross","source":"survey"}},
{"type":"Feature","geometry":{"type":"Point","coordinates":[7.2998914,48.1348531]},"properties":{"name":"Gîte de France","source":"survey","tourism":"chalet"}},
{"type":"Feature","geometry":{"type":"Point","coordinates":[7.3022445,48.1339797]},"properties":{"addr:city":"Kaysersberg-Vignoble","addr:housenumber":"9","addr:postcode":"68240","addr:street":"Faubourg des Pierres","addr:suburb":"Sigolsheim","name":"CleVacances","source":"survey","tourism":"chalet"}},
{"type":"Feature","geometry":{"type":"Point","coordinates":[7.302671,48.1347836]},"properties":{"addr:city":"Kaysersberg-Vignoble","addr:housenumber":"13","addr:postcode":"68240","addr:street":"Faubourg des Pierres","addr:suburb":"Sigolsheim","name":"Gîte de France","source":"survey","tourism":"chalet"}},
{"type":"Feature","geometry":{"type":"Point","coordinates":[7.3035293,48.1352041]},"properties":{"addr:city":"Kaysersberg-Vignoble","addr:housenumber":"24","addr:postcode":"68240","addr:street":"Faubourg des Pierres","addr:suburb":"Sigolsheim","name":"Gîte de France","source":"survey","tourism":"chalet"}},
{"type":"Feature","geometry":{"type":"Point","coordinates":[7.3015728,48.136719]},"properties":{"leisure":"picnic_table","source":"survey"}},
{"type":"Feature","geometry":{"type":"Point","coordinates":[7.3007843,48.1346515]},"properties":{"historic":"memorial","memorial":"war_memorial","name":"Monument aux Morts"}},
{"type":"Feature","geometry":{"type":"Point","coordinates":[7.299248,48.1348496]},"properties":{"name":"Gite rural","tourism":"chalet"}},
{"type":"Feature","geometry":{"type":"Point","coordinates":[7.2964019,48.1366168]},"properties":{"addr:city":"Kaysersberg-Vignoble","addr:country":"FR","addr:housenumber":"4","addr:postcode":"68240","addr:street":"Rue des Vosges","addr:suburb":"Sigolsheim","name":"CleVacances","source":"survey","tourism":"chalet"}},
{"type":"Feature","geometry":{"type":"Point","coordinates":[7.2888951,48.1373536]},"properties":{"source":"survey","tourism":"picnic_site"}},
{"type":"Feature","geometry":{"type":"Point","coordinates":[7.28882,48.137377]},"properties":{"source":"survey","tourism":"picnic_site"}},
{"type":"Feature","geometry":{"type":"Point","coordinates":[7.2881679,48.1348157]},"properties":{"barrier":"gate"}},
{"type":"Feature","geometry":{"type":"Point","coordinates":[7.2521729,48.1505052]},"properties":{"leisure":"pitch","sport":"table_tennis"}},
{"type":"Feature","geometry":{"type":"Point","coordinates":[7.2537882,48.1497143]},"properties":{"leisure":"playground"}},
{"type":"Feature","geometry":{"type":"Point","coordinates":[7.2828119,48.136726]},"properties":{"entrance":"yes"}},
{"type":"Feature","geometry":{"type":"Point","coordinates":[7.2880604,48.1347695]},"properties":{"barrier":"gate"}},
{"type":"Feature","geometry":{"type":"Point","coordinates":[7.2537218,48.1476017]},"properties":{"leisure":"playground"}},
{"type":"Feature","geometry":{"type":"Point","coordinates":[7.3053155,48.1794575]},"properties":{"check_date":"2024-05-07","name":"CHEZ LA FAMILLE ZIEGLER","tourism":"chalet"}},
{"type":"Feature","geometry":{"type":"Point","coordinates":[7.2735828,48.1877536]},"properties":{"tourism":"picnic_site"}},
{"type":"Feature","geometry":{"type":"Point","coordinates":[7.3149017,48.1967642]},"properties":{"heritage":"3","heritage:operator":"mhs","leisure":"park","mhs:inscription_date":"1997-12-24","name":"Jardin du Château Bas des Ribeaupierre, dit Jardin de l'Hôpital ou Jardin du Diaconat","ref:mhs":"PA68000013","source:heritage":"Ministère de la Culture - 07/2018"}},
{"type":"Feature","geometry":{"type":"Point","coordinates":[7.2630224,48.1387261]},"properties":{"addr:housenumber":"36","addr:street":"Rue du Général de Gaulle","check_date":"2024-05-05","name":"Les toits du tonnelier","tourism":"chalet"}},
{"type":"Feature","geometry":{"type":"Point","coordinates":[7.2795783,48.087342]},"properties":{"access":"yes","leisure":"playground"}},
{"type":"Feature","geometry":{"type":"Point","coordinates":[7.3483397,48.1938736]},"properties":{"leisure":"fishing","name":"Etangs de pêche de Ribeauvillé"}},
{"type":"Feature","geometry":{"type":"Point","coordinates":[7.2888371,48.1520616]},"properties":{"name":"Le Hagelgraben","natural":"spring"}},
{"type":"Feature","geometry":{"type":"Point","coordinates":[7.3152369,48.1517433]},"properties":{"addr:housenumber":"12","addr:postcode":"68630","addr:street":"Rue du Vignoble","internet_access":"wlan","name":"Gite L'Aterlier","tourism":"apartment"}},
{"type":"Feature","geometry":{"type":"Point","coordinates":[7.275997,48.0952363]},"properties":{"historic":"wayside_cross"}},
{"type":"Feature","geometry":{"type":"Point","coordinates":[7.2669645,48.0912945]},"properties":{"name":"Fontaine Sainte-Anne","natural":"spring"}},
{"type":"Feature","geometry":{"type":"Point","coordinates":[7.2738385,48.0937459]},"properties":{"tourism":"viewpoint"}},
{"type":"Feature","geometry":{"type":"Point","coordinates":[7.2902075,48.1705948]},"properties":{"name":"Aire de pique-nique","tourism":"picnic_site"}},
{"type":"Feature","geometry":{"type":"Point","coordinates":[7.2899751,48.1696573]},"properties":{"name":"Aire de pique-nique","tourism":"picnic_site"}},
{"type":"Feature","geometry":{"type":"Point","coordinates":[7.3208411,48.1795981]},"properties":{"access":"customers","entrance":"yes"}},
{"type":"Feature","geometry":{"type":"Point","coordinates":[7.3227315,48.1801008]},"properties":{"tourism":"viewpoint"}},
{"type":"Feature","geometry":{"type":"Point","coordinates":[7.2848147,48.1082573]},"properties":{"historic":"memorial","material":"stone","memorial":"war_memorial"}},
{"type":"Feature","geometry":{"type":"Point","coordinates":[7.3176387,48.163541]},"properties":{"natural":"tree"}},
{"type":"Feature","geometry":{"type":"Point","coordinates":[7.3177527,48.163487]},"properties":{"natural":"tree"}},
{"type":"Feature","geometry":{"type":"Point","coordinates":[7.3174439,48.163421]},"properties":{"natural":"tree"}},
{"type":"Feature","geometry":{"type":"Point","coordinates":[7.3179859,48.1633995]},"properties":{"natural":"tree"}},
{"type":"Feature","geometry":{"type":"Point","coordinates":[7.3175777,48.163216]},"properties":{"natural":"tree"}},
{"type":"Feature","geometry":{"type":"Point","coordinates":[7.3177446,48.1632114]},"properties":{"natural":"tree"}},
{"type":"Feature","geometry":{"type":"Point","coordinates":[7.3175393,48.1632716]},"properties":{"natural":"tree"}},
{"type":"Feature","geometry":{"type":"Point","coordinates":[7.3178077,48.1632806]},"properties":{"natural":"tree"}},
{"type":"Feature","geometry":{"type":"Point","coordinates":[7.317837,48.1631618]},"properties":{"natural":"tree"}},
{"type":"Feature","geometry":{"type":"Point","coordinates":[7.3177468,48.1631106]},"properties":{"natural":"tree"}},
{"type":"Feature","geometry":{"type":"Point","coordinates":[7.3171987,48.1632385]},"properties":{"natural":"tree"}},
{"type":"Feature","geometry":{"type":"Point","coordinates":[7.3170183,48.1630881]},"properties":{"natural":"tree"}},
{"type":"Feature","geometry":{"type":"Point","coordinates":[7.3173025,48.1630595]},"properties":{"natural":"tree"}},
{"type":"Feature","geometry":{"type":"Point","coordinates":[7.3170972,48.162903]},"properties":{"natural":"tree"}},
{"type":"Feature","geometry":{"type":"Point","coordinates":[7.3168401,48.1629692]},"properties":{"natural":"tree"}},
{"type":"Feature","geometry":{"type":"Point","coordinates":[7.3169213,48.1628022]},"properties":{"natural":"tree"}},
{"type":"Feature","geometry":{"type":"Point","coordinates":[7.3166777,48.1628564]},"properties":{"natural":"tree"}},
{"type":"Feature","geometry":{"type":"Point","coordinates":[7.3172754,48.1627722]},"properties":{"natural":"tree"}},
{"type":"Feature","geometry":{"type":"Point","coordinates":[7.3174762,48.1629376]},"properties":{"natural":"tree"}},
{"type":"Feature","geometry":{"type":"Point","coordinates":[7.3176679,48.1629361]},"properties":{"natural":"tree"}},
{"type":"Feature","geometry":{"type":"Point","coordinates":[7.317528,48.163052]},"properties":{"natural":"tree"}},
{"type":"Feature","geometry":{"type":"Point","coordinates":[7.3175935,48.162897]},"properties":{"natural":"tree"}},
{"type":"Feature","geometry":{"type":"Point","coordinates":[7.3175596,48.1627661]},"properties":{"natural":"tree"}},
{"type":"Feature","geometry":{"type":"Point","coordinates":[7.3174243,48.1628564]},"properties":{"natural":"tree"}},
{"type":"Feature","geometry":{"type":"Point","coordinates":[7.3172754,48.1626563]},"properties":{"natural":"tree"}},
{"type":"Feature","geometry":{"type":"Point","coordinates":[7.3170521,48.1625946]},"properties":{"natural":"tree"}},
{"type":"Feature","geometry":{"type":"Point","coordinates":[7.3170815,48.1627165]},"properties":{"natural":"tree"}},
{"type":"Feature","geometry":{"type":"Point","coordinates":[7.316362,48.1628052]},"properties":{"natural":"tree"}},
{"type":"Feature","geometry":{"type":"Point","coordinates":[7.3165514,48.1629467]},"properties":{"natural":"tree"}},
{"type":"Feature","geometry":{"type":"Point","coordinates":[7.3167928,48.16239]},"properties":{"natural":"tree"}},
{"type":"Feature","geometry":{"type":"Point","coordinates":[7.3173341,48.1624126]},"properties":{"natural":"tree"}},
{"type":"Feature","geometry":{"type":"Point","coordinates":[7.317501,48.1623178]},"properties":{"natural":"tree"}},
{"type":"Feature","geometry":{"type":"Point","coordinates":[7.3177062,48.1624442]},"properties":{"natural":"tree"}},
{"type":"Feature","geometry":{"type":"Point","coordinates":[7.3177355,48.1625375]},"properties":{"natural":"tree"}},
{"type":"Feature","geometry":{"type":"Point","coordinates":[7.3177355,48.1626458]},"properties":{"natural":"tree"}},
{"type":"Feature","geometry":{"type":"Point","coordinates":[7.3177355,48.162721]},"properties":{"natural":"tree"}},
{"type":"Feature","geometry":{"type":"Point","coordinates":[7.3179227,48.162554]},"properties":{"natural":"tree"}},
{"type":"Feature","geometry":{"type":"Point","coordinates":[7.3180491,48.1623268]},"properties":{"natural":"tree"}},
{"type":"Feature","geometry":{"type":"Point","coordinates":[7.3179972,48.1622697]},"properties":{"natural":"tree"}},
{"type":"Feature","geometry":{"type":"Point","coordinates":[7.3178731,48.1621914]},"properties":{"natural":"tree"}},
{"type":"Feature","geometry":{"type":"Point","coordinates":[7.3177536,48.1622185]},"properties":{"natural":"tree"}},
{"type":"Feature","geometry":{"type":"Point","coordinates":[7.3176746,48.1620651]},"properties":{"natural":"tree"}},
{"type":"Feature","geometry":{"type":"Point","coordinates":[7.3177423,48.1619567]},"properties":{"natural":"tree"}},
{"type":"Feature","geometry":{"type":"Point","coordinates":[7.3176949,48.1618966]},"properties":{"natural":"tree"}},
{"type":"Feature","geometry":{"type":"Point","coordinates":[7.3176769,48.1618334]},"properties":{"natural":"tree"}},
{"type":"Feature","geometry":{"type":"Point","coordinates":[7.3178844,48.162047]},"properties":{"natural":"tree"}},
{"type":"Feature","geometry":{"type":"Point","coordinates":[7.3178844,48.1619703]},"properties":{"natural":"tree"}},
{"type":"Feature","geometry":{"type":"Point","coordinates":[7.3179746,48.1619673]},"properties":{"natural":"tree"}},
{"type":"Feature","geometry":{"type":"Point","coordinates":[7.3179724,48.1618484]},"properties":{"natural":"tree"}},
{"type":"Feature","geometry":{"type":"Point","coordinates":[7.3179543,48.1617867]},"properties":{"natural":"tree"}},
{"type":"Feature","geometry":{"type":"Point","coordinates":[7.3180603,48.1617597]},"properties":{"natural":"tree"}},
{"type":"Feature","geometry":{"type":"Point","coordinates":[7.3181885,48.1618325]},"properties":{"natural":"tree"}},
{"type":"Feature","geometry":{"type":"Point","coordinates":[7.3183017,48.1618921]},"properties":{"natural":"tree"}},
{"type":"Feature","geometry":{"type":"Point","coordinates":[7.3183093,48.1619838]},"properties":{"natural":"tree"}},
{"type":"Feature","geometry":{"type":"Point","coordinates":[7.3176431,48.1621764]},"properties":{"natural":"tree"}},
{"type":"Feature","geometry":{"type":"Point","coordinates":[7.316634,48.162596]},"properties":{"natural":"tree"}},
{"type":"Feature","geometry":{"type":"Point","coordinates":[7.3163773,48.1629152]},"properties":{"barrier":"gate","bicycle":"yes","foot":"yes","horse":"no","motor_vehicle":"no"}},
{"type":"Feature","geometry":{"type":"Point","coordinates":[7.3183839,48.1625922]},"properties":{"natural":"tree"}},
{"type":"Feature","geometry":{"type":"Point","coordinates":[7.2651246,48.1394941]},"properties":{"bench":"yes","covered":"no","leisure":"picnic_table","material":"wood"}},
{"type":"Feature","geometry":{"type":"Point","coordinates":[7.2651941,48.1394941]},"properties":{"bench":"yes","covered":"no","leisure":"picnic_table","material":"wood"}},
{"type":"Feature","geometry":{"type":"Point","coordinates":[7.2648921,48.1393133]},"properties":{"natural":"tree"}},
{"type":"Feature","geometry":{"type":"Point","coordinates":[7.2650222,48.1393267]},"properties":{"natural":"tree"}},
{"type":"Feature","geometry":{"type":"Point","coordinates":[7.2652161,48.1393267]},"properties":{"natural":"tree"}},
{"type":"Feature","geometry":{"type":"Point","coordinates":[7.3029959,48.1551091]},"properties":{"natural":"tree"}},
{"type":"Feature","geometry":{"type":"Point","coordinates":[7.3001214,48.1590179]},"properties":{"natural":"tree"}},
{"type":"Feature","geometry":{"type":"Point","coordinates":[7.2953618,48.1612071]},"properties":{"natural":"tree"}},
{"type":"Feature","geometry":{"type":"Point","coordinates":[7.3014613,48.1621721]},"properties":{"natural":"tree"}},
{"type":"Feature","geometry":{"type":"Point","coordinates":[7.317795,48.1621047]},"properties":{"natural":"tree"}},
{"type":"Feature","geometry":{"type":"Point","coordinates":[7.3165398,48.1596218]},"properties":{"natural":"tree"}},
{"type":"Feature","geometry":{"type":"Point","coordinates":[7.3167487,48.1595884]},"properties":{"natural":"tree"}},
{"type":"Feature","geometry":{"type":"Point","coordinates":[7.3169602,48.1595575]},"properties":{"natural":"tree"}},
{"type":"Feature","geometry":{"type":"Point","coordinates":[7.3167416,48.1584423]},"properties":{"natural":"tree"}},
{"type":"Feature","geometry":{"type":"Point","coordinates":[7.2999725,48.170513]},"properties":{"natural":"tree"}},
{"type":"Feature","geometry":{"type":"Point","coordinates":[7.2985534,48.1705407]},"properties":{"natural":"tree"}},
{"type":"Feature","geometry":{"type":"Point","coordinates":[7.2946267,48.1708891]},"properties":{"information":"guidepost","tourism":"information"}},
{"type":"Feature","geometry":{"type":"Point","coordinates":[7.3003824,48.170502]},"properties":{"natural":"tree"}},
{"type":"Feature","geometry":{"type":"Point","coordinates":[7.3005424,48.1704958]},"properties":{"natural":"tree"}},
{"type":"Feature","geometry":{"type":"Point","coordinates":[7.3194506,48.158911]},"properties":{"natural":"tree"}},
{"type":"Feature","geometry":{"type":"Point","coordinates":[7.3195959,48.159]},"properties":{"natural":"tree"}},
{"type":"Feature","geometry":{"type":"Point","coordinates":[7.3196037,48.1587315]},"properties":{"natural":"tree"}},
{"type":"Feature","geometry":{"type":"Point","coordinates":[7.3196646,48.1585888]},"properties":{"natural":"tree"}},
{"type":"Feature","geometry":{"type":"Point","coordinates":[7.3196666,48.1589424]},"properties":{"natural":"tree"}},
{"type":"Feature","geometry":{"type":"Point","coordinates":[7.3190472,48.1594124]},"properties":{"natural":"tree"}},
{"type":"Feature","geometry":{"type":"Point","coordinates":[7.3190328,48.1593568]},"properties":{"natural":"tree"}},
{"type":"Feature","geometry":{"type":"Point","coordinates":[7.3190285,48.1592897]},"properties":{"natural":"tree"}},
{"type":"Feature","geometry":{"type":"Point","coordinates":[7.3190156,48.1592207]},"properties":{"natural":"tree"}},
{"type":"Feature","geometry":{"type":"Point","coordinates":[7.3196713,48.1640444]},"properties":{"natural":"tree"}},
{"type":"Feature","geometry":{"type":"Point","coordinates":[7.3175726,48.1593604]},"properties":{"natural":"tree"}},
{"type":"Feature","geometry":{"type":"Point","coordinates":[7.3176563,48.1593489]},"properties":{"natural":"tree"}},
{"type":"Feature","geometry":{"type":"Point","coordinates":[7.314529,48.163815]},"properties":{"natural":"tree"}},
{"type":"Feature","geometry":{"type":"Point","coordinates":[7.3170477,48.1636146]},"properties":{"natural":"tree"}},
{"type":"Feature","geometry":{"type":"Point","coordinates":[7.316924,48.1636932]},"properties":{"natural":"tree"}},
{"type":"Feature","geometry":{"type":"Point","coordinates":[7.3176073,48.1641896]},"properties":{"natural":"tree"}},
{"type":"Feature","geometry":{"type":"Point","coordinates":[7.3185563,48.1594255]},"properties":{"natural":"tree"}},
{"type":"Feature","geometry":{"type":"Point","coordinates":[7.3186986,48.1595405]},"properties":{"natural":"tree"}},
{"type":"Feature","geometry":{"type":"Point","coordinates":[7.3249359,48.1584234]},"properties":{"natural":"tree"}},
{"type":"Feature","geometry":{"type":"Point","coordinates":[7.3249235,48.1583489]},"properties":{"natural":"tree"}},
{"type":"Feature","geometry":{"type":"Point","coordinates":[7.3205792,48.1574161]},"properties":{"natural":"tree"}},
{"type":"Feature","geometry":{"type":"Point","coordinates":[7.3200129,48.1576261]},"properties":{"natural":"tree"}},
{"type":"Feature","geometry":{"type":"Point","coordinates":[7.3200761,48.1576319]},"properties":{"natural":"tree"}},
{"type":"Feature","geometry":{"type":"Point","coordinates":[7.3201739,48.1576904]},"properties":{"natural":"tree"}},
{"type":"Feature","geometry":{"type":"Point","coordinates":[7.3202802,48.1576463]},"properties":{"natural":"tree"}},
{"type":"Feature","geometry":{"type":"Point","coordinates":[7.3204455,48.1576194]},"properties":{"natural":"tree"}},
{"type":"Feature","geometry":{"type":"Point","coordinates":[7.3205864,48.1577584]},"properties":{"natural":"tree"}},
{"type":"Feature","geometry":{"type":"Point","coordinates":[7.3208006,48.1576597]},"properties":{"natural":"tree"}},
{"type":"Feature","geometry":{"type":"Point","coordinates":[7.3209845,48.1576789]},"properties":{"natural":"tree"}},
{"type":"Feature","geometry":{"type":"Point","coordinates":[7.3210147,48.1578054]},"properties":{"natural":"tree"}},
{"type":"Feature","geometry":{"type":"Point","coordinates":[7.3212001,48.1577105]},"properties":{"natural":"tree"}},
{"type":"Feature","geometry":{"type":"Point","coordinates":[7.3215221,48.1574363]},"properties":{"natural":"tree"}},
{"type":"Feature","geometry":{"type":"Point","coordinates":[7.3209774,48.157187]},"properties":{"natural":"tree"}},
{"type":"Feature","geometry":{"type":"Point","coordinates":[7.3208451,48.1571841]},"properties":{"natural":"tree"}},
{"type":"Feature","geometry":{"type":"Point","coordinates":[7.3209314,48.1570105]},"properties":{"natural":"tree"}},
{"type":"Feature","geometry":{"type":"Point","coordinates":[7.320641,48.1570067]},"properties":{"natural":"tree"}},
{"type":"Feature","geometry":{"type":"Point","coordinates":[7.3208178,48.1570163]},"properties":{"natural":"tree"}},
{"type":"Feature","geometry":{"type":"Point","coordinates":[7.3208581,48.1568706]},"properties":{"natural":"tree"}},
{"type":"Feature","geometry":{"type":"Point","coordinates":[7.3208365,48.1568092]},"properties":{"natural":"tree"}},
{"type":"Feature","geometry":{"type":"Point","coordinates":[7.3204484,48.15686]},"properties":{"natural":"tree"}},
{"type":"Feature","geometry":{"type":"Point","coordinates":[7.3203607,48.1569175]},"properties":{"natural":"tree"}},
{"type":"Feature","geometry":{"type":"Point","coordinates":[7.3202112,48.156837]},"properties":{"natural":"tree"}},
{"type":"Feature","geometry":{"type":"Point","coordinates":[7.3202012,48.1567804]},"properties":{"natural":"tree"}},
{"type":"Feature","geometry":{"type":"Point","coordinates":[7.3208894,48.1576754]},"properties":{"natural":"tree"}},
{"type":"Feature","geometry":{"type":"Point","coordinates":[7.3210777,48.1577004]},"properties":{"natural":"tree"}},
{"type":"Feature","geometry":{"type":"Point","coordinates":[7.3208036,48.1687491]},"properties":{"natural":"tree"}},
{"type":"Feature","geometry":{"type":"Point","coordinates":[7.3378005,48.1662529]},"properties":{"natural":"tree"}},
{"type":"Feature","geometry":{"type":"Point","coordinates":[7.3370369,48.1665362]},"properties":{"natural":"tree"}},
{"type":"Feature","geometry":{"type":"Point","coordinates":[7.340804,48.1714319]},"properties":{"natural":"tree"}},
{"type":"Feature","geometry":{"type":"Point","coordinates":[7.3397596,48.187927]},"properties":{"natural":"tree"}},
{"type":"Feature","geometry":{"type":"Point","coordinates":[7.2994887,48.1659443]},"properties":{"leaf_type":"broadleaved","natural":"tree"}},
{"type":"Feature","geometry":{"type":"Point","coordinates":[7.2995573,48.1659276]},"properties":{"leaf_type":"broadleaved","natural":"tree"}},
{"type":"Feature","geometry":{"type":"Point","coordinates":[7.2994575,48.1658694]},"properties":{"leaf_type":"broadleaved","natural":"tree"}},
{"type":"Feature","geometry":{"type":"Point","coordinates":[7.2995274,48.165856]},"properties":{"leaf_type":"broadleaved","natural":"tree"}},
{"type":"Feature","geometry":{"type":"Point","coordinates":[7.2994287,48.1657994]},"properties":{"leaf_type":"broadleaved","natural":"tree"}},
{"type":"Feature","geometry":{"type":"Point","coordinates":[7.2995024,48.1657861]},"properties":{"leaf_type":"broadleaved","natural":"tree"}},
{"type":"Feature","geometry":{"type":"Point","coordinates":[7.2994013,48.1657295]},"properties":{"leaf_type":"broadleaved","natural":"tree"}},
{"type":"Feature","geometry":{"type":"Point","coordinates":[7.2994737,48.1657153]},"properties":{"leaf_type":"broadleaved","natural":"tree"}},
{"type":"Feature","geometry":{"type":"Point","coordinates":[7.2993763,48.1656587]},"properties":{"leaf_type":"broadleaved","natural":"tree"}},
{"type":"Feature","geometry":{"type":"Point","coordinates":[7.2994412,48.1656454]},"properties":{"leaf_type":"broadleaved","natural":"tree"}},
{"type":"Feature","geometry":{"type":"Point","coordinates":[7.2993401,48.1655879]},"properties":{"leaf_type":"broadleaved","natural":"tree"}},
{"type":"Feature","geometry":{"type":"Point","coordinates":[7.2993051,48.1655146]},"properties":{"natural":"tree"}},
{"type":"Feature","geometry":{"type":"Point","coordinates":[7.2994125,48.1655679]},"properties":{"leaf_type":"broadleaved","natural":"tree"}},
{"type":"Feature","geometry":{"type":"Point","coordinates":[7.299385,48.1654955]},"properties":{"natural":"tree"}},
{"type":"Feature","geometry":{"type":"Point","coordinates":[7.2993073,48.1652308]},"properties":{"name":"Arbre de la Liberté 1792","natural":"tree"}},
{"type":"Feature","geometry":{"type":"Point","coordinates":[7.2978388,48.1655049]},"properties":{"natural":"tree"}},
{"type":"Feature","geometry":{"type":"Point","coordinates":[7.2979121,48.1654924]},"properties":{"natural":"tree"}},
{"type":"Feature","geometry":{"type":"Point","coordinates":[7.2980162,48.1654731]},"properties":{"natural":"tree"}},
{"type":"Feature","geometry":{"type":"Point","coordinates":[7.2981151,48.1654617]},"properties":{"natural":"tree"}},
{"type":"Feature","geometry":{"type":"Point","coordinates":[7.2983249,48.1654276]},"properties":{"natural":"tree"}},
{"type":"Feature","geometry":{"type":"Point","coordinates":[7.2982191,48.1654458]},"properties":{"natural":"tree"}},
{"type":"Feature","geometry":{"type":"Point","coordinates":[7.2985432,48.1653946]},"properties":{"natural":"tree"}},
{"type":"Feature","geometry":{"type":"Point","coordinates":[7.2984289,48.1654116]},"properties":{"natural":"tree"}},
{"type":"Feature","geometry":{"type":"Point","coordinates":[7.298533,48.1653536]},"properties":{"natural":"tree"}},
{"type":"Feature","geometry":{"type":"Point","coordinates":[7.2986336,48.1653798]},"properties":{"natural":"tree"}},
{"type":"Feature","geometry":{"type":"Point","coordinates":[7.2986233,48.1653411]},"properties":{"natural":"tree"}},
{"type":"Feature","geometry":{"type":"Point","coordinates":[7.2987393,48.1653627]},"properties":{"natural":"tree"}},
{"type":"Feature","geometry":{"type":"Point","coordinates":[7.2987257,48.1653252]},"properties":{"natural":"tree"}},
{"type":"Feature","geometry":{"type":"Point","coordinates":[7.2988348,48.1653468]},"properties":{"natural":"tree"}},
{"type":"Feature","geometry":{"type":"Point","coordinates":[7.2988263,48.1653104]},"properties":{"natural":"tree"}},
{"type":"Feature","geometry":{"type":"Point","coordinates":[7.2989406,48.1653309]},"properties":{"natural":"tree"}},
{"type":"Feature","geometry":{"type":"Point","coordinates":[7.2989286,48.1652911]},"properties":{"natural":"tree"}},
{"type":"Feature","geometry":{"type":"Point","coordinates":[7.2990275,48.1653115]},"properties":{"name":"Arbre de la Liberté 1789","natural":"tree"}},
{"type":"Feature","geometry":{"type":"Point","coordinates":[7.2986557,48.1657916]},"properties":{"natural":"tree"}},
{"type":"Feature","geometry":{"type":"Point","coordinates":[7.2980247,48.1661363]},"properties":{"natural":"tree"}},
{"type":"Feature","geometry":{"type":"Point","coordinates":[7.3166777,48.1957002]},"properties":{"natural":"tree"}},
{"type":"Feature","geometry":{"type":"Point","coordinates":[7.3166612,48.1956629]},"properties":{"natural":"tree"}},
{"type":"Feature","geometry":{"type":"Point","coordinates":[7.3166077,48.1955475]},"properties":{"natural":"tree"}},
{"type":"Feature","geometry":{"type":"Point","coordinates":[7.3166243,48.1955925]},"properties":{"natural":"tree"}},
{"type":"Feature","geometry":{"type":"Point","coordinates":[7.3166421,48.1956315]},"properties":{"natural":"tree"}},
{"type":"Feature","geometry":{"type":"Point","coordinates":[7.3137957,48.1963442]},"properties":{"natural":"tree"}},
{"type":"Feature","geometry":{"type":"Point","coordinates":[7.3138749,48.1963178]},"properties":{"natural":"tree"}},
{"type":"Feature","geometry":{"type":"Point","coordinates":[7.3141446,48.196218]},"properties":{"natural":"tree"}},
{"type":"Feature","geometry":{"type":"Point","coordinates":[7.2989079,48.1668276]},"properties":{"name":"Hôtel à l'Oriel","tourism":"hotel"}},
{"type":"Feature","geometry":{"type":"Point","coordinates":[7.2987152,48.166461]},"properties":{"name":"Hôtel du Cerf","tourism":"hotel"}},
{"type":"Feature","geometry":{"type":"Point","coordinates":[7.2965207,48.1678807]},"properties":{"name":"Les Remparts de Riquewihr","tourism":"chalet"}},
{"type":"Feature","geometry":{"type":"Point","coordinates":[7.2965046,48.1678539]},"properties":{"name":"La Sentinelle","tourism":"chalet"}},
{"type":"Feature","geometry":{"type":"Point","coordinates":[7.246601,48.1079471]},"properties":{"ele":"732","name":"Galtz","natural":"peak"}},
{"type":"Feature","geometry":{"type":"Point","coordinates":[7.3031241,48.1032472]},"properties":{"tourism":"picnic_site"}},
{"type":"Feature","geometry":{"type":"Point","coordinates":[7.2745539,48.1976054]},"properties":{"name":"Rocher Saint-Jacques","tourism":"viewpoint"}},
{"type":"Feature","geometry":{"type":"Point","coordinates":[7.3081959,48.202088]},"properties":{"historic":"boundary_stone"}},
{"type":"Feature","geometry":{"type":"Point","coordinates":[7.3100429,48.2017847]},"properties":{"historic":"boundary_stone"}},
{"type":"Feature","geometry":{"type":"Point","coordinates":[7.3098327,48.2020204]},"properties":{"historic":"boundary_stone","name":"394"}},
{"type":"Feature","geometry":{"type":"Point","coordinates":[7.3074406,48.202084]},"properties":{"historic":"boundary_stone","inscription":"402"}},
{"type":"Feature","geometry":{"type":"Point","coordinates":[7.3101117,48.1975465]},"properties":{"historic":"wayside_shrine"}},
{"type":"Feature","geometry":{"type":"Point","coordinates":[7.3099727,48.1974958]},"properties":{"historic":"wayside_shrine"}},
{"type":"Feature","geometry":{"type":"Point","coordinates":[7.3035278,48.1995943]},"properties":{"historic":"boundary_stone"}},
{"type":"Feature","geometry":{"type":"Point","coordinates":[7.2945896,48.2018629]},"properties":{"tourism":"picnic_site"}},
{"type":"Feature","geometry":{"type":"Point","coordinates":[7.2696834,48.1954673]},"properties":{"tourism":"viewpoint"}},
{"type":"Feature","geometry":{"type":"Point","coordinates":[7.3055445,48.170602]},"properties":{"name":"Chêne remarquable","natural":"tree"}},
{"type":"Feature","geometry":{"type":"Point","coordinates":[7.2876891,48.1417421]},"properties":{"denomination":"catholic","historic":"wayside_shrine","religion":"christian"}},
{"type":"Feature","geometry":{"type":"Point","coordinates":[7.2875816,48.1417014]},"properties":{"leisure":"picnic_table"}},
{"type":"Feature","geometry":{"type":"Point","coordinates":[7.2995031,48.1691856]},"properties":{"direction":"200","tourism":"viewpoint"}},
{"type":"Feature","geometry":{"type":"Point","coordinates":[7.2959943,48.1663406]},"properties":{"addr:city":"Riquewihr","addr:housenumber":"20","addr:postcode":"68340","addr:street":"Rue Saint-Nicolas","beds":"5","breakfast":"yes","internet_access":"wlan","internet_access:fee":"no","name":"Chambre d'hôtes \"Pierre-André\"","phone":"+33 6 47 09 56 58","rooms":"2","tourism":"guest_house","website":"https://www.chambres-hotes.fr/chambres-hotes_chambre-d-hotes-pierre-andre_riquewihr_42790_de.htm"}},
{"type":"Feature","geometry":{"type":"Point","coordinates":[7.2649259,48.1427167]},"properties":{"direction":"90-225","tourism":"viewpoint"}},
{"type":"Feature","geometry":{"type":"Point","coordinates":[7.3082578,48.1806853]},"properties":{"access":"yes","leisure":"playground","opening_hours":"24/7"}},
{"type":"Feature","geometry":{"type":"Point","coordinates":[7.3087386,48.1828534]},"properties":{"tourism":"information"}},
{"type":"Feature","geometry":{"type":"Point","coordinates":[7.3175621,48.1670272]},"properties":{"board_type":"geology","information":"board","tourism":"information"}},
{"type":"Feature","geometry":{"type":"Point","coordinates":[7.2661141,48.1346504]},"properties":{"tourism":"viewpoint"}},
{"type":"Feature","geometry":{"type":"Point","coordinates":[7.2464606,48.1079267]},"properties":{"entrance":"yes","wheelchair":"no"}},
{"type":"Feature","geometry":{"type":"Point","coordinates":[7.3307359,48.1429281]},"properties":{"leisure":"playground"}},
{"type":"Feature","geometry":{"type":"Point","coordinates":[7.2807924999999999,48.1097619]},"properties":{"bench":"yes","leisure":"picnic_table","lit":"no","material":"wood"}},
{"type":"Feature","geometry":{"type":"Point","coordinates":[7.252492,48.130454]},"properties":{"bench":"yes","leisure":"picnic_table","lit":"no","material":"wood"}},
{"type":"Feature","geometry":{"type":"Point","coordinates":[7.2524952,48.1305521]},"properties":{"bench":"yes","leisure":"picnic_table","lit":"no","material":"wood"}},
{"type":"Feature","geometry":{"type":"Point","coordinates":[7.2773654,48.1077819]},"properties":{"direction":"66","information":"map","tourism":"information"}},
{"type":"Feature","geometry":{"type":"Point","coordinates":[7.3169167,48.1978309]},"properties":{"historic":"wayside_shrine","religion":"christian"}},
{"type":"Feature","geometry":{"type":"Point","coordinates":[7.3128524,48.0870303]},"properties":{"playground":"?"}},
{"type":"Feature","geometry":{"type":"Point","coordinates":[7.3127532,48.0871055]},"properties":{"playground":"?"}},
{"type":"Feature","geometry":{"type":"Point","coordinates":[7.3127693,48.0871772]},"properties":{"playground":"?"}},
{"type":"Feature","geometry":{"type":"Point","coordinates":[7.3125279,48.0872345]},"properties":{"playground":"?"}},
{"type":"Feature","geometry":{"type":"Point","coordinates":[7.3122945,48.0871808]},"properties":{"playground":"?"}},
{"type":"Feature","geometry":{"type":"Point","coordinates":[7.3042561,48.0992235]},"properties":{"access":"yes","leisure":"playground"}},
{"type":"Feature","geometry":{"type":"Point","coordinates":[7.3116966,48.1391737]},"properties":{"description":"Table d'orientation","information":"map","map_type":"toposcope","tourism":"information"}},
{"type":"Feature","geometry":{"type":"Point","coordinates":[7.3084443,48.1402248]},"properties":{"historic":"memorial","inscription":"En l'honneur des femmes ayant servi en France au prix de leur vie durant la Seconde Guerre Mondiale","memorial":"plaque"}},
{"type":"Feature","geometry":{"type":"Point","coordinates":[7.2465663,48.1079647]},"properties":{"tourism":"viewpoint"}},
{"type":"Feature","geometry":{"type":"Point","coordinates":[7.2561477,48.1472533]},"properties":{"access":"yes","leisure":"playground"}},
{"type":"Feature","geometry":{"type":"Point","coordinates":[7.3015915,48.0965387]},"properties":{"access":"yes","leisure":"playground"}},
{"type":"Feature","geometry":{"type":"Point","coordinates":[7.27003,48.0859654]},"properties":{"historic":"monument"}},
{"type":"Feature","geometry":{"type":"Point","coordinates":[7.3018669,48.2006759]},"properties":{"direction":"270","tourism":"viewpoint"}},
{"type":"Feature","geometry":{"type":"Point","coordinates":[7.2791552,48.1254483]},"properties":{"leisure":"playground"}},
{"type":"Feature","geometry":{"type":"Point","coordinates":[7.2651266,48.136721]},"properties":{"access":"yes","leisure":"playground"}},
{"type":"Feature","geometry":{"type":"Point","coordinates":[7.3064004,48.0871574]},"properties":{"addr:housenumber":"19","addr:postcode":"68124","addr:street":"Rue du Muhlbach","caravans":"yes","drinking_water":"yes","name":"Kempf Marc","name:en":"Camping Marc","phone":"+33 3 89 27 40 38","power_supply":"yes","shower":"yes","tents":"yes","toilets":"yes","tourism":"camp_site"}},
{"type":"Feature","geometry":{"type":"Point","coordinates":[7.2778912,48.0874949]},"properties":{"entrance":"main"}},
{"type":"Feature","geometry":{"type":"Point","coordinates":[7.2794148,48.0872097]},"properties":{"noexit":"yes"}},
{"type":"Feature","geometry":{"type":"Point","coordinates":[7.2970612,48.1662687]},"properties":{"addr:housenumber":"6","addr:street":"Rue de la 1ère Armée","contact:facebook":"https://www.facebook.com/G%C3%AEte-les-Bains-257670374395497/","contact:phone":"+33 3 89 47 98 30; +33 6 71 33 96 15","contact:website":"https://www.giteslesbainsriquewihr.com","name":"Gîtes les bains","tourism":"chalet"}},
{"type":"Feature","geometry":{"type":"Point","coordinates":[7.2969813,48.1661767]},"properties":{"addr:housenumber":"8","addr:street":"Rue de la 1ère Armée","contact:email":"gite.riquewihr@yahoo.fr","contact:phone":"+33 6 81 99 61 36; +33 7 69 63 43 10","contact:website":"http://riquewihr-gites.com","name":"Gîtes Riquewihr","tourism":"chalet"}},
{"type":"Feature","geometry":{"type":"Point","coordinates":[7.295109,48.1672032]},"properties":{"historic":"memorial","inscription":"Mur d’enceinte “du haut”","memorial":"plaque"}},
{"type":"Feature","geometry":{"type":"Point","coordinates":[7.2956334,48.1671917]},"properties":{"historic":"memorial","inscription":"Tour de garde de la ville","memorial":"plaque"}},
{"type":"Feature","geometry":{"type":"Point","coordinates":[7.2968659,48.1671482]},"properties":{"historic":"memorial","inscription":"Cour de la coopération des vignerons","memorial":"plaque"}},
{"type":"Feature","geometry":{"type":"Point","coordinates":[7.2956623,48.1671933]},"properties":{"fee":"yes","name":"Musée du Dolder","tourism":"museum"}},
{"type":"Feature","geometry":{"type":"Point","coordinates":[7.2952114,48.1671726]},"properties":{"board_type":"art","information":"board","inscription":"Josepha “La Dame du Parc”","tourism":"information"}},
{"type":"Feature","geometry":{"type":"Point","coordinates":[7.3001677,48.1662631]},"properties":{"artwork_type":"statue","material":"steel","tourism":"artwork"}},
{"type":"Feature","geometry":{"type":"Point","coordinates":[7.2998442,48.1662043]},"properties":{"information":"map","map_size":"city","map_type":"scheme","tourism":"information"}},
{"type":"Feature","geometry":{"type":"Point","coordinates":[7.2952215,48.1671511]},"properties":{"artwork_type":"statue","material":"bronze","name":"Joespha “La dame Du Parc”","tourism":"artwork"}},
{"type":"Feature","geometry":{"type":"Point","coordinates":[7.2957116,48.1672865]},"properties":{"board_type":"history","information":"board","tourism":"information"}},
{"type":"Feature","geometry":{"type":"Point","coordinates":[7.3001732,48.166539]},"properties":{"information":"map","inscription":"Riquewihr","map_size":"city","map_type":"scheme","ref":"23","tourism":"information"}},
{"type":"Feature","geometry":{"type":"Point","coordinates":[7.2995751,48.1664974]},"properties":{"natural":"tree"}},
{"type":"Feature","geometry":{"type":"Point","coordinates":[7.2951134,48.1671904]},"properties":{"board_type":"notice","information":"board","tourism":"information"}},
{"type":"Feature","geometry":{"type":"Point","coordinates":[7.2979424,48.1666609]},"properties":{"board_type":"notice","information":"board","tourism":"information"}},
{"type":"Feature","geometry":{"type":"Point","coordinates":[7.2967752,48.1671483]},"properties":{"historic":"memorial","inscription":"Ancienne Auberge À l’Étoile","memorial":"plaque"}},
{"type":"Feature","geometry":{"type":"Point","coordinates":[7.2958793,48.1671485]},"properties":{"artwork_type":"mural","tourism":"artwork"}},
{"type":"Feature","geometry":{"type":"Point","coordinates":[7.299824,48.1662624]},"properties":{"artwork_type":"sculpture","material":"stone","tourism":"artwork"}},
{"type":"Feature","geometry":{"type":"Point","coordinates":[7.2953279,48.1671936]},"properties":{"historic":"memorial","inscription":"Porte fortifiée “du haut”","memorial":"plaque"}},
{"type":"Feature","geometry":{"type":"Point","coordinates":[7.2954036,48.1672481]},"properties":{"historic":"memorial","inscription":"Maison du serrurier de la ville","memorial":"plaque"}},
{"type":"Feature","geometry":{"type":"Point","coordinates":[7.299443,48.1662726]},"properties":{"board_type":"history","devices":"2","information":"board","tourism":"information"}},
{"type":"Feature","geometry":{"type":"Point","coordinates":[7.2957766,48.1671653]},"properties":{"historic":"memorial","inscription":"La maison de Ulrich Muré","memorial":"plaque"}},
{"type":"Feature","geometry":{"type":"Point","coordinates":[7.2970974,48.1670809]},"properties":{"historic":"memorial","inscription":"La Cour des Nobles","material":"bronze","memorial":"plaque"}},
{"type":"Feature","geometry":{"type":"Point","coordinates":[7.2996287,48.1664858]},"properties":{"natural":"tree"}},
{"type":"Feature","geometry":{"type":"Point","coordinates":[7.2989779,48.1653005]},"properties":{"bench":"yes","covered":"no","leisure":"picnic_table","lit":"yes","material":"wood"}},
{"type":"Feature","geometry":{"type":"Point","coordinates":[7.2991331,48.1652233]},"properties":{"information":"map","map_size":"city","map_type":"scheme","tourism":"information"}},
{"type":"Feature","geometry":{"type":"Point","coordinates":[7.2990315,48.1653113]},"properties":{"historic":"memorial","inscription":"Arbre de la Liberté - Planté en commémoration du 200è anniversaire de la révolution française - 1989","memorial":"plaque"}},
{"type":"Feature","geometry":{"type":"Point","coordinates":[7.2989819,48.1653193]},"properties":{"bench":"yes","covered":"no","leisure":"picnic_table","lit":"yes","material":"wood"}},
{"type":"Feature","geometry":{"type":"Point","coordinates":[7.2991851,48.1655178]},"properties":{"board_type":"notice","information":"board","tourism":"information"}},
{"type":"Feature","geometry":{"type":"Point","coordinates":[7.2977176,48.1654066]},"properties":{"addr:housenumber":"2","addr:street":"Rue des Remparts","check_date":"2024-10-15","contact:email":"contact@gite-de-charme-riquewihr.fr","contact:phone":"+33 6 76 00 82 92; +33 6 88 34 03 14","contact:website":"https://gite-de-charme-riquewihr.fr","internet_access":"yes","name":"Les Balcons de Riquewihr","stars":"5","tourism":"apartment"}},
{"type":"Feature","geometry":{"type":"Point","coordinates":[7.2978067,48.1653936]},"properties":{"access":"customers","leisure":"outdoor_seating"}},
{"type":"Feature","geometry":{"type":"Point","coordinates":[7.2993412,48.1654396]},"properties":{"information":"map","map_size":"city","map_type":"scheme","support":"wall","tourism":"information"}},
{"type":"Feature","geometry":{"type":"Point","coordinates":[7.3005859,48.1669914]},"properties":{"artwork_type":"sculpture","material":"metal","tourism":"artwork"}},
{"type":"Feature","geometry":{"type":"Point","coordinates":[7.3052386,48.1694874]},"properties":{"artwork_type":"mural","tourism":"artwork"}},
{"type":"Feature","geometry":{"type":"Point","coordinates":[7.3004965,48.1673593]},"properties":{"hoops":"1","leisure":"pitch","pitch":"half_court","sport":"basketball"}},
{"type":"Feature","geometry":{"type":"Point","coordinates":[7.3052283,48.1694024]},"properties":{"board_type":"geology","information":"board","tourism":"information"}},
{"type":"Feature","geometry":{"type":"Point","coordinates":[7.3048087,48.167864]},"properties":{"historic":"memorial","inscription":"1639-1989 Cette vigne a été plantée le 16 juin 1989 pour commémorer le 350ème anniversaire de l’établissement du premier Hugel à Riquewihr en 1639","material":"bronze","memorial":"plaque"}},
{"type":"Feature","geometry":{"type":"Point","coordinates":[7.3048071,48.1678544]},"properties":{"denomination":"catholic","historic":"wayside_cross","religion":"christian"}},
{"type":"Feature","geometry":{"type":"Point","coordinates":[7.2979438,48.1694176]},"properties":{"board_type":"geology","information":"board","tourism":"information"}},
{"type":"Feature","geometry":{"type":"Point","coordinates":[7.2965503,48.1702687]},"properties":{"board_type":"geology","information":"board","tourism":"information"}},
{"type":"Feature","geometry":{"type":"Point","coordinates":[7.3008216,48.1691172]},"properties":{"board_type":"geology","information":"board","tourism":"information"}},
{"type":"Feature","geometry":{"type":"Point","coordinates":[7.2948529,48.1695469]},"properties":{"board_type":"history","information":"board","tourism":"information"}},
{"type":"Feature","geometry":{"type":"Point","coordinates":[7.3202151,48.1676123]},"properties":{"leisure":"playground"}},
{"type":"Feature","geometry":{"type":"Point","coordinates":[7.3278366,48.1511964]},"properties":{"board_type":"history","information":"board","tourism":"information"}},
{"type":"Feature","geometry":{"type":"Point","coordinates":[7.323769,48.1520061]},"properties":{"board_type":"history","information":"board","tourism":"information"}},
{"type":"Feature","geometry":{"type":"Point","coordinates":[7.3228919,48.153308]},"properties":{"tourism":"viewpoint"}},
{"type":"Feature","geometry":{"type":"Point","coordinates":[7.2793553,48.1118984]},"properties":{"natural":"tree"}},
{"type":"Feature","geometry":{"type":"Point","coordinates":[7.3165458,48.1967695]},"properties":{"name":"Séquoia","natural":"tree"}},
{"type":"Feature","geometry":{"type":"Point","coordinates":[7.3171252,48.197591]},"properties":{"tourism":"picnic_site"}},
{"type":"Feature","geometry":{"type":"Point","coordinates":[7.303175,48.1997346]},"properties":{"historic":"boundary_stone","name":"86"}},
{"type":"Feature","geometry":{"type":"Point","coordinates":[7.3066136,48.2025887]},"properties":{"historic":"boundary_stone","name":"406"}},
{"type":"Feature","geometry":{"type":"Point","coordinates":[7.3071702,48.2023818]},"properties":{"historic":"boundary_stone","name":"404"}},
{"type":"Feature","geometry":{"type":"Point","coordinates":[7.307484,48.2020987]},"properties":{"historic":"boundary_stone","name":"402"}},
{"type":"Feature","geometry":{"type":"Point","coordinates":[7.3079641,48.2020792]},"properties":{"historic":"boundary_stone","name":"400"}},
{"type":"Feature","geometry":{"type":"Point","coordinates":[7.312216,48.1980833]},"properties":{"tourism":"viewpoint"}},
{"type":"Feature","geometry":{"type":"Point","coordinates":[7.3281401,48.1968607]},"properties":{"destination":"sentier viticole;schlusselstein;sentier d'interprétation Altenholz","hiking":"yes","information":"guidepost","tourism":"information"}},
{"type":"Feature","geometry":{"type":"Point","coordinates":[7.291002,48.1694771]},"properties":{"leisure":"firepit"}},
{"type":"Feature","geometry":{"type":"Point","coordinates":[7.2910328,48.1694493]},"properties":{"leisure":"picnic_table"}},
{"type":"Feature","geometry":{"type":"Point","coordinates":[7.2909733,48.1694932]},"properties":{"leisure":"picnic_table"}},
{"type":"Feature","geometry":{"type":"Point","coordinates":[7.2589451,48.1399615]},"properties":{"covered":"no","leisure":"picnic_table"}},
{"type":"Feature","geometry":{"type":"Point","coordinates":[7.3358353,48.1210861]},"properties":{"leisure":"playground"}},
{"type":"Feature","geometry":{"type":"Point","coordinates":[7.2866643,48.1266375]},"properties":{"addr:city":"Ammerschwihr","addr:country":"FR","addr:housenumber":"13","addr:postcode":"68770","addr:street":"Rue de Kientzheim","contact:website":"https://www.alsacebnb.fr/","internet_access":"wlan","name":"Alsacebnb","tourism":"chalet"}},
{"type":"Feature","geometry":{"type":"Point","coordinates":[7.3411864,48.1882641]},"properties":{"barrier":"gate"}},
{"type":"Feature","geometry":{"type":"Point","coordinates":[7.3014541,48.1762423]},"properties":{"leisure":"picnic_table"}},
{"type":"Feature","geometry":{"type":"Point","coordinates":[7.3171078,48.1961021]},"properties":{"description":"Maison natale de Wendling Jean-Baptiste (Flûtiste et compositeur de renom ami de Mozart)","name":"Maison Natale de Jean-Baptiste Wendling","tourism":"attraction","wikidata":"Q214928"}},
{"type":"Feature","geometry":{"type":"Point","coordinates":[7.301386,48.2017923]},"properties":{"genus":"Pinus","leaf_type":"needleleaved","natural":"tree","species":"Pinus sylvestris"}},
{"type":"Feature","geometry":{"type":"Point","coordinates":[7.3183657,48.1595135]},"properties":{"natural":"tree"}},
{"type":"Feature","geometry":{"type":"Point","coordinates":[7.3184628,48.1595672]},"properties":{"natural":"tree"}},
{"type":"Feature","geometry":{"type":"Point","coordinates":[7.3184439,48.1596385]},"properties":{"natural":"tree"}},
{"type":"Feature","geometry":{"type":"Point","coordinates":[7.3185577,48.1596567]},"properties":{"natural":"tree"}},
{"type":"Feature","geometry":{"type":"Point","coordinates":[7.3186115,48.1595793]},"properties":{"natural":"tree"}},
{"type":"Feature","geometry":{"type":"Point","coordinates":[7.318478,48.1594649]},"properties":{"natural":"tree"}},
{"type":"Feature","geometry":{"type":"Point","coordinates":[7.3183968,48.1594153]},"properties":{"natural":"tree"}},
{"type":"Feature","geometry":{"type":"Point","coordinates":[7.3204951,48.1698984]},"properties":{"tourism":"picnic_site"}},
{"type":"Feature","geometry":{"type":"Point","coordinates":[7.3205272,48.1698099]},"properties":{"fee":"no","museum":"history","name":"Pompe à bras incendie","name:de":"Feuerspritze","name:en":"Hand pimp fire engine","tourism":"museum"}},
{"type":"Feature","geometry":{"type":"Point","coordinates":[7.3159733,48.1719146]},"properties":{"drinking_water":"no","name":"Fontaine","natural":"spring"}},
{"type":"Feature","geometry":{"type":"Point","coordinates":[7.2934874,48.2010355]},"properties":{"bench":"yes","leisure":"picnic_table","lit":"no","material":"wood"}},
{"type":"Feature","geometry":{"type":"Point","coordinates":[7.2938429,48.2010821]},"properties":{"bench":"yes","leisure":"picnic_table","lit":"no","material":"wood"}},
{"type":"Feature","geometry":{"type":"Point","coordinates":[7.3114397,48.1766146]},"properties":{"direction":"340","tourism":"viewpoint"}},
{"type":"Feature","geometry":{"type":"Point","coordinates":[7.3123509,48.1732695]},"properties":{"tourism":"picnic_table"}},
{"type":"Feature","geometry":{"type":"Point","coordinates":[7.3120237,48.1727015]},"properties":{"tourism":"picnic_table"}},
{"type":"Feature","geometry":{"type":"Point","coordinates":[7.3185754,48.195244]},"properties":{"amenity":"clock","covered":"yes"}},
{"type":"Feature","geometry":{"type":"Point","coordinates":[7.3220564,48.193992]},"properties":{"artwork_type":"statue","tourism":"artwork"}},
{"type":"Feature","geometry":{"type":"Point","coordinates":[7.3241825,48.1929955]},"properties":{"information":"map","tourism":"information"}},
{"type":"Feature","geometry":{"type":"Point","coordinates":[7.2529346,48.1444792]},"properties":{"leisure":"pitch","sport":"table_tennis"}},
{"type":"Feature","geometry":{"type":"Point","coordinates":[7.2511445,48.1454527]},"properties":{"leisure":"pitch","sport":"table_tennis"}},
{"type":"Feature","geometry":{"type":"Point","coordinates":[7.3234794,48.1933696]},"properties":{"natural":"tree"}},
{"type":"Feature","geometry":{"type":"Point","coordinates":[7.3187147,48.1945741]},"properties":{"natural":"tree"}},
{"type":"Feature","geometry":{"type":"Point","coordinates":[7.3287146,48.1920902]},"properties":{"natural":"tree"}},
{"type":"Feature","geometry":{"type":"Point","coordinates":[7.3288801,48.1923206]},"properties":{"natural":"tree"}},
{"type":"Feature","geometry":{"type":"Point","coordinates":[7.3288155,48.1923206]},"properties":{"natural":"tree"}},
{"type":"Feature","geometry":{"type":"Point","coordinates":[7.3287258,48.1923192]},"properties":{"natural":"tree"}},
{"type":"Feature","geometry":{"type":"Point","coordinates":[7.3290095,48.1919378]},"properties":{"natural":"tree"}},
{"type":"Feature","geometry":{"type":"Point","coordinates":[7.3290028,48.1920071]},"properties":{"natural":"tree"}},
{"type":"Feature","geometry":{"type":"Point","coordinates":[7.3286261,48.1921728]},"properties":{"natural":"tree"}},
{"type":"Feature","geometry":{"type":"Point","coordinates":[7.3286183,48.1920771]},"properties":{"natural":"tree"}},
{"type":"Feature","geometry":{"type":"Point","coordinates":[7.3306106,48.1927267]},"properties":{"natural":"tree"}},
{"type":"Feature","geometry":{"type":"Point","coordinates":[7.3307257,48.1927568]},"properties":{"natural":"tree"}},
{"type":"Feature","geometry":{"type":"Point","coordinates":[7.3303869,48.1925386]},"properties":{"natural":"tree"}},
{"type":"Feature","geometry":{"type":"Point","coordinates":[7.3301745,48.1925919]},"properties":{"natural":"tree"}},
{"type":"Feature","geometry":{"type":"Point","coordinates":[7.3213254,48.0873008]},"properties":{"natural":"tree"}},
{"type":"Feature","geometry":{"type":"Point","coordinates":[7.3214036,48.0872947]},"properties":{"natural":"tree"}},
{"type":"Feature","geometry":{"type":"Point","coordinates":[7.3319063,48.1922341]},"properties":{"natural":"tree"}},
{"type":"Feature","geometry":{"type":"Point","coordinates":[7.3325276,48.1921759]},"properties":{"natural":"tree"}},
{"type":"Feature","geometry":{"type":"Point","coordinates":[7.3328897,48.1920543]},"properties":{"natural":"tree"}},
{"type":"Feature","geometry":{"type":"Point","coordinates":[7.3328202,48.1920664]},"properties":{"natural":"tree"}},
{"type":"Feature","geometry":{"type":"Point","coordinates":[7.3330039,48.1921193]},"properties":{"natural":"tree"}},
{"type":"Feature","geometry":{"type":"Point","coordinates":[7.3335195,48.1920158]},"properties":{"natural":"tree"}},
{"type":"Feature","geometry":{"type":"Point","coordinates":[7.3337506,48.192463]},"properties":{"natural":"tree"}},
{"type":"Feature","geometry":{"type":"Point","coordinates":[7.3329504,48.1921745]},"properties":{"natural":"tree"}},
{"type":"Feature","geometry":{"type":"Point","coordinates":[7.3337995,48.1920853]},"properties":{"natural":"tree"}},
{"type":"Feature","geometry":{"type":"Point","coordinates":[7.3336503,48.192101]},"properties":{"natural":"tree"}},
{"type":"Feature","geometry":{"type":"Point","coordinates":[7.3334395,48.1921231]},"properties":{"natural":"tree"}},
{"type":"Feature","geometry":{"type":"Point","coordinates":[7.3333062,48.1921371]},"properties":{"natural":"tree"}},
{"type":"Feature","geometry":{"type":"Point","coordinates":[7.3331203,48.1921567]},"properties":{"natural":"tree"}},
{"type":"Feature","geometry":{"type":"Point","coordinates":[7.3337939,48.1920224]},"properties":{"natural":"tree"}},
{"type":"Feature","geometry":{"type":"Point","coordinates":[7.3339941,48.1920592]},"properties":{"natural":"tree"}},
{"type":"Feature","geometry":{"type":"Point","coordinates":[7.3332565,48.1920966]},"properties":{"natural":"tree"}},
{"type":"Feature","geometry":{"type":"Point","coordinates":[7.3250142,48.1926429]},"properties":{"board_type":"information","information":"board","tourism":"information"}},
{"type":"Feature","geometry":{"type":"Point","coordinates":[7.3248828,48.1944919]},