{"type":"FeatureCollection","features":[
{"type":"Feature","geometry":{"type":"Point","coordinates":[6.4852654,44.5512084]},"properties":{"description":"take out here, near a kayak shop, or proceed down to the lake","name":"La Clapière","whitewater":"egress"}},
{"type":"Feature","geometry":{"type":"Point","coordinates":[6.5194478,44.5409975]},"properties":{"description":"Calvaire : Repère en bronze scellé - Point vu en place en 2002","ele":"1209.9","historic":"wayside_cross","man_made":"survey_point","note":"Ne pas déplacer ce point, cf. - Do not move this node, see - http://wiki.openstreetmap.org/wiki/WikiProject_France/Repères_Géodésiques#Permanence_des_rep.C3.A8res","ref":"0515601 - B","source":"©IGN 2010 dans le cadre de la cartographie réglementaire","url":"http://geodesie.ign.fr/fiches/index.php?module=e&action=fichepdf&source=carte&sit_no=0515601"}},
{"type":"Feature","geometry":{"type":"Point","coordinates":[6.4312004,44.5327279]},"properties":{"leisure":"sports_centre","name":"Spot de Boscodon","sport":"kitesurfing"}},
{"type":"Feature","geometry":{"type":"Point","coordinates":[6.4962375,44.564214]},"properties":{"addr:city":"Embrun","addr:postcode":"05200","addr:street":"Place Barthelon","award":"3 cheminées (grand confort)","city":"Embrun","contact:email":"courrier@hoteldelamairie.com","contact:fax":"+33 4 92 43 47 02","contact:phone":"+33 4 92 43 20 65","contact:website":"https://www.hoteldelamairie.com","description:FR":"L'hôtel, situé au cœur de la vieille ville, vous charmera par son authenticité.","ele":"870","name":"Hôtel Logis De La Mairie","opening_day":"Du 01/01 au 01/12 : ouvert tous les jours.","operator":"Logis","ref:INSEE:city":"05046","source:modif":"Apidae (2017-11-21), in Opendata PACA","stars":"3","tourism":"hotel","website":"https://www.hoteldelamairie.com"}},
{"type":"Feature","geometry":{"type":"Point","coordinates":[6.4822281,44.5584593]},"properties":{"barrier":"gate"}},
{"type":"Feature","geometry":{"type":"Point","coordinates":[6.4798213,44.5590899]},"properties":{"access":"private","leisure":"playground"}},
{"type":"Feature","geometry":{"type":"Point","coordinates":[6.4957794,44.5650192]},"properties":{"information":"office","internet_access":"wlan","name":"Office de Tourisme D’Embrun","operator":"Embrun","tourism":"information","website":"http://tourisme-embrun.com/"}},
{"type":"Feature","geometry":{"type":"Point","coordinates":[6.4961907,44.5621556]},"properties":{"direction":"180","tourism":"viewpoint","wheelchair":"limited"}},
{"type":"Feature","geometry":{"type":"Point","coordinates":[6.4496437,44.4933343]},"properties":{"ele":"1424","name":"Belvédère du Colombier","tourism":"viewpoint"}},
{"type":"Feature","geometry":{"type":"Point","coordinates":[6.4393515,44.4862358]},"properties":{"ele":"1650","name":"Belvédère des Pyramides","tourism":"viewpoint"}},
{"type":"Feature","geometry":{"type":"Point","coordinates":[6.5269261,44.4819156]},"properties":{"ele":"2452","name":"Tête de la Mazelière","natural":"peak"}},
{"type":"Feature","geometry":{"type":"Point","coordinates":[6.5157716,44.4584706]},"properties":{"ele":"2898","name":"Le Pouzenc","natural":"peak","wikidata":"Q3322045"}},
{"type":"Feature","geometry":{"type":"Point","coordinates":[6.507964,44.4866644]},"properties":{"ele":"2353","name":"Crête du Lauzet","natural":"peak"}},
{"type":"Feature","geometry":{"type":"Point","coordinates":[6.491802,44.5359634]},"properties":{"addr:city":"Baratier","addr:postcode":"05200","addr:street":"Chemin de Lesdier","award":"3 cheminées (grand confort)","check_date":"2024-09-09","city":"Baratier","contact:email":"info@hotel-les-peupliers.com","contact:phone":"+33 4 92 43 03 47","contact:website":"https://www.hotel-les-peupliers.com","description:FR":"Chaleureux hôtel qui invite à vivre l'expérience 3 étoiles, dans un cadre authentique, entre lace de Serre-Ponçon et montagne.","ele":"850","hide":"no","name":"Hôtel Logis Les Peupliers","operator":"Logis","phone":"+33 4 92 43 03 47","ref":"H52","ref:INSEE:city":"05012","source:modif":"Apidae (2017-11-21), in Opendata PACA","stars":"3","tourism":"hotel","website":"https://www.hotel-les-peupliers.com"}},
{"type":"Feature","geometry":{"type":"Point","coordinates":[6.4908946,44.5307965]},"properties":{"addr:city":"Baratier","addr:postcode":"05200","addr:street":"Route des Orres","email":"val-ubaye@ihtourisme.fr","hide":"no","name":"Domaine de Val Ubaye","phone":"+33 4 92 43 04 79","ref":"H57","tourism":"holiday_center","website":"https://www.ihtourisme.be/"}},
{"type":"Feature","geometry":{"type":"Point","coordinates":[6.518514,44.5374841]},"properties":{"addr:city":"Saint-Sauveur","addr:postcode":"05200","addr:street":"Les Michels","email":"info@villa-embrun.com","hide":"no","name":"Villa \"Les Chemins Croisées\"","phone":"+33 6 76 64 32 14","ref":"H58","tourism":"guest_house","website":"https://villa-embrun.com/"}},
{"type":"Feature","geometry":{"type":"Point","coordinates":[6.4599848,44.5462187]},"properties":{"addr:city":"Embrun","addr:place":"Chadenas","addr:postcode":"05200","addr:street":"Route de Chadenas","email":"contact@espaces-vacances.com","hide":"no","name":"Village Vacances de Chadenas","phone":"+33 4 92 43 05 08","ref":"H59","tourism":"holiday_village","website":"https://chadenas-vacances.com/"}},
{"type":"Feature","geometry":{"type":"Point","coordinates":[6.5262702,44.5663181]},"properties":{"natural":"stone"}},
{"type":"Feature","geometry":{"type":"Point","coordinates":[6.4432266,44.4683171]},"properties":{"ele":"2147","mountain_pass":"yes","name":"Col de la Rousse","natural":"saddle"}},
{"type":"Feature","geometry":{"type":"Point","coordinates":[6.4344459,44.4749547]},"properties":{"ele":"2316","name":"Pic de Charance","natural":"peak"}},
{"type":"Feature","geometry":{"type":"Point","coordinates":[6.4286094,44.4812596]},"properties":{"ele":"2035","name":"Col de la Baisse","natural":"saddle"}},
{"type":"Feature","geometry":{"type":"Point","coordinates":[6.5139727,44.4534319]},"properties":{"ele":"2658","name":"Col du Pouzenc","natural":"saddle"}},
{"type":"Feature","geometry":{"type":"Point","coordinates":[6.4976861,44.513661]},"properties":{"name":"Belvédère de Plat aiguille","tourism":"viewpoint"}},
{"type":"Feature","geometry":{"type":"Point","coordinates":[6.4982105,44.5186843]},"properties":{"name":"Plat Oreille","tourism":"viewpoint"}},
{"type":"Feature","geometry":{"type":"Point","coordinates":[6.4513822,44.4867243]},"properties":{"tourism":"picnic_site"}},
{"type":"Feature","geometry":{"type":"Point","coordinates":[6.4543436,44.4846787]},"properties":{"ele":"1543","name":"Belvédère de Bragousse","tourism":"viewpoint"}},
{"type":"Feature","geometry":{"type":"Point","coordinates":[6.4574359,44.484794]},"properties":{"name":"1361 m","tourism":"viewpoint"}},
{"type":"Feature","geometry":{"type":"Point","coordinates":[6.4259928,44.4873369]},"properties":{"ele":"2100","name":"Pic Martin Jean","natural":"peak"}},
{"type":"Feature","geometry":{"type":"Point","coordinates":[6.4468109,44.4898523]},"properties":{"ele":"1570","name":"Belvédère des Aiguillas","tourism":"viewpoint"}},
{"type":"Feature","geometry":{"type":"Point","coordinates":[6.4673905,44.5485594]},"properties":{"fee":"yes","leisure":"marina","name":"Base du Plan d'Eau CNASP","operator":"Club Nautique Alpin Serre Ponçon","payment:cash":"yes","payment:contactless":"yes","payment:credit_cards":"yes","power_supply":"no","sanitary_dump_station":"no","seamark:harbour:category":"marina","seamark:type":"harbour","wheelchair":"yes"}},
{"type":"Feature","geometry":{"type":"Point","coordinates":[6.4649006,44.5472253]},"properties":{"fee":"yes","image":"https://www.cna-embrun.com/images/voile/Bluekoastrecords_Port_2020_6COMP.jpg","leisure":"marina","name":"Base du Lac CNASP","operator":"Club Nautique Alpin Serre Ponçon","payment:cash":"yes","power_supply":"no","sanitary_dump_station":"no","seamark:harbour:category":"marina","seamark:type":"harbour"}},
{"type":"Feature","geometry":{"type":"Point","coordinates":[6.4475292,44.4953718]},"properties":{"tourism":"picnic_site"}},
{"type":"Feature","geometry":{"type":"Point","coordinates":[6.4494554,44.4878876]},"properties":{"name":"Fontaine de l'ours","natural":"spring"}},
{"type":"Feature","geometry":{"type":"Point","coordinates":[6.4506748,44.4876249]},"properties":{"tourism":"picnic_site"}},
{"type":"Feature","geometry":{"type":"Point","coordinates":[6.4491515,44.4916629]},"properties":{"tourism":"picnic_site"}},
{"type":"Feature","geometry":{"type":"Point","coordinates":[6.4513027,44.4872845]},"properties":{"tourism":"picnic_site"}},
{"type":"Feature","geometry":{"type":"Point","coordinates":[6.4558837,44.4997043]},"properties":{"tourism":"picnic_site"}},
{"type":"Feature","geometry":{"type":"Point","coordinates":[6.4523486,44.4976514]},"properties":{"name":"Aire de Pépinière","tourism":"picnic_site"}},
{"type":"Feature","geometry":{"type":"Point","coordinates":[6.4493177,44.4917146]},"properties":{"name":"Source des Aiguillasses","tourism":"information"}},
{"type":"Feature","geometry":{"type":"Point","coordinates":[6.4577926,44.4663134]},"properties":{"ele":"2401","name":"Le Gros Ferrant","natural":"peak"}},
{"type":"Feature","geometry":{"type":"Point","coordinates":[6.4638727,44.4612345]},"properties":{"ele":"2440","name":"Le Petit Ferrant","natural":"peak"}},
{"type":"Feature","geometry":{"type":"Point","coordinates":[6.4815962,44.4541558]},"properties":{"ele":"2494","name":"Joug de l'Aigle","natural":"peak"}},
{"type":"Feature","geometry":{"type":"Point","coordinates":[6.4735644,44.5510201]},"properties":{"tourism":"picnic_site"}},
{"type":"Feature","geometry":{"type":"Point","coordinates":[6.4684626,44.549473]},"properties":{"tourism":"picnic_site"}},
{"type":"Feature","geometry":{"type":"Point","coordinates":[6.48649,44.5523393]},"properties":{"ele":"781","hiking":"yes","information":"guidepost","name":"La Durance","tourism":"information","wikimedia_commons":"File:Panneau d'altitude La Durance à Embrun (mai 2021).jpg"}},
{"type":"Feature","geometry":{"type":"Point","coordinates":[6.4769518,44.5482595]},"properties":{"historic":"memorial","mapillary":"1118786961933107","material":"stone","memorial":"stele","name":"Les Radeliers de la Durance","start_date":"1998-06-06","wikidata":"Q107462563","wikimedia_commons":"File:Stèle aux radeliers (Embrun) de la Durance - 3.jpg"}},
{"type":"Feature","geometry":{"type":"Point","coordinates":[6.4683529,44.5493076]},"properties":{"tourism":"picnic_site"}},
{"type":"Feature","geometry":{"type":"Point","coordinates":[6.4851894,44.5515215]},"properties":{"information":"map","mtb":"yes","tourism":"information"}},
{"type":"Feature","geometry":{"type":"Point","coordinates":[6.4934255,44.5429372]},"properties":{"information":"board","tourism":"information"}},
{"type":"Feature","geometry":{"type":"Point","coordinates":[6.4768914,44.5482492]},"properties":{"natural":"tree"}},
{"type":"Feature","geometry":{"type":"Point","coordinates":[6.4946323,44.5623815]},"properties":{"historic":"wayside_cross","material":"metal","wikimedia_commons":"File:Croix de la cathédrale Notre-Dame d'Embrun (mai 2021).jpg"}},
{"type":"Feature","geometry":{"type":"Point","coordinates":[6.4948478,44.5624568]},"properties":{"entrance":"main"}},
{"type":"Feature","geometry":{"type":"Point","coordinates":[6.49908,44.5631071]},"properties":{"natural":"tree"}},
{"type":"Feature","geometry":{"type":"Point","coordinates":[6.4977406,44.4633931]},"properties":{"name":"Source de Naton","natural":"spring"}},
{"type":"Feature","geometry":{"type":"Point","coordinates":[6.4543216,44.4846517]},"properties":{"board_type":"nature","information":"board","tourism":"information"}},
{"type":"Feature","geometry":{"type":"Point","coordinates":[6.4561024,44.5003515]},"properties":{"tourism":"chalet"}},
{"type":"Feature","geometry":{"type":"Point","coordinates":[6.4540348,44.4848993]},"properties":{"ele":"1541","hiking":"yes","information":"guidepost","name":"Belvédère de Bragousse","panoramax":"01e193af-fa3b-489c-bd48-5a6d33cead13","tourism":"information"}},
{"type":"Feature","geometry":{"type":"Point","coordinates":[6.4539264,44.4852144]},"properties":{"tourism":"picnic_site"}},
{"type":"Feature","geometry":{"type":"Point","coordinates":[6.4500406,44.4931043]},"properties":{"ele":"1424","hiking":"yes","information":"guidepost","name":"Belvédère du Colombier","panoramax":"e142974c-0e5d-4942-8a66-a5168fe7e597","tourism":"information","wikimedia_commons":"File:Panneau Belvédère du Colombier 1423 m (Crots).jpg"}},
{"type":"Feature","geometry":{"type":"Point","coordinates":[6.4535849,44.50594]},"properties":{"tourism":"picnic_site"}},
{"type":"Feature","geometry":{"type":"Point","coordinates":[6.4492411,44.4880913]},"properties":{"ele":"1583","hiking":"yes","information":"guidepost","name":"Fontaine de l'ours et Terre Rouge","panoramax":"b970dd9a-7b7a-44ee-acfc-3523403fdf9f","tourism":"information"}},
{"type":"Feature","geometry":{"type":"Point","coordinates":[6.4219861,44.4902424]},"properties":{"ele":"1904","hiking":"yes","information":"guidepost","name":"Les Portes de Morgon","panoramax":"4361da64-5681-4a84-ad81-0d2d74bc21b2","tourism":"information"}},
{"type":"Feature","geometry":{"type":"Point","coordinates":[6.4363646,44.5009691]},"properties":{"ele":"1601","hiking":"yes","information":"guidepost","name":"Preis","operator":"CC Serre-Ponçon","panoramax":"0edc31a1-8c8d-47a7-8a41-2ce7322c91fb","tourism":"information"}},
{"type":"Feature","geometry":{"type":"Point","coordinates":[6.4815925,44.472346]},"properties":{"hiking":"yes","information":"map","map_size":"region","map_type":"scheme","mtb":"yes","name":"Itinéraires de l'Infernet","tourism":"information"}},
{"type":"Feature","geometry":{"type":"Point","coordinates":[6.4980429,44.5663052]},"properties":{"historic":"memorial","memorial":"war_memorial","name":"Monument aux morts","ref:FR:MemorialGenWeb":"30749"}},
{"type":"Feature","geometry":{"type":"Point","coordinates":[6.4918969,44.5598337]},"properties":{"ele":"796","hiking":"yes","information":"guidepost","name":"Le Chaffal 2","tourism":"information","wikimedia_commons":"File:Panneau Le Chaffal 2 (Embrun).jpg"}},
{"type":"Feature","geometry":{"type":"Point","coordinates":[6.4918611,44.5599005]},"properties":{"ele":"796","hiking":"yes","information":"guidepost","name":"Le Chaffal","tourism":"information","wikimedia_commons":"File:Panneau Le Chaffal (Embrun).jpg"}},
{"type":"Feature","geometry":{"type":"Point","coordinates":[6.5041493,44.5633321]},"properties":{"ele":"797","hiking":"yes","information":"guidepost","name":"Canal sous le Roc 2","tourism":"information","wikimedia_commons":"File:Panneau Canal sous le Roc 2 (Embrun).jpg"}},
{"type":"Feature","geometry":{"type":"Point","coordinates":[6.5061125,44.5644889]},"properties":{"ele":"805","hiking":"yes","information":"guidepost","name":"Dessous le Roc","tourism":"information","wikimedia_commons":"File:Panneau Dessous le Roc 805 m (Embrun).jpg"}},
{"type":"Feature","geometry":{"type":"Point","coordinates":[6.4572516,44.5459064]},"properties":{"leisure":"sports_centre","name":"Base Nautique","source":"data.gouv.fr:Le ministère des droits des femmes, de la ville, de la jeunesse et des sports - 2014","sport":"swimming"}},
{"type":"Feature","geometry":{"type":"Point","coordinates":[6.4525065,44.5455511]},"properties":{"fishing":"yes","leisure":"fishing","name":"Saint-Peyles","source":"data.gouv.fr:Le ministère des droits des femmes, de la ville, de la jeunesse et des sports - 2014"}},
{"type":"Feature","geometry":{"type":"Point","coordinates":[6.47227,44.54734]},"properties":{"fishing":"yes","leisure":"fishing","source":"data.gouv.fr:Le ministère des droits des femmes, de la ville, de la jeunesse et des sports - 2014"}},
{"type":"Feature","geometry":{"type":"Point","coordinates":[6.4958138,44.5661998]},"properties":{"leisure":"picnic_table"}},
{"type":"Feature","geometry":{"type":"Point","coordinates":[6.4871519,44.480914]},"properties":{"name":"Captage d'eau du Lauzerot","natural":"spring"}},
{"type":"Feature","geometry":{"type":"Point","coordinates":[6.5019815,44.5679502]},"properties":{"description":"un toboggan et des jeux à ressort","leisure":"playground","name":"Jeux pour Enfants"}},
{"type":"Feature","geometry":{"type":"Point","coordinates":[6.4727282,44.5317945]},"properties":{"addr:city":"Crots","addr:postcode":"05200","internet_access":"yes","name":"Château de Picomtal","phone":"+33 4 92 43 07 77","tourism":"hotel","website":"https://www.picomtal.fr/"}},
{"type":"Feature","geometry":{"type":"Point","coordinates":[6.497634,44.4855626]},"properties":{"historic":"memorial","mapillary":"545003753554313"}},
{"type":"Feature","geometry":{"type":"Point","coordinates":[6.4827666,44.5512944]},"properties":{"contact:email":"reception@hotellelac.com","name":"Hôtel Le Lac","phone":"+33 4 92 43 11 08","stars":"3","tourism":"hotel","website":"https://www.hotellelac.com/","wikidata":"Q107200935"}},
{"type":"Feature","geometry":{"type":"Point","coordinates":[6.4571665,44.485136]},"properties":{"name":"Sylvestre","natural":"tree"}},
{"type":"Feature","geometry":{"type":"Point","coordinates":[6.4537318,44.4867751]},"properties":{"ele":"1533","hiking":"yes","information":"guidepost","name":"Clot Napoléon et Clot Mélèze","panoramax":"5175e1b2-f998-48ab-9227-61eb392f00b4","tourism":"information"}},
{"type":"Feature","geometry":{"type":"Point","coordinates":[6.450866,44.4871919]},"properties":{"hiking":"yes","information":"map","map_size":"site","map_type":"scheme","name":"Fontaine de l'ours","panoramax":"f56cbb2c-dd18-498c-bd6b-06f175803cde","tourism":"information"}},
{"type":"Feature","geometry":{"type":"Point","coordinates":[6.4509144,44.4868428]},"properties":{"check_date":"2022-07-24","covered":"no","leisure":"picnic_table"}},
{"type":"Feature","geometry":{"type":"Point","coordinates":[6.4535503,44.4907523]},"properties":{"covered":"no","leisure":"picnic_table"}},
{"type":"Feature","geometry":{"type":"Point","coordinates":[6.4581413,44.4914166]},"properties":{"board_type":"nature","information":"board","tourism":"information"}},
{"type":"Feature","geometry":{"type":"Point","coordinates":[6.4527809,44.4920599]},"properties":{"ele":"1420","hiking":"yes","information":"guidepost","name":"Clot Napoléon et Clot Mélèze","panoramax":"3f073e65-a364-462a-97b9-961b9daa184b","tourism":"information"}},
{"type":"Feature","geometry":{"type":"Point","coordinates":[6.4498387,44.4932428]},"properties":{"check_date":"2022-07-24","leisure":"firepit"}},
{"type":"Feature","geometry":{"type":"Point","coordinates":[6.4559101,44.4996737]},"properties":{"check_date":"2022-07-24","information":"map","map_size":"site","map_type":"scheme","tourism":"information"}},
{"type":"Feature","geometry":{"type":"Point","coordinates":[6.4555268,44.4997154]},"properties":{"historic":"memorial","memorial":"war_memorial","memorial:conflict":"WW2","wikimedia_commons":"File:Monument aux morts 39-45 proche abbaye de Boscodon (Crots).jpg"}},
{"type":"Feature","geometry":{"type":"Point","coordinates":[6.4556909,44.5000413]},"properties":{"information":"tactile_map","tourism":"information"}},
{"type":"Feature","geometry":{"type":"Point","coordinates":[6.4556778,44.5000568]},"properties":{"board_type":"history","check_date":"2022-07-24","information":"board","tourism":"information"}},
{"type":"Feature","geometry":{"type":"Point","coordinates":[6.4952333,44.56394]},"properties":{"amenity":"drinking_water","fountain":"bubbler","historic":"memorial","memorial":"war_memorial","memorial:conflict":"Franco-Prussian_War","memorial:conflict:wikidata":"Q46083","name":"A la mémoire des morts pour la défense de la patrie 1870-1871"}},
{"type":"Feature","geometry":{"type":"Point","coordinates":[6.4960441,44.5623304]},"properties":{"heritage":"3","heritage:operator":"mhs","historic":"memorial","memorial":"bust","mhs:inscription_date":"2009-07-23","name":"Monument à Clovis Hugues","ref:mhs":"PA05000016","source:heritage":"data.gouv.fr, Ministère de la Culture - 2016","wikidata":"Q22995551"}},
{"type":"Feature","geometry":{"type":"Point","coordinates":[6.4994847,44.5627295]},"properties":{"board_type":"history","check_date":"2022-07-28","information":"board","tourism":"information"}},
{"type":"Feature","geometry":{"type":"Point","coordinates":[6.4970469,44.5623787]},"properties":{"board_type":"history","check_date":"2022-07-28","information":"board","tourism":"information"}},
{"type":"Feature","geometry":{"type":"Point","coordinates":[6.4959472,44.5621375]},"properties":{"board_type":"history","check_date":"2022-07-28","information":"board","tourism":"information"}},
{"type":"Feature","geometry":{"type":"Point","coordinates":[6.4558758,44.4996584]},"properties":{"board_type":"history","check_date":"2024-09-11","information":"board","name":"Abbaye de Boscodon","tourism":"information"}},
{"type":"Feature","geometry":{"type":"Point","coordinates":[6.4537758,44.5055287]},"properties":{"ele":"1070","information":"guidepost","name":"Charamaillon","tourism":"information"}},
{"type":"Feature","geometry":{"type":"Point","coordinates":[6.4510516,44.5102217]},"properties":{"ele":"1030","hiking":"yes","information":"guidepost","name":"Chemin du Milieu","tourism":"information"}},
{"type":"Feature","geometry":{"type":"Point","coordinates":[6.4588541,44.496163]},"properties":{"ele":"1153","information":"guidepost","name":"Clot des Vernes","tourism":"information"}},
{"type":"Feature","geometry":{"type":"Point","coordinates":[6.4556075,44.4996632]},"properties":{"information":"board","name":"Le Maquis de Boscodon","tourism":"information"}},
{"type":"Feature","geometry":{"type":"Point","coordinates":[6.4669699,44.4902728]},"properties":{"ele":"1200","hiking":"yes","information":"guidepost","name":"Pont de Clos Joubert","tourism":"information"}},
{"type":"Feature","geometry":{"type":"Point","coordinates":[6.4602744,44.4959441]},"properties":{"ele":"1180","information":"guidepost","name":"Pont de l'Abbaye","tourism":"information"}},
{"type":"Feature","geometry":{"type":"Point","coordinates":[6.4559027,44.4996431]},"properties":{"board_type":"geology","check_date":"2024-09-11","information":"board","name":"Torrent de Boscodon","tourism":"information"}},
{"type":"Feature","geometry":{"type":"Point","coordinates":[6.4693018,44.4852525]},"properties":{"tourism":"picnic_site"}},
{"type":"Feature","geometry":{"type":"Point","coordinates":[6.4692408,44.4853697]},"properties":{"natural":"spring"}},
{"type":"Feature","geometry":{"type":"Point","coordinates":[6.467165,44.4856749]},"properties":{"tourism":"viewpoint"}},
{"type":"Feature","geometry":{"type":"Point","coordinates":[6.4656182,44.4882514]},"properties":{"leisure":"firepit"}},
{"type":"Feature","geometry":{"type":"Point","coordinates":[6.4649182,44.4883796]},"properties":{"tourism":"picnic_site"}},
{"type":"Feature","geometry":{"type":"Point","coordinates":[6.4612052,44.494444]},"properties":{"leisure":"picnic_table"}},
{"type":"Feature","geometry":{"type":"Point","coordinates":[6.4592752,44.4962156]},"properties":{"leisure":"picnic_table"}},
{"type":"Feature","geometry":{"type":"Point","coordinates":[6.4591424,44.4962376]},"properties":{"leisure":"picnic_table"}},
{"type":"Feature","geometry":{"type":"Point","coordinates":[6.4537504,44.5055966]},"properties":{"leisure":"firepit"}},
{"type":"Feature","geometry":{"type":"Point","coordinates":[6.4537249,44.5056531]},"properties":{"tourism":"picnic_site"}},
{"type":"Feature","geometry":{"type":"Point","coordinates":[6.453694,44.5057267]},"properties":{"tourism":"picnic_site"}},
{"type":"Feature","geometry":{"type":"Point","coordinates":[6.4535003,44.5070316]},"properties":{"leisure":"picnic_table"}},
{"type":"Feature","geometry":{"type":"Point","coordinates":[6.4525267,44.5078649]},"properties":{"covered":"no","leisure":"picnic_table"}},
{"type":"Feature","geometry":{"type":"Point","coordinates":[6.4525991,44.5078907]},"properties":{"leisure":"firepit"}},
{"type":"Feature","geometry":{"type":"Point","coordinates":[6.4525723,44.5079423]},"properties":{"covered":"no","leisure":"picnic_table"}},
{"type":"Feature","geometry":{"type":"Point","coordinates":[6.4510306,44.5115584]},"properties":{"leisure":"firepit"}},
{"type":"Feature","geometry":{"type":"Point","coordinates":[6.451091,44.5115765]},"properties":{"leisure":"picnic_table"}},
{"type":"Feature","geometry":{"type":"Point","coordinates":[6.4509595,44.511588]},"properties":{"leisure":"picnic_table"}},
{"type":"Feature","geometry":{"type":"Point","coordinates":[6.502782,44.5078009]},"properties":{"ele":"1610","hiking":"yes","information":"guidepost","name":"Barnier","tourism":"information"}},
{"type":"Feature","geometry":{"type":"Point","coordinates":[6.4903138,44.5122161]},"properties":{"ele":"1528","hiking":"yes","information":"guidepost","name":"Charamaille","tourism":"information"}},
{"type":"Feature","geometry":{"type":"Point","coordinates":[6.4806781,44.5033775]},"properties":{"hiking":"yes","horse":"yes","information":"map","map_size":"site","map_type":"topo","motor_vehicle":"yes","mtb":"yes","name":"Circuit du Bout des Mélèzes","tourism":"information"}},
{"type":"Feature","geometry":{"type":"Point","coordinates":[6.4801057,44.4749008]},"properties":{"information":"guidepost","name":"La Grande Cabane","tourism":"information"}},
{"type":"Feature","geometry":{"type":"Point","coordinates":[6.4818269,44.4807372]},"properties":{"hiking":"yes","information":"map","map_size":"site","map_type":"scheme","name":"Lac du Lauzerot","tourism":"information"}},
{"type":"Feature","geometry":{"type":"Point","coordinates":[6.4830973,44.5068819]},"properties":{"ele":"1520","hiking":"yes","information":"guidepost","name":"Le Clos des Imberts","tourism":"information"}},
{"type":"Feature","geometry":{"type":"Point","coordinates":[6.4973396,44.5133849]},"properties":{"ele":"1560","hiking":"yes","information":"guidepost","name":"Plat Aiguille","tourism":"information"}},
{"type":"Feature","geometry":{"type":"Point","coordinates":[6.4816339,44.4723685]},"properties":{"ele":"1610","hiking":"yes","information":"guidepost","name":"Pont de la Grande Cabane","tourism":"information"}},
{"type":"Feature","geometry":{"type":"Point","coordinates":[6.5258785,44.4972335]},"properties":{"ele":"1625","information":"board","name":"Pont des Corbières","tourism":"information"}},
{"type":"Feature","geometry":{"type":"Point","coordinates":[6.4766714,44.4787948]},"properties":{"ele":"1580","hiking":"yes","information":"guidepost","name":"Praxient","tourism":"information"}},
{"type":"Feature","geometry":{"type":"Point","coordinates":[6.4970001,44.5126026]},"properties":{"ele":"1565","hiking":"yes","information":"guidepost","name":"Route de la Grande Rocade","tourism":"information"}},
{"type":"Feature","geometry":{"type":"Point","coordinates":[6.5173491,44.5034684]},"properties":{"ele":"1630","hiking":"yes","information":"guidepost","name":"Source du Mouret","tourism":"information"}},
{"type":"Feature","geometry":{"type":"Point","coordinates":[6.4799427,44.4746922]},"properties":{"leisure":"picnic_table"}},
{"type":"Feature","geometry":{"type":"Point","coordinates":[6.4802159,44.4747523]},"properties":{"leisure":"picnic_table"}},
{"type":"Feature","geometry":{"type":"Point","coordinates":[6.4798958,44.4747601]},"properties":{"leisure":"firepit"}},
{"type":"Feature","geometry":{"type":"Point","coordinates":[6.4799736,44.4747611]},"properties":{"leisure":"picnic_table"}},
{"type":"Feature","geometry":{"type":"Point","coordinates":[6.4801663,44.4748011]},"properties":{"leisure":"firepit"}},
{"type":"Feature","geometry":{"type":"Point","coordinates":[6.4799695,44.4748051]},"properties":{"leisure":"picnic_table"}},
{"type":"Feature","geometry":{"type":"Point","coordinates":[6.4799146,44.4748482]},"properties":{"natural":"spring"}},
{"type":"Feature","geometry":{"type":"Point","coordinates":[6.4766921,44.4788733]},"properties":{"leisure":"picnic_table"}},
{"type":"Feature","geometry":{"type":"Point","coordinates":[6.4765272,44.4788953]},"properties":{"leisure":"firepit"}},
{"type":"Feature","geometry":{"type":"Point","coordinates":[6.517628,44.5033269]},"properties":{"leisure":"picnic_table"}},
{"type":"Feature","geometry":{"type":"Point","coordinates":[6.5173222,44.5034091]},"properties":{"natural":"spring"}},
{"type":"Feature","geometry":{"type":"Point","coordinates":[6.4830304,44.5068946]},"properties":{"leisure":"picnic_table"}},
{"type":"Feature","geometry":{"type":"Point","coordinates":[6.4830324,44.5069333]},"properties":{"leisure":"picnic_table"}},
{"type":"Feature","geometry":{"type":"Point","coordinates":[6.4829499,44.5069453]},"properties":{"leisure":"firepit"}},
{"type":"Feature","geometry":{"type":"Point","coordinates":[6.4828989,44.5070075]},"properties":{"leisure":"picnic_table"}},
{"type":"Feature","geometry":{"type":"Point","coordinates":[6.4829928,44.507062]},"properties":{"leisure":"firepit"}},
{"type":"Feature","geometry":{"type":"Point","coordinates":[6.482903,44.5070629]},"properties":{"leisure":"picnic_table"}},
{"type":"Feature","geometry":{"type":"Point","coordinates":[6.4829204,44.5071748]},"properties":{"leisure":"picnic_table"}},
{"type":"Feature","geometry":{"type":"Point","coordinates":[6.4830451,44.5072083]},"properties":{"leisure":"picnic_table"}},
{"type":"Feature","geometry":{"type":"Point","coordinates":[6.5029137,44.5075039]},"properties":{"leisure":"picnic_table"}},
{"type":"Feature","geometry":{"type":"Point","coordinates":[6.5028601,44.5075747]},"properties":{"leisure":"picnic_table"}},
{"type":"Feature","geometry":{"type":"Point","coordinates":[6.5027528,44.5076168]},"properties":{"leisure":"firepit"}},
{"type":"Feature","geometry":{"type":"Point","coordinates":[6.5027542,44.5077612]},"properties":{"leisure":"picnic_table"}},
{"type":"Feature","geometry":{"type":"Point","coordinates":[6.4975571,44.5136101]},"properties":{"information":"map","map_type":"toposcope","tourism":"information"}},
{"type":"Feature","geometry":{"type":"Point","coordinates":[6.4976872,44.5136225]},"properties":{"tourism":"picnic_site"}},
{"type":"Feature","geometry":{"type":"Point","coordinates":[6.4976161,44.5136751]},"properties":{"information":"map","map_type":"toposcope","tourism":"information"}},
{"type":"Feature","geometry":{"type":"Point","coordinates":[6.4977328,44.5136866]},"properties":{"information":"map","map_type":"toposcope","tourism":"information"}},
{"type":"Feature","geometry":{"type":"Point","coordinates":[6.4976805,44.513698]},"properties":{"information":"map","map_type":"toposcope","tourism":"information"}},
{"type":"Feature","geometry":{"type":"Point","coordinates":[6.4548492,44.5380816]},"properties":{"barrier":"lift_gate"}},
{"type":"Feature","geometry":{"type":"Point","coordinates":[6.4777112,44.4598484]},"properties":{"name":"Gouffre Jean-Marie","natural":"cave_entrance"}},
{"type":"Feature","geometry":{"type":"Point","coordinates":[6.4523251,44.4975804]},"properties":{"name":"Fontaine de l'ours","natural":"spring","wikimedia_commons":"File:Fontaine au lieu-dit La Pépinière (Crots).jpg"}},
{"type":"Feature","geometry":{"type":"Point","coordinates":[6.4527537,44.4977994]},"properties":{"natural":"spring"}},
{"type":"Feature","geometry":{"type":"Point","coordinates":[6.4526565,44.4978277]},"properties":{"covered":"no","leisure":"picnic_table"}},
{"type":"Feature","geometry":{"type":"Point","coordinates":[6.4524488,44.4976954]},"properties":{"covered":"no","leisure":"picnic_table"}},
{"type":"Feature","geometry":{"type":"Point","coordinates":[6.4521086,44.4975725]},"properties":{"covered":"no","leisure":"picnic_table"}},
{"type":"Feature","geometry":{"type":"Point","coordinates":[6.4510909,44.4874945]},"properties":{"covered":"no","leisure":"picnic_table"}},
{"type":"Feature","geometry":{"type":"Point","coordinates":[6.4511979,44.4874499]},"properties":{"covered":"no","leisure":"picnic_table"}},
{"type":"Feature","geometry":{"type":"Point","coordinates":[6.4241661,44.5284598]},"properties":{"covered":"no","leisure":"picnic_table"}},
{"type":"Feature","geometry":{"type":"Point","coordinates":[6.4663821,44.5473122]},"properties":{"seamark:shoreline_construction:category":"slipway","seamark:type":"rampe"}},
{"type":"Feature","geometry":{"type":"Point","coordinates":[6.4859566,44.5539961]},"properties":{"access":"private","barrier":"gate"}},
{"type":"Feature","geometry":{"type":"Point","coordinates":[6.4888671,44.5533322]},"properties":{"ele":"781","hiking":"yes","information":"guidepost","name":"Mas de l'Isère","tourism":"information","wikimedia_commons":"File:Panneau d'indication et d'élévation le long de la Durance à Embrun.jpg"}},
{"type":"Feature","geometry":{"type":"Point","coordinates":[6.4868674,44.5373783]},"properties":{"boules":"petanque","leisure":"pitch","sport":"boules"}},
{"type":"Feature","geometry":{"type":"Point","coordinates":[6.4830658,44.5374972]},"properties":{"name":"La Ferme Décou'Verte","tourism":"attraction"}},
{"type":"Feature","geometry":{"type":"Point","coordinates":[6.49439,44.5383813]},"properties":{"historic":"monument"}},
{"type":"Feature","geometry":{"type":"Point","coordinates":[6.4783582,44.5499032]},"properties":{"natural":"tree"}},
{"type":"Feature","geometry":{"type":"Point","coordinates":[6.4856992,44.5537326]},"properties":{"ele":"790","hiking":"yes","information":"guidepost","mapillary":"214153053561272","name":"L'Isère","tourism":"information","wikimedia_commons":"File:Panneaux indicateurs avec altitude (790 m) à Embrun.jpg"}},
{"type":"Feature","geometry":{"type":"Point","coordinates":[6.4922339,44.5618667]},"properties":{"ele":"843","hiking":"yes","information":"guidepost","mapillary":"986527652091310","name":"Les Moulineaux","tourism":"information"}},
{"type":"Feature","geometry":{"type":"Point","coordinates":[6.4922386,44.5618523]},"properties":{"natural":"tree"}},
{"type":"Feature","geometry":{"type":"Point","coordinates":[6.4947559,44.4921756]},"properties":{"board_type":"sports","information":"board","mapillary":"154612253191526","name":"Site d'escalade de Clot Besson","sport":"climbing","tourism":"information"}},
{"type":"Feature","geometry":{"type":"Point","coordinates":[6.497701,44.485845]},"properties":{"leisure":"firepit"}},
{"type":"Feature","geometry":{"type":"Point","coordinates":[6.4819175,44.4946667]},"properties":{"hiking":"yes","information":"guidepost","tourism":"information"}},
{"type":"Feature","geometry":{"type":"Point","coordinates":[6.4974448,44.4861162]},"properties":{"board_type":"nature","information":"board","mapillary":"816562275905014","name":"Le mélèze: essence de reboisement","tourism":"information"}},
{"type":"Feature","geometry":{"type":"Point","coordinates":[6.497544,44.4857742]},"properties":{"leisure":"picnic_table","mapillary":"476023760375439"}},
{"type":"Feature","geometry":{"type":"Point","coordinates":[6.4975213,44.48569]},"properties":{"leisure":"picnic_table","mapillary":"476023760375439"}},
{"type":"Feature","geometry":{"type":"Point","coordinates":[6.4976949,44.4855478]},"properties":{"board_type":"history","information":"board","mapillary":"494845248530264","tourism":"information"}},
{"type":"Feature","geometry":{"type":"Point","coordinates":[6.4980121,44.4857729]},"properties":{"hiking":"yes","information":"guidepost","mapillary":"457533741994989","tourism":"information"}},
{"type":"Feature","geometry":{"type":"Point","coordinates":[6.4940854,44.563262]},"properties":{"addr:city":"Embrun","addr:housenumber":"54","addr:postcode":"05200","addr:street":"Rue de la Liberté","email":"agence@Jennifair.com","name":"Agence Jennifair","phone":"+33 4 92 43 37 80","tourism":"attraction","website":"https://www.jennifair.com/"}},
{"type":"Feature","geometry":{"type":"Point","coordinates":[6.477383,44.5445714]},"properties":{"camera:mount":"pole","camera:type":"dome","man_made":"surveillance","surveillance":"outdoor","surveillance:type":"camera"}},
{"type":"Feature","geometry":{"type":"Point","coordinates":[6.4311647,44.5329404]},"properties":{"fee":"no","leisure":"beach_resort"}},
{"type":"Feature","geometry":{"type":"Point","coordinates":[6.4793544,44.5420353]},"properties":{"name":"Les Bartavelles","tourism":"hotel"}},
{"type":"Feature","geometry":{"type":"Point","coordinates":[6.4852145,44.5476871]},"properties":{"information":"board","tourism":"information"}},
{"type":"Feature","geometry":{"type":"Point","coordinates":[6.4917172,44.5402774]},"properties":{"barrier":"gate"}},
{"type":"Feature","geometry":{"type":"Point","coordinates":[6.4393877,44.5312758]},"properties":{"name":"La Pinede","tourism":"camp_site"}},
{"type":"Feature","geometry":{"type":"Point","coordinates":[6.4457686,44.4774401]},"properties":{"tourism":"viewpoint"}},
{"type":"Feature","geometry":{"type":"Point","coordinates":[6.4997358,44.5628792]},"properties":{"tourism":"viewpoint"}},
{"type":"Feature","geometry":{"type":"Point","coordinates":[6.4931187,44.5625623]},"properties":{"leisure":"playground"}},
{"type":"Feature","geometry":{"type":"Point","coordinates":[6.4555567,44.4996678]},"properties":{"historic":"memorial","memorial":"war_memorial","memorial:conflict":"WW2","wikimedia_commons":"File:Monument aux morts maquisards 39-45 (Crots) proche abbaye.jpg"}},
{"type":"Feature","geometry":{"type":"Point","coordinates":[6.4558357,44.4994975]},"properties":{"historic":"memorial","inscription":"ESPACE VINCENT CLAIRION / ANCIEN DEPORTE / 1920 - 1998","memorial":"stone","wikimedia_commons":"File:Stèle Espace Vincent Clairion (ancien déporté) près de l'abbaye de Boscodon.jpg"}},
{"type":"Feature","geometry":{"type":"Point","coordinates":[6.4269347,44.4838054]},"properties":{"tourism":"viewpoint"}},
{"type":"Feature","geometry":{"type":"Point","coordinates":[6.4840614,44.5577618]},"properties":{"tourism":"viewpoint"}},
{"type":"Feature","geometry":{"type":"Point","coordinates":[6.4938456,44.5641257]},"properties":{"natural":"tree"}},
{"type":"Feature","geometry":{"type":"Point","coordinates":[6.4937973,44.5642232]},"properties":{"natural":"tree"}},
{"type":"Feature","geometry":{"type":"Point","coordinates":[6.4939609,44.5642404]},"properties":{"natural":"tree"}},
{"type":"Feature","geometry":{"type":"Point","coordinates":[6.4940548,44.5640827]},"properties":{"natural":"tree"}},
{"type":"Feature","geometry":{"type":"Point","coordinates":[6.4941433,44.5639833]},"properties":{"natural":"tree"}},
{"type":"Feature","geometry":{"type":"Point","coordinates":[6.4940642,44.5639098]},"properties":{"natural":"tree"}},
{"type":"Feature","geometry":{"type":"Point","coordinates":[6.4967428,44.5662156]},"properties":{"natural":"tree"}},
{"type":"Feature","geometry":{"type":"Point","coordinates":[6.4966842,44.566254]},"properties":{"natural":"tree"}},
{"type":"Feature","geometry":{"type":"Point","coordinates":[6.4967827,44.5663009]},"properties":{"natural":"tree"}},
{"type":"Feature","geometry":{"type":"Point","coordinates":[6.4969306,44.5661637]},"properties":{"natural":"tree"}},
{"type":"Feature","geometry":{"type":"Point","coordinates":[6.4968907,44.5661186]},"properties":{"natural":"tree"}},
{"type":"Feature","geometry":{"type":"Point","coordinates":[6.4968414,44.5661119]},"properties":{"natural":"tree"}},
{"type":"Feature","geometry":{"type":"Point","coordinates":[6.4966372,44.5659982]},"properties":{"natural":"tree"}},
{"type":"Feature","geometry":{"type":"Point","coordinates":[6.4964424,44.5660166]},"properties":{"natural":"tree"}},
{"type":"Feature","geometry":{"type":"Point","coordinates":[6.4965504,44.565938]},"properties":{"natural":"tree"}},
{"type":"Feature","geometry":{"type":"Point","coordinates":[6.4967358,44.5659296]},"properties":{"natural":"tree"}},
{"type":"Feature","geometry":{"type":"Point","coordinates":[6.4966302,44.5658694]},"properties":{"natural":"tree"}},
{"type":"Feature","geometry":{"type":"Point","coordinates":[6.4973766,44.5660433]},"properties":{"natural":"tree"}},
{"type":"Feature","geometry":{"type":"Point","coordinates":[6.49721,44.5658594]},"properties":{"natural":"tree"}},
{"type":"Feature","geometry":{"type":"Point","coordinates":[6.497109,44.5659313]},"properties":{"natural":"tree"}},
{"type":"Feature","geometry":{"type":"Point","coordinates":[6.4965598,44.5656637]},"properties":{"natural":"tree"}},
{"type":"Feature","geometry":{"type":"Point","coordinates":[6.4963203,44.5657072]},"properties":{"natural":"tree"}},
{"type":"Feature","geometry":{"type":"Point","coordinates":[6.4962382,44.5656303]},"properties":{"natural":"tree"}},
{"type":"Feature","geometry":{"type":"Point","coordinates":[6.4971654,44.5665785]},"properties":{"natural":"tree"}},
{"type":"Feature","geometry":{"type":"Point","coordinates":[6.4972639,44.5666136]},"properties":{"natural":"tree"}},
{"type":"Feature","geometry":{"type":"Point","coordinates":[6.4973907,44.5664957]},"properties":{"natural":"tree"}},
{"type":"Feature","geometry":{"type":"Point","coordinates":[6.4972921,44.5664606]},"properties":{"natural":"tree"}},
{"type":"Feature","geometry":{"type":"Point","coordinates":[6.4975574,44.5663719]},"properties":{"natural":"tree"}},
{"type":"Feature","geometry":{"type":"Point","coordinates":[6.4974588,44.5663368]},"properties":{"natural":"tree"}},
{"type":"Feature","geometry":{"type":"Point","coordinates":[6.4973883,44.5663995]},"properties":{"natural":"tree"}},
{"type":"Feature","geometry":{"type":"Point","coordinates":[6.4966322,44.5668931]},"properties":{"natural":"tree"}},
{"type":"Feature","geometry":{"type":"Point","coordinates":[6.4964329,44.5668246]},"properties":{"natural":"tree"}},
{"type":"Feature","geometry":{"type":"Point","coordinates":[6.4963991,44.5667562]},"properties":{"natural":"tree"}},
{"type":"Feature","geometry":{"type":"Point","coordinates":[6.4970929,44.5670173]},"properties":{"natural":"tree"}},
{"type":"Feature","geometry":{"type":"Point","coordinates":[6.4972334,44.5669108]},"properties":{"natural":"tree"}},
{"type":"Feature","geometry":{"type":"Point","coordinates":[6.4968154,44.5669133]},"properties":{"natural":"tree"}},
{"type":"Feature","geometry":{"type":"Point","coordinates":[6.4967549,44.5668753]},"properties":{"natural":"tree"}},
{"type":"Feature","geometry":{"type":"Point","coordinates":[6.4967941,44.5666244]},"properties":{"natural":"tree"}},
{"type":"Feature","geometry":{"type":"Point","coordinates":[6.4966571,44.5667372]},"properties":{"natural":"tree"}},
{"type":"Feature","geometry":{"type":"Point","coordinates":[6.4969061,44.5669691]},"properties":{"natural":"tree"}},
{"type":"Feature","geometry":{"type":"Point","coordinates":[6.4973669,44.566997]},"properties":{"natural":"tree"}},
{"type":"Feature","geometry":{"type":"Point","coordinates":[6.4972299,44.5670946]},"properties":{"natural":"tree"}},
{"type":"Feature","geometry":{"type":"Point","coordinates":[6.4970947,44.5671769]},"properties":{"natural":"tree"}},
{"type":"Feature","geometry":{"type":"Point","coordinates":[6.4973544,44.5671212]},"properties":{"natural":"tree"}},
{"type":"Feature","geometry":{"type":"Point","coordinates":[6.4966019,44.5665572]},"properties":{"natural":"tree"}},
{"type":"Feature","geometry":{"type":"Point","coordinates":[6.4966002,44.5664862]},"properties":{"natural":"tree"}},
{"type":"Feature","geometry":{"type":"Point","coordinates":[6.4964507,44.5663962]},"properties":{"natural":"tree"}},
{"type":"Feature","geometry":{"type":"Point","coordinates":[6.4965183,44.5664355]},"properties":{"natural":"tree"}},
{"type":"Feature","geometry":{"type":"Point","coordinates":[6.494556,44.5653301]},"properties":{"natural":"tree"}},
{"type":"Feature","geometry":{"type":"Point","coordinates":[6.4946092,44.5652718]},"properties":{"natural":"tree"}},
{"type":"Feature","geometry":{"type":"Point","coordinates":[6.4946827,44.5653155]},"properties":{"natural":"tree"}},
{"type":"Feature","geometry":{"type":"Point","coordinates":[6.4946296,44.5653738]},"properties":{"natural":"tree"}},
{"type":"Feature","geometry":{"type":"Point","coordinates":[6.4947624,44.5653708]},"properties":{"natural":"tree"}},
{"type":"Feature","geometry":{"type":"Point","coordinates":[6.4947093,44.5654291]},"properties":{"natural":"tree"}},
{"type":"Feature","geometry":{"type":"Point","coordinates":[6.4948482,44.565416]},"properties":{"natural":"tree"}},
{"type":"Feature","geometry":{"type":"Point","coordinates":[6.4947951,44.5654742]},"properties":{"natural":"tree"}},
{"type":"Feature","geometry":{"type":"Point","coordinates":[6.49493,44.5654596]},"properties":{"natural":"tree"}},
{"type":"Feature","geometry":{"type":"Point","coordinates":[6.4948768,44.5655179]},"properties":{"natural":"tree"}},
{"type":"Feature","geometry":{"type":"Point","coordinates":[6.4950076,44.5655164]},"properties":{"natural":"tree"}},
{"type":"Feature","geometry":{"type":"Point","coordinates":[6.4950505,44.5654218]},"properties":{"natural":"tree"}},
{"type":"Feature","geometry":{"type":"Point","coordinates":[6.4951364,44.5653563]},"properties":{"natural":"tree"}},
{"type":"Feature","geometry":{"type":"Point","coordinates":[6.4949443,44.5653519]},"properties":{"natural":"tree"}},
{"type":"Feature","geometry":{"type":"Point","coordinates":[6.4948176,44.5652777]},"properties":{"natural":"tree"}},
{"type":"Feature","geometry":{"type":"Point","coordinates":[6.4946783,44.5652255]},"properties":{"natural":"tree"}},
{"type":"Feature","geometry":{"type":"Point","coordinates":[6.4945928,44.5651466]},"properties":{"natural":"tree"}},
{"type":"Feature","geometry":{"type":"Point","coordinates":[6.4957923,44.5656169]},"properties":{"natural":"tree"}},
{"type":"Feature","geometry":{"type":"Point","coordinates":[6.4956411,44.5653184]},"properties":{"natural":"tree"}},
{"type":"Feature","geometry":{"type":"Point","coordinates":[6.4972391,44.5653388]},"properties":{"natural":"tree"}},
{"type":"Feature","geometry":{"type":"Point","coordinates":[6.4969959,44.5656664]},"properties":{"natural":"tree"}},
{"type":"Feature","geometry":{"type":"Point","coordinates":[6.4936372,44.5645034]},"properties":{"natural":"tree"}},
{"type":"Feature","geometry":{"type":"Point","coordinates":[6.4937316,44.5645572]},"properties":{"natural":"tree"}},
{"type":"Feature","geometry":{"type":"Point","coordinates":[6.4958267,44.5649472]},"properties":{"natural":"tree"}},
{"type":"Feature","geometry":{"type":"Point","coordinates":[6.4953063,44.5649068]},"properties":{"natural":"tree"}},
{"type":"Feature","geometry":{"type":"Point","coordinates":[6.4960181,44.5649971]},"properties":{"natural":"tree"}},
{"type":"Feature","geometry":{"type":"Point","coordinates":[6.4959372,44.5649741]},"properties":{"natural":"tree"}},
{"type":"Feature","geometry":{"type":"Point","coordinates":[6.4953386,44.565462]},"properties":{"natural":"tree"}},
{"type":"Feature","geometry":{"type":"Point","coordinates":[6.4948964,44.5676058]},"properties":{"natural":"tree"}},
{"type":"Feature","geometry":{"type":"Point","coordinates":[6.4783099,44.5447325]},"properties":{"hiking":"yes","information":"guidepost","mtb":"yes","tourism":"information"}},
{"type":"Feature","geometry":{"type":"Point","coordinates":[6.4783012,44.5448515]},"properties":{"board_type":"nature","information":"board","mapillary":"1888287174668669","name":"Bienvenue sur le sentier de découverte de la zone humide du Liou","tourism":"information"}},
{"type":"Feature","geometry":{"type":"Point","coordinates":[6.4782107,44.544699]},"properties":{"board_type":"notice","information":"board","mapillary":"5274112135992929","name":"Serre-Ponçon : un lac et un barrage hydroélectrique EDF","tourism":"information"}},
{"type":"Feature","geometry":{"type":"Point","coordinates":[6.4829314,44.5488653]},"properties":{"information":"map","tourism":"information"}},
{"type":"Feature","geometry":{"type":"Point","coordinates":[6.4778369,44.5455897]},"properties":{"board_type":"wildlife","information":"board","mapillary":"551397956230141","name":"3 : Une forêt noyée les pieds dans l'eau","tourism":"information"}},
{"type":"Feature","geometry":{"type":"Point","coordinates":[6.4774364,44.5445594]},"properties":{"board_type":"wildlife","information":"board","mapillary":"771322510439027","name":"5 : Des dunes lacustres à Serre-Ponçon","tourism":"information"}},
{"type":"Feature","geometry":{"type":"Point","coordinates":[6.479818,44.5479341]},"properties":{"information":"board","tourism":"information"}},
{"type":"Feature","geometry":{"type":"Point","coordinates":[6.4795457,44.548116]},"properties":{"hiking":"yes","information":"guidepost","mapillary":"810914752836966","note":"Promenade au bord de la Durance (aller-retour) 0,2km","tourism":"information"}},
{"type":"Feature","geometry":{"type":"Point","coordinates":[6.4795777,44.5481003]},"properties":{"hiking":"yes","information":"guidepost","mapillary":"810914752836966","note":"Poste d'observation avifaune 0,5km","tourism":"information"}},
{"type":"Feature","geometry":{"type":"Point","coordinates":[6.5194752,44.5665912]},"properties":{"natural":"tree"}},
{"type":"Feature","geometry":{"type":"Point","coordinates":[6.5194239,44.5665446]},"properties":{"natural":"tree"}},
{"type":"Feature","geometry":{"type":"Point","coordinates":[6.5194946,44.566455]},"properties":{"natural":"tree"}},
{"type":"Feature","geometry":{"type":"Point","coordinates":[6.5196008,44.5664336]},"properties":{"natural":"tree"}},
{"type":"Feature","geometry":{"type":"Point","coordinates":[6.5199636,44.5666404]},"properties":{"natural":"tree"}},
{"type":"Feature","geometry":{"type":"Point","coordinates":[6.5204424,44.567328]},"properties":{"natural":"tree"}},
{"type":"Feature","geometry":{"type":"Point","coordinates":[6.5203885,44.5672874]},"properties":{"natural":"tree"}},
{"type":"Feature","geometry":{"type":"Point","coordinates":[6.5194904,44.5671966]},"properties":{"natural":"tree"}},
{"type":"Feature","geometry":{"type":"Point","coordinates":[6.51939,44.5672423]},"properties":{"natural":"tree"}},
{"type":"Feature","geometry":{"type":"Point","coordinates":[6.5195791,44.56715]},"properties":{"natural":"tree"}},
{"type":"Feature","geometry":{"type":"Point","coordinates":[6.5196597,44.5671026]},"properties":{"natural":"tree"}},
{"type":"Feature","geometry":{"type":"Point","coordinates":[6.5197064,44.5670735]},"properties":{"natural":"tree"}},
{"type":"Feature","geometry":{"type":"Point","coordinates":[6.5197519,44.5670535]},"properties":{"natural":"tree"}},
{"type":"Feature","geometry":{"type":"Point","coordinates":[6.5208673,44.5680501]},"properties":{"natural":"tree"}},
{"type":"Feature","geometry":{"type":"Point","coordinates":[6.5209243,44.5681255]},"properties":{"natural":"tree"}},
{"type":"Feature","geometry":{"type":"Point","coordinates":[6.520973,44.5681964]},"properties":{"natural":"tree"}},
{"type":"Feature","geometry":{"type":"Point","coordinates":[6.4309012,44.5312127]},"properties":{"information":"board","tourism":"information"}},
{"type":"Feature","geometry":{"type":"Point","coordinates":[6.4688017,44.5334678]},"properties":{"addr:city":"Crots","addr:postcode":"05200","leisure":"escape_game","name":"Cogitarium","tourism":"attraction","website":"https://cogitarium.fr"}},
{"type":"Feature","geometry":{"type":"Point","coordinates":[6.4645935,44.5332052]},"properties":{"name":"Crots Branches","sport":"climbing","tourism":"attraction"}},
{"type":"Feature","geometry":{"type":"Point","coordinates":[6.482921,44.4812055]},"properties":{"leisure":"picnic_table"}},
{"type":"Feature","geometry":{"type":"Point","coordinates":[6.4836849,44.4807658]},"properties":{"leisure":"picnic_table"}},
{"type":"Feature","geometry":{"type":"Point","coordinates":[6.483808,44.4808236]},"properties":{"leisure":"picnic_table"}},
{"type":"Feature","geometry":{"type":"Point","coordinates":[6.4709298,44.5505387]},"properties":{"name":"Congo","natural":"cliff"}},
{"type":"Feature","geometry":{"type":"Point","coordinates":[6.4765212,44.5507404]},"properties":{"natural":"tree"}},
{"type":"Feature","geometry":{"type":"Point","coordinates":[6.4762366,44.5507603]},"properties":{"natural":"tree"}},
{"type":"Feature","geometry":{"type":"Point","coordinates":[6.4765296,44.5508493]},"properties":{"natural":"tree"}},
{"type":"Feature","geometry":{"type":"Point","coordinates":[6.4763636,44.5507689]},"properties":{"natural":"tree"}},
{"type":"Feature","geometry":{"type":"Point","coordinates":[6.478926,44.5505986]},"properties":{"natural":"tree"}},
{"type":"Feature","geometry":{"type":"Point","coordinates":[6.4789678,44.5505977]},"properties":{"board_type":"notice","information":"board","tourism":"information"}},
{"type":"Feature","geometry":{"type":"Point","coordinates":[6.4945501,44.5631148]},"properties":{"natural":"tree"}},
{"type":"Feature","geometry":{"type":"Point","coordinates":[6.4945922,44.5630782]},"properties":{"natural":"tree"}},
{"type":"Feature","geometry":{"type":"Point","coordinates":[6.4791339,44.5514798]},"properties":{"leisure":"picnic_table"}},
{"type":"Feature","geometry":{"type":"Point","coordinates":[6.4788818,44.551419]},"properties":{"information":"board","tourism":"information"}},
{"type":"Feature","geometry":{"type":"Point","coordinates":[6.478895,44.5510531]},"properties":{"natural":"tree"}},
{"type":"Feature","geometry":{"type":"Point","coordinates":[6.4789932,44.5510343]},"properties":{"natural":"tree"}},
{"type":"Feature","geometry":{"type":"Point","coordinates":[6.4787521,44.5510788]},"properties":{"natural":"tree"}},
{"type":"Feature","geometry":{"type":"Point","coordinates":[6.4789762,44.5515031]},"properties":{"leisure":"picnic_table"}},
{"type":"Feature","geometry":{"type":"Point","coordinates":[6.4957717,44.5649178]},"properties":{"natural":"tree"}},
{"type":"Feature","geometry":{"type":"Point","coordinates":[6.4956865,44.5649389]},"properties":{"board_type":"notice","information":"board","tourism":"information"}},
{"type":"Feature","geometry":{"type":"Point","coordinates":[6.4959266,44.5649732]},"properties":{"board_type":"notice","information":"board","tourism":"information"}},
{"type":"Feature","geometry":{"type":"Point","coordinates":[6.4348011,44.4966216]},"properties":{"tourism":"viewpoint"}},
{"type":"Feature","geometry":{"type":"Point","coordinates":[6.4922662,44.5627241]},"properties":{"natural":"tree"}},
{"type":"Feature","geometry":{"type":"Point","coordinates":[6.4923246,44.5627707]},"properties":{"natural":"tree"}},
{"type":"Feature","geometry":{"type":"Point","coordinates":[6.4923888,44.5628139]},"properties":{"natural":"tree"}},
{"type":"Feature","geometry":{"type":"Point","coordinates":[6.4913451,44.5625154]},"properties":{"entrance":"yes"}},
{"type":"Feature","geometry":{"type":"Point","coordinates":[6.4916484,44.5622169]},"properties":{"entrance":"yes"}},
{"type":"Feature","geometry":{"type":"Point","coordinates":[6.4919999,44.562465]},"properties":{"natural":"tree"}},
{"type":"Feature","geometry":{"type":"Point","coordinates":[6.4920535,44.5625032]},"properties":{"natural":"tree"}},
{"type":"Feature","geometry":{"type":"Point","coordinates":[6.4918872,44.5623924]},"properties":{"natural":"tree"}},
{"type":"Feature","geometry":{"type":"Point","coordinates":[6.4916753,44.5622615]},"properties":{"natural":"tree"}},
{"type":"Feature","geometry":{"type":"Point","coordinates":[6.4914447,44.5623494]},"properties":{"natural":"tree"}},
{"type":"Feature","geometry":{"type":"Point","coordinates":[6.4913776,44.5622309]},"properties":{"natural":"tree"}},
{"type":"Feature","geometry":{"type":"Point","coordinates":[6.4914889,44.5622232]},"properties":{"natural":"tree"}},
{"type":"Feature","geometry":{"type":"Point","coordinates":[6.491265,44.5621974]},"properties":{"natural":"tree"}},
{"type":"Feature","geometry":{"type":"Point","coordinates":[6.4911255,44.5622586]},"properties":{"natural":"tree"}},
{"type":"Feature","geometry":{"type":"Point","coordinates":[6.4910598,44.5623102]},"properties":{"natural":"tree"}},
{"type":"Feature","geometry":{"type":"Point","coordinates":[6.4911456,44.5623694]},"properties":{"natural":"tree"}},
{"type":"Feature","geometry":{"type":"Point","coordinates":[6.4912113,44.562421]},"properties":{"natural":"tree"}},
{"type":"Feature","geometry":{"type":"Point","coordinates":[6.4912743,44.5624526]},"properties":{"natural":"tree"}},
{"type":"Feature","geometry":{"type":"Point","coordinates":[6.4913038,44.5623847]},"properties":{"natural":"tree"}},
{"type":"Feature","geometry":{"type":"Point","coordinates":[6.4914862,44.5621229]},"properties":{"natural":"tree"}},
{"type":"Feature","geometry":{"type":"Point","coordinates":[6.4913696,44.5621458]},"properties":{"natural":"tree"}},
{"type":"Feature","geometry":{"type":"Point","coordinates":[6.4909833,44.5622681]},"properties":{"natural":"tree"}},
{"type":"Feature","geometry":{"type":"Point","coordinates":[6.4910624,44.5622261]},"properties":{"natural":"tree"}},
{"type":"Feature","geometry":{"type":"Point","coordinates":[6.4911456,44.5621898]},"properties":{"natural":"tree"}},
{"type":"Feature","geometry":{"type":"Point","coordinates":[6.491438,44.5625166]},"properties":{"natural":"tree"}},
{"type":"Feature","geometry":{"type":"Point","coordinates":[6.491391,44.562551]},"properties":{"natural":"tree"}},
{"type":"Feature","geometry":{"type":"Point","coordinates":[6.4914795,44.5624784]},"properties":{"natural":"tree"}},
{"type":"Feature","geometry":{"type":"Point","coordinates":[6.4915292000000008,44.5624325]},"properties":{"natural":"tree"}},
{"type":"Feature","geometry":{"type":"Point","coordinates":[6.4915385,44.562357]},"properties":{"natural":"tree"}},
{"type":"Feature","geometry":{"type":"Point","coordinates":[6.491564,44.5623914]},"properties":{"natural":"tree"}},
{"type":"Feature","geometry":{"type":"Point","coordinates":[6.4920388,44.5626332]},"properties":{"natural":"tree"}},
{"type":"Feature","geometry":{"type":"Point","coordinates":[6.4919999,44.5626771]},"properties":{"natural":"tree"}},
{"type":"Feature","geometry":{"type":"Point","coordinates":[6.4919637,44.5627115]},"properties":{"natural":"tree"}},
{"type":"Feature","geometry":{"type":"Point","coordinates":[6.4919154,44.5627497]},"properties":{"natural":"tree"}},
{"type":"Feature","geometry":{"type":"Point","coordinates":[6.4918416,44.5628118]},"properties":{"natural":"tree"}},
{"type":"Feature","geometry":{"type":"Point","coordinates":[6.4917761,44.5621788]},"properties":{"natural":"tree"}},
{"type":"Feature","geometry":{"type":"Point","coordinates":[6.4918525,44.5622275]},"properties":{"natural":"tree"}},
{"type":"Feature","geometry":{"type":"Point","coordinates":[6.4919947,44.5623202]},"properties":{"natural":"tree"}},
{"type":"Feature","geometry":{"type":"Point","coordinates":[6.4920845,44.5623699]},"properties":{"natural":"tree"}},
{"type":"Feature","geometry":{"type":"Point","coordinates":[6.4916339,44.5620679]},"properties":{"natural":"tree"}},
{"type":"Feature","geometry":{"type":"Point","coordinates":[6.4922012,44.5619695]},"properties":{"natural":"tree"}},
{"type":"Feature","geometry":{"type":"Point","coordinates":[6.4919638,44.56198]},"properties":{"natural":"tree"}},
{"type":"Feature","geometry":{"type":"Point","coordinates":[6.4918928,44.5619972]},"properties":{"natural":"tree"}},
{"type":"Feature","geometry":{"type":"Point","coordinates":[6.4918297,44.562023]},"properties":{"natural":"tree"}},
{"type":"Feature","geometry":{"type":"Point","coordinates":[6.4917426,44.5620106]},"properties":{"natural":"tree"}},
{"type":"Feature","geometry":{"type":"Point","coordinates":[6.4917372,44.5619781]},"properties":{"natural":"tree"}},
{"type":"Feature","geometry":{"type":"Point","coordinates":[6.4919062,44.5619131]},"properties":{"natural":"tree"}},
{"type":"Feature","geometry":{"type":"Point","coordinates":[6.491701,44.5619083]},"properties":{"natural":"tree"}},
{"type":"Feature","geometry":{"type":"Point","coordinates":[6.4916527,44.5618873]},"properties":{"natural":"tree"}},
{"type":"Feature","geometry":{"type":"Point","coordinates":[6.4925508,44.5621564]},"properties":{"natural":"tree"}},
{"type":"Feature","geometry":{"type":"Point","coordinates":[6.4925577,44.562118]},"properties":{"natural":"tree"}},
{"type":"Feature","geometry":{"type":"Point","coordinates":[6.4926948,44.562169]},"properties":{"natural":"tree"}},
{"type":"Feature","geometry":{"type":"Point","coordinates":[6.492361,44.5619774]},"properties":{"natural":"tree"}},
{"type":"Feature","geometry":{"type":"Point","coordinates":[6.4925327,44.5618322]},"properties":{"natural":"tree"}},
{"type":"Feature","geometry":{"type":"Point","coordinates":[6.4924563,44.5617882]},"properties":{"natural":"tree"}},
{"type":"Feature","geometry":{"type":"Point","coordinates":[6.4924589,44.5616611]},"properties":{"natural":"tree"}},
{"type":"Feature","geometry":{"type":"Point","coordinates":[6.4925837,44.5616]},"properties":{"natural":"tree"}},
{"type":"Feature","geometry":{"type":"Point","coordinates":[6.4927982,44.5614863]},"properties":{"natural":"tree"}},
{"type":"Feature","geometry":{"type":"Point","coordinates":[6.4927205,44.561557]},"properties":{"natural":"tree"}},
{"type":"Feature","geometry":{"type":"Point","coordinates":[6.4929163,44.5614681]},"properties":{"natural":"tree"}},
{"type":"Feature","geometry":{"type":"Point","coordinates":[6.4925703,44.5613859]},"properties":{"natural":"tree"}},
{"type":"Feature","geometry":{"type":"Point","coordinates":[6.4923838,44.5614528]},"properties":{"natural":"tree"}},
{"type":"Feature","geometry":{"type":"Point","coordinates":[6.4923758,44.5613573]},"properties":{"natural":"tree"}},
{"type":"Feature","geometry":{"type":"Point","coordinates":[6.4925716,44.5612904]},"properties":{"natural":"tree"}},
{"type":"Feature","geometry":{"type":"Point","coordinates":[6.4923919,44.5609789]},"properties":{"natural":"tree"}},
{"type":"Feature","geometry":{"type":"Point","coordinates":[6.4923181,44.5610553]},"properties":{"natural":"tree"}},
{"type":"Feature","geometry":{"type":"Point","coordinates":[6.4924697,44.5608623]},"properties":{"natural":"tree"}},
{"type":"Feature","geometry":{"type":"Point","coordinates":[6.4923865,44.5607582]},"properties":{"natural":"tree"}},
{"type":"Feature","geometry":{"type":"Point","coordinates":[6.4925327,44.5607171]},"properties":{"natural":"tree"}},
{"type":"Feature","geometry":{"type":"Point","coordinates":[6.4924241,44.560804]},"properties":{"natural":"tree"}},
{"type":"Feature","geometry":{"type":"Point","coordinates":[6.4937217,44.5615129]},"properties":{"natural":"tree"}},
{"type":"Feature","geometry":{"type":"Point","coordinates":[6.4936166,44.5614813]},"properties":{"natural":"tree"}},
{"type":"Feature","geometry":{"type":"Point","coordinates":[6.4939179,44.561656]},"properties":{"natural":"tree"}},
{"type":"Feature","geometry":{"type":"Point","coordinates":[6.4938641,44.5617325]},"properties":{"natural":"tree"}},
{"type":"Feature","geometry":{"type":"Point","coordinates":[6.4932804,44.5616993]},"properties":{"natural":"tree"}},
{"type":"Feature","geometry":{"type":"Point","coordinates":[6.4933084,44.5617725]},"properties":{"natural":"tree"}},
{"type":"Feature","geometry":{"type":"Point","coordinates":[6.4928134,44.5623165]},"properties":{"natural":"tree"}},
{"type":"Feature","geometry":{"type":"Point","coordinates":[6.4928951,44.5623947]},"properties":{"natural":"tree"}},
{"type":"Feature","geometry":{"type":"Point","coordinates":[6.4930235,44.5622998]},"properties":{"natural":"tree"}},
{"type":"Feature","geometry":{"type":"Point","coordinates":[6.4929558,44.5621418]},"properties":{"natural":"tree"}},
{"type":"Feature","geometry":{"type":"Point","coordinates":[6.492734,44.5622216]},"properties":{"natural":"tree"}},
{"type":"Feature","geometry":{"type":"Point","coordinates":[6.4928414,44.5621501]},"properties":{"natural":"tree"}},
{"type":"Feature","geometry":{"type":"Point","coordinates":[6.491964,44.563158]},"properties":{"natural":"tree"}},
{"type":"Feature","geometry":{"type":"Point","coordinates":[6.4920297,44.5631981]},"properties":{"natural":"tree"}},
{"type":"Feature","geometry":{"type":"Point","coordinates":[6.4919278,44.5631026]},"properties":{"natural":"tree"}},
{"type":"Feature","geometry":{"type":"Point","coordinates":[6.4907313,44.5622545]},"properties":{"natural":"tree"}},
{"type":"Feature","geometry":{"type":"Point","coordinates":[6.4909797,44.5624177]},"properties":{"natural":"tree"}},
{"type":"Feature","geometry":{"type":"Point","coordinates":[6.4908546,44.5623349]},"properties":{"natural":"tree"}},
{"type":"Feature","geometry":{"type":"Point","coordinates":[6.4946872,44.5650099]},"properties":{"information":"terminal","tourism":"information"}},
{"type":"Feature","geometry":{"type":"Point","coordinates":[6.4948991,44.5650405]},"properties":{"natural":"tree"}},
{"type":"Feature","geometry":{"type":"Point","coordinates":[6.4950334,44.5651105]},"properties":{"natural":"tree"}},
{"type":"Feature","geometry":{"type":"Point","coordinates":[6.4951251,44.5651602]},"properties":{"natural":"tree"}},
{"type":"Feature","geometry":{"type":"Point","coordinates":[6.4952844,44.5652481]},"properties":{"natural":"tree"}},
{"type":"Feature","geometry":{"type":"Point","coordinates":[6.4954296,44.5653119]},"properties":{"natural":"tree"}},
{"type":"Feature","geometry":{"type":"Point","coordinates":[6.4955737,44.5653593]},"properties":{"natural":"tree"}},
{"type":"Feature","geometry":{"type":"Point","coordinates":[6.4957407,44.565392]},"properties":{"natural":"tree"}},
{"type":"Feature","geometry":{"type":"Point","coordinates":[6.4958978,44.5654192]},"properties":{"natural":"tree"}},
{"type":"Feature","geometry":{"type":"Point","coordinates":[6.4957014,44.5654907]},"properties":{"natural":"tree"}},
{"type":"Feature","geometry":{"type":"Point","coordinates":[6.4955344,44.565458]},"properties":{"natural":"tree"}},
{"type":"Feature","geometry":{"type":"Point","coordinates":[6.4958662,44.5655109]},"properties":{"natural":"tree"}},
{"type":"Feature","geometry":{"type":"Point","coordinates":[6.4952539,44.5655444]},"properties":{"natural":"tree"}},
{"type":"Feature","geometry":{"type":"Point","coordinates":[6.4949504,44.5651789]},"properties":{"natural":"tree"}},
{"type":"Feature","geometry":{"type":"Point","coordinates":[6.4948293,44.5651058]},"properties":{"natural":"tree"}},
{"type":"Feature","geometry":{"type":"Point","coordinates":[6.4946798,44.565028]},"properties":{"natural":"tree"}},
{"type":"Feature","geometry":{"type":"Point","coordinates":[6.4947562,44.5649518]},"properties":{"natural":"tree"}},
{"type":"Feature","geometry":{"type":"Point","coordinates":[6.4946328,44.5648811]},"properties":{"natural":"tree"}},
{"type":"Feature","geometry":{"type":"Point","coordinates":[6.4945128,44.5648072]},"properties":{"natural":"tree"}},
{"type":"Feature","geometry":{"type":"Point","coordinates":[6.494444,44.5648795]},"properties":{"natural":"tree"}},
{"type":"Feature","geometry":{"type":"Point","coordinates":[6.4943392,44.5648274]},"properties":{"natural":"tree"}},
{"type":"Feature","geometry":{"type":"Point","coordinates":[6.4944134,44.5647582]},"properties":{"natural":"tree"}},
{"type":"Feature","geometry":{"type":"Point","coordinates":[6.4942748,44.5646789]},"properties":{"natural":"tree"}},
{"type":"Feature","geometry":{"type":"Point","coordinates":[6.4942028,44.5647473]},"properties":{"natural":"tree"}},
{"type":"Feature","geometry":{"type":"Point","coordinates":[6.4940642,44.5646711]},"properties":{"natural":"tree"}},
{"type":"Feature","geometry":{"type":"Point","coordinates":[6.4941406,44.5646104]},"properties":{"natural":"tree"}},
{"type":"Feature","geometry":{"type":"Point","coordinates":[6.4940118,44.5645296]},"properties":{"natural":"tree"}},
{"type":"Feature","geometry":{"type":"Point","coordinates":[6.493943,44.5645949]},"properties":{"natural":"tree"}},
{"type":"Feature","geometry":{"type":"Point","coordinates":[6.4939015,44.5644767]},"properties":{"natural":"tree"}},
{"type":"Feature","geometry":{"type":"Point","coordinates":[6.4937957,44.5644114]},"properties":{"natural":"tree"}},
{"type":"Feature","geometry":{"type":"Point","coordinates":[6.4936952,44.5643585]},"properties":{"natural":"tree"}},
{"type":"Feature","geometry":{"type":"Point","coordinates":[6.4936003,44.5643056]},"properties":{"natural":"tree"}},
{"type":"Feature","geometry":{"type":"Point","coordinates":[6.4933482,44.5641563]},"properties":{"natural":"tree"}},
{"type":"Feature","geometry":{"type":"Point","coordinates":[6.4932226,44.5642076]},"properties":{"natural":"tree"}},
{"type":"Feature","geometry":{"type":"Point","coordinates":[6.4931353,44.5641586]},"properties":{"natural":"tree"}},
{"type":"Feature","geometry":{"type":"Point","coordinates":[6.4930567,44.5641128]},"properties":{"natural":"tree"}},
{"type":"Feature","geometry":{"type":"Point","coordinates":[6.4929607,44.5640645]},"properties":{"natural":"tree"}},
{"type":"Feature","geometry":{"type":"Point","coordinates":[6.4928756,44.5640086]},"properties":{"natural":"tree"}},
{"type":"Feature","geometry":{"type":"Point","coordinates":[6.4927981,44.563951]},"properties":{"natural":"tree"}},
{"type":"Feature","geometry":{"type":"Point","coordinates":[6.4926944,44.5638927]},"properties":{"natural":"tree"}},
{"type":"Feature","geometry":{"type":"Point","coordinates":[6.4928513,44.563851]},"properties":{"natural":"tree"}},
{"type":"Feature","geometry":{"type":"Point","coordinates":[6.4929771,44.563944]},"properties":{"natural":"tree"}},
{"type":"Feature","geometry":{"type":"Point","coordinates":[6.4930971,44.5640179]},"properties":{"natural":"tree"}},
{"type":"Feature","geometry":{"type":"Point","coordinates":[6.4927522,44.5637784]},"properties":{"natural":"tree"}},
{"type":"Feature","geometry":{"type":"Point","coordinates":[6.4926474,44.5636718]},"properties":{"natural":"tree"}},
{"type":"Feature","geometry":{"type":"Point","coordinates":[6.492583,44.563577]},"properties":{"natural":"tree"}},
{"type":"Feature","geometry":{"type":"Point","coordinates":[6.4925372,44.5634502]},"properties":{"natural":"tree"}},
{"type":"Feature","geometry":{"type":"Point","coordinates":[6.4924673,44.5633546]},"properties":{"natural":"tree"}},
{"type":"Feature","geometry":{"type":"Point","coordinates":[6.4923822,44.5632511]},"properties":{"natural":"tree"}},
{"type":"Feature","geometry":{"type":"Point","coordinates":[6.492807,44.5635217]},"properties":{"natural":"tree"}},
{"type":"Feature","geometry":{"type":"Point","coordinates":[6.4928365,44.5636011]},"properties":{"natural":"tree"}},
{"type":"Feature","geometry":{"type":"Point","coordinates":[6.4967509,44.5655872]},"properties":{"natural":"tree"}},
{"type":"Feature","geometry":{"type":"Point","coordinates":[6.4968399,44.5655934]},"properties":{"natural":"tree"}},
{"type":"Feature","geometry":{"type":"Point","coordinates":[6.4969377,44.565597]},"properties":{"natural":"tree"}},
{"type":"Feature","geometry":{"type":"Point","coordinates":[6.4970192,44.5656158]},"properties":{"natural":"tree"}},
{"type":"Feature","geometry":{"type":"Point","coordinates":[6.4971044,44.5656533]},"properties":{"natural":"tree"}},
{"type":"Feature","geometry":{"type":"Point","coordinates":[6.4971621,44.5657113]},"properties":{"natural":"tree"}},
{"type":"Feature","geometry":{"type":"Point","coordinates":[6.4974404,44.5660034]},"properties":{"natural":"tree"}},
{"type":"Feature","geometry":{"type":"Point","coordinates":[6.4974906,44.5660642]},"properties":{"natural":"tree"}},
{"type":"Feature","geometry":{"type":"Point","coordinates":[6.497542,44.5661195]},"properties":{"natural":"tree"}},
{"type":"Feature","geometry":{"type":"Point","coordinates":[6.4979194,44.5659061]},"properties":{"natural":"tree"}},
{"type":"Feature","geometry":{"type":"Point","coordinates":[6.4964013,44.5653484]},"properties":{"natural":"tree"}},
{"type":"Feature","geometry":{"type":"Point","coordinates":[6.4965915,44.565154]},"properties":{"natural":"tree"}},
{"type":"Feature","geometry":{"type":"Point","coordinates":[6.4966215,44.5651959]},"properties":{"natural":"tree"}},
{"type":"Feature","geometry":{"type":"Point","coordinates":[6.496021,44.5656579]},"properties":{"natural":"tree"}},
{"type":"Feature","geometry":{"type":"Point","coordinates":[6.4959747,44.5656991]},"properties":{"natural":"tree"}},
{"type":"Feature","geometry":{"type":"Point","coordinates":[6.4959351,44.5657308]},"properties":{"natural":"tree"}},
{"type":"Feature","geometry":{"type":"Point","coordinates":[6.4958914,44.5657661]},"properties":{"natural":"tree"}},
{"type":"Feature","geometry":{"type":"Point","coordinates":[6.4958501,44.5658008]},"properties":{"natural":"tree"}},
{"type":"Feature","geometry":{"type":"Point","coordinates":[6.4958096,44.5658379]},"properties":{"natural":"tree"}},
{"type":"Feature","geometry":{"type":"Point","coordinates":[6.4957659,44.5658744]},"properties":{"natural":"tree"}},
{"type":"Feature","geometry":{"type":"Point","coordinates":[6.4957271,44.5659026]},"properties":{"natural":"tree"}},
{"type":"Feature","geometry":{"type":"Point","coordinates":[6.4940831,44.5644783]},"properties":{"natural":"tree"}},
{"type":"Feature","geometry":{"type":"Point","coordinates":[6.4931849,44.5645021]},"properties":{"natural":"tree"}},
{"type":"Feature","geometry":{"type":"Point","coordinates":[6.4932307,44.5646014]},"properties":{"natural":"tree"}},
{"type":"Feature","geometry":{"type":"Point","coordinates":[6.4929736,44.5646558]},"properties":{"natural":"tree"}},
{"type":"Feature","geometry":{"type":"Point","coordinates":[6.4928843,44.5648249]},"properties":{"natural":"tree"}},
{"type":"Feature","geometry":{"type":"Point","coordinates":[6.4942067,44.5652021]},"properties":{"natural":"tree"}},
{"type":"Feature","geometry":{"type":"Point","coordinates":[6.4942176,44.5651571]},"properties":{"natural":"tree"}},
{"type":"Feature","geometry":{"type":"Point","coordinates":[6.4942808,44.5651105]},"properties":{"natural":"tree"}},
{"type":"Feature","geometry":{"type":"Point","coordinates":[6.4943243,44.565078]},"properties":{"natural":"tree"}},
{"type":"Feature","geometry":{"type":"Point","coordinates":[6.494357,44.5650531]},"properties":{"natural":"tree"}},
{"type":"Feature","geometry":{"type":"Point","coordinates":[6.4941718,44.5652363]},"properties":{"natural":"tree"}},
{"type":"Feature","geometry":{"type":"Point","coordinates":[6.4497828,44.4879612]},"properties":{"artist_name":"Christian Burger","artwork_type":"statue","fixme":"emplacement à vérifier","material":"wood","name":"Ours de Saint-Arey","tourism":"artwork","url":"https://www.envie-de-serre-poncon.com/guide/fontaine-ours-boscodon"}},
{"type":"Feature","geometry":{"type":"Point","coordinates":[6.4941686,44.5643914]},"properties":{"natural":"tree"}},
{"type":"Feature","geometry":{"type":"Point","coordinates":[6.473189,44.5512026]},"properties":{"leisure":"outdoor_seating"}},
{"type":"Feature","geometry":{"type":"Point","coordinates":[6.5072356,44.5697351]},"properties":{"natural":"tree"}},
{"type":"Feature","geometry":{"type":"Point","coordinates":[6.4822101,44.5468858]},"properties":{"leisure":"outdoor_seating"}},
{"type":"Feature","geometry":{"type":"Point","coordinates":[6.4942973,44.5639312]},"properties":{"leisure":"outdoor_seating"}},
{"type":"Feature","geometry":{"type":"Point","coordinates":[6.4968624,44.5654443]},"properties":{"leisure":"outdoor_seating"}},
{"type":"Feature","geometry":{"type":"Point","coordinates":[6.4965485,44.5653551]},"properties":{"leisure":"outdoor_seating"}},
{"type":"Feature","geometry":{"type":"Point","coordinates":[6.4965656,44.5652227]},"properties":{"leisure":"outdoor_seating"}},
{"type":"Feature","geometry":{"type":"Point","coordinates":[6.4964423,44.5652261]},"properties":{"leisure":"outdoor_seating"}},
{"type":"Feature","geometry":{"type":"Point","coordinates":[6.49665,44.56517]},"properties":{"leisure":"outdoor_seating"}},
{"type":"Feature","geometry":{"type":"Point","coordinates":[6.4971861,44.5653834]},"properties":{"leisure":"outdoor_seating"}},
{"type":"Feature","geometry":{"type":"Point","coordinates":[6.4963237,44.5653957]},"properties":{"leisure":"outdoor_seating"}},
{"type":"Feature","geometry":{"type":"Point","coordinates":[6.4961224,44.5653977]},"properties":{"leisure":"outdoor_seating"}},
{"type":"Feature","geometry":{"type":"Point","coordinates":[6.496223,44.5652902]},"properties":{"leisure":"outdoor_seating"}},
{"type":"Feature","geometry":{"type":"Point","coordinates":[6.4963291,44.5652663]},"properties":{"leisure":"outdoor_seating"}},
{"type":"Feature","geometry":{"type":"Point","coordinates":[6.4961138,44.5643214]},"properties":{"leisure":"outdoor_seating"}},
{"type":"Feature","geometry":{"type":"Point","coordinates":[6.4959931,44.564344]},"properties":{"leisure":"outdoor_seating"}},
{"type":"Feature","geometry":{"type":"Point","coordinates":[6.49572,44.5641617]},"properties":{"leisure":"outdoor_seating"}},
{"type":"Feature","geometry":{"type":"Point","coordinates":[6.4961382,44.5642067]},"properties":{"leisure":"outdoor_seating"}},
{"type":"Feature","geometry":{"type":"Point","coordinates":[6.4967457,44.5636181]},"properties":{"leisure":"outdoor_seating"}},
{"type":"Feature","geometry":{"type":"Point","coordinates":[6.4953185,44.5639911]},"properties":{"leisure":"outdoor_seating"}},
{"type":"Feature","geometry":{"type":"Point","coordinates":[6.4953037,44.5640628]},"properties":{"leisure":"outdoor_seating"}},
{"type":"Feature","geometry":{"type":"Point","coordinates":[6.4932719,44.5630653]},"properties":{"leisure":"outdoor_seating"}},
{"type":"Feature","geometry":{"type":"Point","coordinates":[6.4970185,44.5654992]},"properties":{"information":"guidepost","tourism":"information"}},
{"type":"Feature","geometry":{"type":"Point","coordinates":[6.4969799,44.5654942]},"properties":{"information":"guidepost","tourism":"information"}},
{"type":"Feature","geometry":{"type":"Point","coordinates":[6.497708,44.5660373]},"properties":{"information":"guidepost","tourism":"information"}},
{"type":"Feature","geometry":{"type":"Point","coordinates":[6.4977185,44.5663126]},"properties":{"information":"guidepost","tourism":"information"}},
{"type":"Feature","geometry":{"type":"Point","coordinates":[6.4975516,44.5661845]},"properties":{"information":"guidepost","tourism":"information"}},
{"type":"Feature","geometry":{"type":"Point","coordinates":[6.4979193,44.5661305]},"properties":{"information":"guidepost","tourism":"information"}},
{"type":"Feature","geometry":{"type":"Point","coordinates":[6.4962024,44.5655591]},"properties":{"natural":"tree"}},
{"type":"Feature","geometry":{"type":"Point","coordinates":[6.4954098,44.5655663]},"properties":{"natural":"tree"}},
{"type":"Feature","geometry":{"type":"Point","coordinates":[6.5130593,44.5610703]},"properties":{"natural":"tree"}},
{"type":"Feature","geometry":{"type":"Point","coordinates":[6.513145,44.5611308]},"properties":{"natural":"tree"}},
{"type":"Feature","geometry":{"type":"Point","coordinates":[6.5131949,44.5612015]},"properties":{"natural":"tree"}},
{"type":"Feature","geometry":{"type":"Point","coordinates":[6.4851546,44.5600053]},"properties":{"historic":"wayside_cross"}},
{"type":"Feature","geometry":{"type":"Point","coordinates":[6.4347226,44.4988718]},"properties":{"ele":"1650","hiking":"yes","information":"guidepost","name":"Le Grand Clot","panoramax":"a0d2085b-93d7-43e7-9b32-bb11dde47c14","tourism":"information"}},
{"type":"Feature","geometry":{"type":"Point","coordinates":[6.4219929,44.4902767]},"properties":{"board_type":"nature","information":"board","name":"Le Sentier du Pic de Morgon","panoramax":"f9d6a91c-4800-4790-be65-0ad3b9b3cf5c","tourism":"information"}},
{"type":"Feature","geometry":{"type":"Point","coordinates":[6.4527199,44.524933]},"properties":{"historic":"wayside_cross"}},
{"type":"Feature","geometry":{"type":"Point","coordinates":[6.4427616,44.5002157]},"properties":{"ele":"1430","information":"guidepost","tourism":"information"}},
{"type":"Feature","geometry":{"type":"Point","coordinates":[6.4427777,44.5006729]},"properties":{"ele":"1430","information":"guidepost","tourism":"information"}},
{"type":"Feature","geometry":{"type":"Point","coordinates":[6.466946,44.5479621]},"properties":{"bench":"yes","leisure":"picnic_table","lit":"no","material":"wood"}},
{"type":"Feature","geometry":{"type":"Point","coordinates":[6.4848367,44.5478485]},"properties":{"leisure":"picnic_table"}},
{"type":"Feature","geometry":{"type":"Point","coordinates":[6.4845744,44.5476831]},"properties":{"leisure":"picnic_table"}},
{"type":"Feature","geometry":{"type":"Point","coordinates":[6.4847663,44.5478287]},"properties":{"information":"board","tourism":"information"}},
{"type":"Feature","geometry":{"type":"Point","coordinates":[6.5210912,44.5670597]},"properties":{"information":"board","tourism":"information"}},
{"type":"Feature","geometry":{"type":"Point","coordinates":[6.5046048,44.5580245]},"properties":{"ele":"789","hiking":"yes","information":"guidepost","name":"Chemin du stade","tourism":"information"}},
{"type":"Feature","geometry":{"type":"Point","coordinates":[6.5193713,44.5223192]},"properties":{"historic":"wayside_cross"}},
{"type":"Feature","geometry":{"type":"Point","coordinates":[6.4973381,44.5644482]},"properties":{"natural":"tree"}},
{"type":"Feature","geometry":{"type":"Point","coordinates":[6.4973755,44.5644935]},"properties":{"natural":"tree"}},
{"type":"Feature","geometry":{"type":"Point","coordinates":[6.4975719,44.5646767]},"properties":{"natural":"tree"}},
{"type":"Feature","geometry":{"type":"Point","coordinates":[6.4976032,44.5647122]},"properties":{"natural":"tree"}},
{"type":"Feature","geometry":{"type":"Point","coordinates":[6.4368517,44.5563546]},"properties":{"information":"map","tourism":"information"}},
{"type":"Feature","geometry":{"type":"Point","coordinates":[6.4339723,44.5581757]},"properties":{"natural":"tree"}},
{"type":"Feature","geometry":{"type":"Point","coordinates":[6.4250768,44.5602479]},"properties":{"natural":"tree"}},
{"type":"Feature","geometry":{"type":"Point","coordinates":[6.4955324,44.5635995]},"properties":{"natural":"tree"}},
{"type":"Feature","geometry":{"type":"Point","coordinates":[6.4597652,44.5465055]},"properties":{"leisure":"pitch","source":"Le ministère de la ville, de la jeunesse et des sports - 01/2018","sport":"volleyball","surface":"asphalt"}},
{"type":"Feature","geometry":{"type":"Point","coordinates":[6.46017,44.54658]},"properties":{"boules":"petanque","leisure":"pitch","source":"Le ministère de la ville, de la jeunesse et des sports - 01/2018","sport":"boules"}},
{"type":"Feature","geometry":{"type":"Point","coordinates":[6.4296856,44.5582946]},"properties":{"man_made":"spring_box","natural":"spring","source":"IGN - 09/2020"}},
{"type":"Feature","geometry":{"type":"Point","coordinates":[6.444732,44.5564086]},"properties":{"historic":"wayside_cross","source":"IGN - 09/2020"}},
{"type":"Feature","geometry":{"type":"Point","coordinates":[6.44572,44.558781]},"properties":{"historic":"wayside_cross","source":"IGN - 09/2020"}},
{"type":"Feature","geometry":{"type":"Point","coordinates":[6.4492876,44.555584]},"properties":{"natural":"tree"}},
{"type":"Feature","geometry":{"type":"Point","coordinates":[6.4489926,44.5554178]},"properties":{"natural":"tree"}},
{"type":"Feature","geometry":{"type":"Point","coordinates":[6.4481431,44.5555023]},"properties":{"natural":"tree"}},
{"type":"Feature","geometry":{"type":"Point","coordinates":[6.4421472,44.5557051]},"properties":{"natural":"tree"}},
{"type":"Feature","geometry":{"type":"Point","coordinates":[6.4417187,44.5557672]},"properties":{"natural":"tree"}},
{"type":"Feature","geometry":{"type":"Point","coordinates":[6.4403331,44.556147]},"properties":{"natural":"tree"}},
{"type":"Feature","geometry":{"type":"Point","coordinates":[6.4450797,44.5610884]},"properties":{"natural":"tree"}},
{"type":"Feature","geometry":{"type":"Point","coordinates":[6.441072,44.5560724]},"properties":{"natural":"tree"}},
{"type":"Feature","geometry":{"type":"Point","coordinates":[6.4356173,44.5571671]},"properties":{"natural":"tree"}},
{"type":"Feature","geometry":{"type":"Point","coordinates":[6.4345306,44.5568346]},"properties":{"natural":"tree"}},
{"type":"Feature","geometry":{"type":"Point","coordinates":[6.4248917,44.5614124]},"properties":{"natural":"tree"}},
{"type":"Feature","geometry":{"type":"Point","coordinates":[6.4246374,44.5591867]},"properties":{"natural":"tree"}},
{"type":"Feature","geometry":{"type":"Point","coordinates":[6.4244336,44.5592784]},"properties":{"natural":"tree"}},
{"type":"Feature","geometry":{"type":"Point","coordinates":[6.4253938,44.5592765]},"properties":{"natural":"tree"}},
{"type":"Feature","geometry":{"type":"Point","coordinates":[6.4294273,44.558167]},"properties":{"natural":"tree"}},
{"type":"Feature","geometry":{"type":"Point","coordinates":[6.4325099,44.5579418]},"properties":{"natural":"tree"}},
{"type":"Feature","geometry":{"type":"Point","coordinates":[6.4337621,44.5581287]},"properties":{"natural":"tree"}},
{"type":"Feature","geometry":{"type":"Point","coordinates":[6.4341767,44.5566209]},"properties":{"natural":"tree"}},
{"type":"Feature","geometry":{"type":"Point","coordinates":[6.4317036,44.5553057]},"properties":{"natural":"tree"}},
{"type":"Feature","geometry":{"type":"Point","coordinates":[6.4327255,44.5554834]},"properties":{"natural":"tree"}},
{"type":"Feature","geometry":{"type":"Point","coordinates":[6.4239832,44.5490909]},"properties":{"natural":"tree"}},
{"type":"Feature","geometry":{"type":"Point","coordinates":[6.4508689,44.5650305]},"properties":{"man_made":"spring_box","name":"Combe Astier","natural":"spring","source":"IGN - 09/2020"}},
{"type":"Feature","geometry":{"type":"Point","coordinates":[6.4225471,44.5484361]},"properties":{"natural":"tree"}},
{"type":"Feature","geometry":{"type":"Point","coordinates":[6.4265915,44.5558157]},"properties":{"natural":"tree"}},
{"type":"Feature","geometry":{"type":"Point","coordinates":[6.4269288,44.5558552]},"properties":{"natural":"tree"}},
{"type":"Feature","geometry":{"type":"Point","coordinates":[6.4272662,44.5559781]},"properties":{"natural":"tree"}},
{"type":"Feature","geometry":{"type":"Point","coordinates":[6.4278593,44.5563634]},"properties":{"natural":"tree"}},
{"type":"Feature","geometry":{"type":"Point","coordinates":[6.4285426,44.5569333]},"properties":{"natural":"tree"}},
{"type":"Feature","geometry":{"type":"Point","coordinates":[6.4378008,44.5592538]},"properties":{"natural":"tree"}},
{"type":"Feature","geometry":{"type":"Point","coordinates":[6.4379242,44.5592174]},"properties":{"natural":"tree"}},
{"type":"Feature","geometry":{"type":"Point","coordinates":[6.4380181,44.5592041]},"properties":{"natural":"tree"}},
{"type":"Feature","geometry":{"type":"Point","coordinates":[6.4271021,44.559486]},"properties":{"natural":"tree"}},
{"type":"Feature","geometry":{"type":"Point","coordinates":[6.4273052,44.559268]},"properties":{"natural":"tree"}},
{"type":"Feature","geometry":{"type":"Point","coordinates":[6.4290892,44.5582248]},"properties":{"natural":"tree"}},
{"type":"Feature","geometry":{"type":"Point","coordinates":[6.4304715,44.5586341]},"properties":{"natural":"tree"}},
{"type":"Feature","geometry":{"type":"Point","coordinates":[6.4306793,44.5588404]},"properties":{"natural":"tree"}},
{"type":"Feature","geometry":{"type":"Point","coordinates":[6.431702,44.5589719]},"properties":{"natural":"tree"}},
{"type":"Feature","geometry":{"type":"Point","coordinates":[6.4311696,44.5575527]},"properties":{"natural":"tree"}},
{"type":"Feature","geometry":{"type":"Point","coordinates":[6.4296636,44.5572049]},"properties":{"natural":"tree"}},
{"type":"Feature","geometry":{"type":"Point","coordinates":[6.4306201,44.5572046]},"properties":{"natural":"tree"}},
{"type":"Feature","geometry":{"type":"Point","coordinates":[6.432503,44.5565281]},"properties":{"natural":"tree"}},
{"type":"Feature","geometry":{"type":"Point","coordinates":[6.4346597,44.5562251]},"properties":{"natural":"tree"}},
{"type":"Feature","geometry":{"type":"Point","coordinates":[6.4351693,44.5553853]},"properties":{"natural":"tree"}},
{"type":"Feature","geometry":{"type":"Point","coordinates":[6.4393244,44.556104]},"properties":{"natural":"tree"}},
{"type":"Feature","geometry":{"type":"Point","coordinates":[6.4817094,44.5515339]},"properties":{"natural":"tree"}},
{"type":"Feature","geometry":{"type":"Point","coordinates":[6.4404385,44.5564671]},"properties":{"natural":"tree"}},
{"type":"Feature","geometry":{"type":"Point","coordinates":[6.4395061,44.5567517]},"properties":{"natural":"tree"}},
{"type":"Feature","geometry":{"type":"Point","coordinates":[6.4393841,44.5566637]},"properties":{"natural":"tree"}},
{"type":"Feature","geometry":{"type":"Point","coordinates":[6.4395482,44.5569318]},"properties":{"natural":"tree"}},
{"type":"Feature","geometry":{"type":"Point","coordinates":[6.4398638,44.5556421]},"properties":{"natural":"tree"}},
{"type":"Feature","geometry":{"type":"Point","coordinates":[6.4393824,44.5556051]},"properties":{"natural":"tree"}},
{"type":"Feature","geometry":{"type":"Point","coordinates":[6.4391371,44.5555816]},"properties":{"natural":"tree"}},
{"type":"Feature","geometry":{"type":"Point","coordinates":[6.4389235,44.5555589]},"properties":{"natural":"tree"}},
{"type":"Feature","geometry":{"type":"Point","coordinates":[6.4387324,44.5555396]},"properties":{"natural":"tree"}},
{"type":"Feature","geometry":{"type":"Point","coordinates":[6.4385071,44.5555269]},"properties":{"natural":"tree"}},
{"type":"Feature","geometry":{"type":"Point","coordinates":[6.4383171,44.5555328]},"properties":{"natural":"tree"}},
{"type":"Feature","geometry":{"type":"Point","coordinates":[6.4367506,44.5554038]},"properties":{"natural":"tree"}},
{"type":"Feature","geometry":{"type":"Point","coordinates":[6.4478695,44.5308042]},"properties":{"addr:housenumber":"9","addr:street":"Allée du Morgon","description":"18m2","name":"Studio entre Savines et Embrum","phone":"+33662174342","tourism":"chalet"}},
{"type":"Feature","geometry":{"type":"Point","coordinates":[6.4362938,44.455051]},"properties":{"ele":"1840","name":"Source du vallon","natural":"spring","ref:refuges.info":"6710"}},
{"type":"Feature","geometry":{"type":"Point","coordinates":[6.4850762,44.5368587]},"properties":{"natural":"tree"}},
{"type":"Feature","geometry":{"type":"Point","coordinates":[6.4990824,44.5632127]},"properties":{"natural":"tree"}},
{"type":"Feature","geometry":{"type":"Point","coordinates":[6.4994308,44.5630093]},"properties":{"natural":"tree"}},
{"type":"Feature","geometry":{"type":"Point","coordinates":[6.4993306,44.5630594]},"properties":{"natural":"tree"}},
{"type":"Feature","geometry":{"type":"Point","coordinates":[6.499425,44.5629238]},"properties":{"natural":"tree"}},
{"type":"Feature","geometry":{"type":"Point","coordinates":[6.4991756,44.5632657]},"properties":{"natural":"tree"}},
{"type":"Feature","geometry":{"type":"Point","coordinates":[6.490783,44.562038]},"properties":{"historic":"wayside_cross","material":"wood","wikimedia_commons":"File:Croix de chemin à Embrun (mai 2021).jpg"}},
{"type":"Feature","geometry":{"type":"Point","coordinates":[6.455597,44.4996616]},"properties":{"historic":"memorial","memorial":"stone","name":"Maquis du Boscodon","wikimedia_commons":"File:Stèle du maquis de Boscodon, près de l'abbaye (mai 2021) - 1.jpg"}},
{"type":"Feature","geometry":{"type":"Point","coordinates":[6.4557146,44.4998447]},"properties":{"ele":"1152","hiking":"yes","information":"guidepost","name":"Abbaye de Boscodon","panoramax":"ef8523c8-8ece-4ce4-8a00-f29c1376fc4d","tourism":"information","wikimedia_commons":"File:Abbaye Notre-Dame de Boscodon - panneaux indicateurs et élévation.jpg"}},
{"type":"Feature","geometry":{"type":"Point","coordinates":[6.4521029,44.4976243]},"properties":{"ele":"1190","hiking":"yes","information":"guidepost","name":"La Pépinière","operator":"CC Serre-Ponçon","tourism":"information","wikimedia_commons":"File:Panneau lieu-dit La Pépinière à Crots (Hautes-Alpes).jpg"}},
{"type":"Feature","geometry":{"type":"Point","coordinates":[6.4664322,44.5488226]},"properties":{"natural":"tree"}},
{"type":"Feature","geometry":{"type":"Point","coordinates":[6.5053394,44.56551]},"properties":{"ele":"817","hiking":"yes","information":"guidepost","name":"Paradis","tourism":"information","wikimedia_commons":"File:Panneau Paradis 817 m (Embrun) en mai 2021.jpg"}},
{"type":"Feature","geometry":{"type":"Point","coordinates":[6.5026525,44.5647828]},"properties":{"ele":"854","hiking":"yes","information":"guidepost","name":"Les Croix","tourism":"information","wikimedia_commons":"File:Les Croix 854 m (panneau) à Embrun.jpg"}},
{"type":"Feature","geometry":{"type":"Point","coordinates":[6.5021852,44.564909]},"properties":{"ele":"857","hiking":"yes","information":"guidepost","name":"Les Rochassons","tourism":"information","wikimedia_commons":"File:Panneau Les Rochassons 857 m (Embrun).jpg"}},
{"type":"Feature","geometry":{"type":"Point","coordinates":[6.4989749,44.5653155]},"properties":{"information":"board","tourism":"information"}},
{"type":"Feature","geometry":{"type":"Point","coordinates":[6.453265,44.4908189]},"properties":{"ele":"1410","information":"guidepost","name":"source la grande combe","tourism":"information"}},
{"type":"Feature","geometry":{"type":"Point","coordinates":[6.4957011,44.5623442]},"properties":{"leisure":"dog_park","wheelchair":"yes"}},
{"type":"Feature","geometry":{"type":"Point","coordinates":[6.4319509,44.558673]},"properties":{"leaf_type":"needleleaved","natural":"tree"}},
{"type":"Feature","geometry":{"type":"Point","coordinates":[6.4971081999999999,44.5383086]},"properties":{"hiking":"yes","information":"guidepost","tourism":"information"}},
{"type":"Feature","geometry":{"type":"Point","coordinates":[6.4376454,44.4555651]},"properties":{"hiking":"yes","information":"guidepost","name":"Le Vallon","operator":"Communauté de communes Vallée de l'Ubaye - Serre-Ponçon","ref":"Le Lauzet Ubaye 17","source":"PDIPR 04","tourism":"information"}},
{"type":"Feature","geometry":{"type":"Point","coordinates":[6.4493678,44.4552341]},"properties":{"hiking":"yes","information":"guidepost","name":"Cabane du Sause","operator":"Communauté de communes Vallée de l'Ubaye - Serre-Ponçon","ref":"Le Lauzet Ubaye 18","source":"PDIPR 04","tourism":"information"}},
{"type":"Feature","geometry":{"type":"Point","coordinates":[6.4879237,44.5509329]},"properties":{"leisure":"outdoor_seating"}},
{"type":"Feature","geometry":{"type":"Point","coordinates":[6.4972178,44.562692]},"properties":{"natural":"tree"}},
{"type":"Feature","geometry":{"type":"Point","coordinates":[6.4972567,44.5627627]},"properties":{"natural":"tree"}},
{"type":"Feature","geometry":{"type":"Point","coordinates":[6.4971923,44.5628296]},"properties":{"natural":"tree"}},
{"type":"Feature","geometry":{"type":"Point","coordinates":[6.4969469,44.5629232]},"properties":{"natural":"tree"}},
{"type":"Feature","geometry":{"type":"Point","coordinates":[6.4964373,44.5627741]},"properties":{"natural":"tree"}},
{"type":"Feature","geometry":{"type":"Point","coordinates":[6.4981418,44.5628353]},"properties":{"natural":"tree"}},
{"type":"Feature","geometry":{"type":"Point","coordinates":[6.497828,44.562949]},"properties":{"natural":"tree"}},
{"type":"Feature","geometry":{"type":"Point","coordinates":[6.4977154,44.5635653]},"properties":{"natural":"tree"}},
{"type":"Feature","geometry":{"type":"Point","coordinates":[6.4974512,44.563315]},"properties":{"natural":"tree"}},
{"type":"Feature","geometry":{"type":"Point","coordinates":[6.4979313,44.5636733]},"properties":{"natural":"tree"}},
{"type":"Feature","geometry":{"type":"Point","coordinates":[6.4979796,44.5636284]},"properties":{"natural":"tree"}},
{"type":"Feature","geometry":{"type":"Point","coordinates":[6.4980158,44.5635921]},"properties":{"natural":"tree"}},
{"type":"Feature","geometry":{"type":"Point","coordinates":[6.4980654,44.5635376]},"properties":{"natural":"tree"}},
{"type":"Feature","geometry":{"type":"Point","coordinates":[6.498115,44.5635643]},"properties":{"natural":"tree"}},
{"type":"Feature","geometry":{"type":"Point","coordinates":[6.4981834,44.5635882]},"properties":{"natural":"tree"}},
{"type":"Feature","geometry":{"type":"Point","coordinates":[6.4981216999999999,44.5636169]},"properties":{"natural":"tree"}},
{"type":"Feature","geometry":{"type":"Point","coordinates":[6.498056,44.5636446]},"properties":{"natural":"tree"}},
{"type":"Feature","geometry":{"type":"Point","coordinates":[6.4980077,44.5636714]},"properties":{"natural":"tree"}},
{"type":"Feature","geometry":{"type":"Point","coordinates":[6.4983216,44.5637688]},"properties":{"natural":"tree"}},
{"type":"Feature","geometry":{"type":"Point","coordinates":[6.4985013,44.5636532]},"properties":{"natural":"tree"}},
{"type":"Feature","geometry":{"type":"Point","coordinates":[6.4981177,44.5639943]},"properties":{"natural":"tree"}},
{"type":"Feature","geometry":{"type":"Point","coordinates":[6.4980292,44.5638997]},"properties":{"natural":"tree"}},
{"type":"Feature","geometry":{"type":"Point","coordinates":[6.4985992,44.563766]},"properties":{"natural":"tree"}},
{"type":"Feature","geometry":{"type":"Point","coordinates":[6.4988446,44.5634917]},"properties":{"natural":"tree"}},
{"type":"Feature","geometry":{"type":"Point","coordinates":[6.4989639,44.5635166]},"properties":{"natural":"tree"}},
{"type":"Feature","geometry":{"type":"Point","coordinates":[6.4984208,44.5633169]},"properties":{"natural":"tree"}},
{"type":"Feature","geometry":{"type":"Point","coordinates":[6.4953973,44.5621735]},"properties":{"natural":"tree"}},
{"type":"Feature","geometry":{"type":"Point","coordinates":[6.4952524,44.5620283]},"properties":{"natural":"tree"}},
{"type":"Feature","geometry":{"type":"Point","coordinates":[6.4918419,44.5470994]},"properties":{"natural":"tree"}},
{"type":"Feature","geometry":{"type":"Point","coordinates":[6.4919278,44.5469847]},"properties":{"natural":"tree"}},
{"type":"Feature","geometry":{"type":"Point","coordinates":[6.4920404,44.546956]},"properties":{"natural":"tree"}},
{"type":"Feature","geometry":{"type":"Point","coordinates":[6.4919814,44.546912]},"properties":{"natural":"tree"}},
{"type":"Feature","geometry":{"type":"Point","coordinates":[6.492027,44.5468528]},"properties":{"natural":"tree"}},
{"type":"Feature","geometry":{"type":"Point","coordinates":[6.4922657,44.5468528]},"properties":{"natural":"tree"}},
{"type":"Feature","geometry":{"type":"Point","coordinates":[6.492137,44.5470306]},"properties":{"natural":"tree"}},
{"type":"Feature","geometry":{"type":"Point","coordinates":[6.4920941,44.5471357]},"properties":{"natural":"tree"}},
{"type":"Feature","geometry":{"type":"Point","coordinates":[6.4921477,44.5472733]},"properties":{"natural":"tree"}},
{"type":"Feature","geometry":{"type":"Point","coordinates":[6.492204,44.5471242]},"properties":{"natural":"tree"}},
{"type":"Feature","geometry":{"type":"Point","coordinates":[6.4922308,44.5470535]},"properties":{"natural":"tree"}},
{"type":"Feature","geometry":{"type":"Point","coordinates":[6.4923757,44.5471777]},"properties":{"natural":"tree"}},
{"type":"Feature","geometry":{"type":"Point","coordinates":[6.4923086,44.5470955]},"properties":{"natural":"tree"}},
{"type":"Feature","geometry":{"type":"Point","coordinates":[6.4924642,44.5471911]},"properties":{"natural":"tree"}},
{"type":"Feature","geometry":{"type":"Point","coordinates":[6.4923355,44.5472427]},"properties":{"natural":"tree"}},
{"type":"Feature","geometry":{"type":"Point","coordinates":[6.4923113,44.5473383]},"properties":{"natural":"tree"}},
{"type":"Feature","geometry":{"type":"Point","coordinates":[6.4920699,44.5467132]},"properties":{"natural":"tree"}},
{"type":"Feature","geometry":{"type":"Point","coordinates":[6.4917373,44.5469312]},"properties":{"natural":"tree"}},
{"type":"Feature","geometry":{"type":"Point","coordinates":[6.491917,44.5468241]},"properties":{"natural":"tree"}},
{"type":"Feature","geometry":{"type":"Point","coordinates":[6.4915683,44.5468604]},"properties":{"natural":"tree"}},
{"type":"Feature","geometry":{"type":"Point","coordinates":[6.4912116,44.5468967]},"properties":{"natural":"tree"}},