{"type":"FeatureCollection","features":[
{"type":"Feature","geometry":{"type":"Point","coordinates":[3.5813643,44.1216253]},"properties":{"ele":"1565","name":"Mont Aigoual","name:oc":"Mont Aigoal","natural":"peak","source:name:oc":"ieo-bdtopoc","wikidata":"Q1836325"}},
{"type":"Feature","geometry":{"type":"Point","coordinates":[3.4375058,44.1220596]},"properties":{"historic":"mine","name":"Mines de Villemagne"}},
{"type":"Feature","geometry":{"type":"Point","coordinates":[3.383992,44.05758]},"properties":{"ele":"866.78","mountain_pass":"yes","name":"Col de la Pierre Plantée","natural":"saddle"}},
{"type":"Feature","geometry":{"type":"Point","coordinates":[3.5814144,44.1210556]},"properties":{"direction":"both","tourism":"viewpoint"}},
{"type":"Feature","geometry":{"type":"Point","coordinates":[3.5413451,44.1029771]},"properties":{"ele":"1299","mountain_pass":"yes","name":"Col de la Serreyrède","natural":"saddle"}},
{"type":"Feature","geometry":{"type":"Point","coordinates":[3.5474372,44.054078]},"properties":{"ele":"1264","mountain_pass":"yes","name":"Col du Minier","natural":"saddle"}},
{"type":"Feature","geometry":{"type":"Point","coordinates":[3.5682585000000004,44.0387429]},"properties":{"ele":"1102","mountain_pass":"yes","name":"Col de la Broue","natural":"saddle"}},
{"type":"Feature","geometry":{"type":"Point","coordinates":[3.5196371,44.0887211]},"properties":{"ele":"1285","mountain_pass":"yes","name":"Col De Faubel","natural":"saddle"}},
{"type":"Feature","geometry":{"type":"Point","coordinates":[3.4806219,44.1243678]},"properties":{"historic":"ruins","name":"La Croix de Fer"}},
{"type":"Feature","geometry":{"type":"Point","coordinates":[3.5289488,44.1212019]},"properties":{"lwn_name":"Col de la Caumette","mountain_pass":"yes","name":"Col de la Caumette","natural":"saddle","network:type":"node_network"}},
{"type":"Feature","geometry":{"type":"Point","coordinates":[3.5514504,44.1165596]},"properties":{"ele":"1415","lwn_name":"Prat Peyrot","mountain_pass":"yes","name":"Col de Prat Peirot","natural":"saddle","network:type":"node_network"}},
{"type":"Feature","geometry":{"type":"Point","coordinates":[3.5817594,44.1213814]},"properties":{"capacity":"34","email":"snackbar.aigoual@laposte.net","name":"Gîte d'étape du Mont Aigoual","phone":"+33 4 67 82 62 78","ref:refuges.info":"1927","tourism":"guest_house","website":"https://www.gitesaigoual.fr/"}},
{"type":"Feature","geometry":{"type":"Point","coordinates":[3.5279035,44.1665211]},"properties":{"tourism":"picnic_site"}},
{"type":"Feature","geometry":{"type":"Point","coordinates":[3.4794772,44.1178442]},"properties":{"name":"Perte du Bonheur","natural":"cave_entrance","sinkhole":"ponor"}},
{"type":"Feature","geometry":{"type":"Point","coordinates":[3.3778936,44.1964717]},"properties":{"alt_name":"Grotte Rose","name":"Grotte de Dargilan","natural":"cave_entrance","tourism":"attraction","wikidata":"Q2519300","wikipedia":"fr:Grotte de Dargilan"}},
{"type":"Feature","geometry":{"type":"Point","coordinates":[3.4119966,44.115693]},"properties":{"addr:city":"Lanuéjols","addr:place":"Aiguebonne","addr:postcode":"30750","email":"aiguebonnegites@gmail.com","name":"Gîte d'Aiguebonne","phone":"+33 4 67 82 71 15","tourism":"guest_house","website":"https://www.aiguebonne.com/"}},
{"type":"Feature","geometry":{"type":"Point","coordinates":[3.4398938,44.1828639]},"properties":{"name":"Château d'Ayres","tourism":"hotel"}},
{"type":"Feature","geometry":{"type":"Point","coordinates":[3.4853058,44.0292656]},"properties":{"ele":"1309","mountain_pass":"yes","name":"Col de l'Homme Mort","natural":"saddle"}},
{"type":"Feature","geometry":{"type":"Point","coordinates":[3.3984137,44.0199754]},"properties":{"historic":"ruins","name":"Le Ranc","source":"cadastre-dgi-fr source : Direction Générale des Impôts - Cadastre ; mise à jour : 2010"}},
{"type":"Feature","geometry":{"type":"Point","coordinates":[3.4751617,44.1200621]},"properties":{"alt_name":"Résurgence du Bonheur","karst":"yes","name":"Abîme de Bramabiau","natural":"cave_entrance","phone":"+33 4 67 82 60 78","tourism":"attraction","website":"https://www.abime-de-bramabiau.com/","wikipedia":"fr:Abîme de Bramabiau"}},
{"type":"Feature","geometry":{"type":"Point","coordinates":[3.6006362,44.1351093]},"properties":{"mountain_pass":"yes","name":"Col de l'Estrade","natural":"saddle"}},
{"type":"Feature","geometry":{"type":"Point","coordinates":[3.5031242,43.9910052]},"properties":{"leisure":"playground"}},
{"type":"Feature","geometry":{"type":"Point","coordinates":[3.4294807,44.179351]},"properties":{"information":"office","name":"Office de Tourisme de Meyrueis","source":"cadastre-dgi-fr source : Direction Générale des Impôts.Cadastre. Mise à jour : 2011","tourism":"information"}},
{"type":"Feature","geometry":{"type":"Point","coordinates":[3.4285494,44.1796263]},"properties":{"drinking_water":"yes","drinking_water:legal":"yes","natural":"spring","source":"cadastre-dgi-fr source : Direction Générale des Impôts.Cadastre. Mise à jour : 2011"}},
{"type":"Feature","geometry":{"type":"Point","coordinates":[3.4284466,44.1780422]},"properties":{"historic":"memorial","memorial":"war_memorial","source":"cadastre-dgi-fr source : Direction Générale des Impôts.Cadastre. Mise à jour : 2011"}},
{"type":"Feature","geometry":{"type":"Point","coordinates":[3.427415,44.179108]},"properties":{"historic":"wayside_cross"}},
{"type":"Feature","geometry":{"type":"Point","coordinates":[3.4274107,44.1793255]},"properties":{"historic":"wayside_cross"}},
{"type":"Feature","geometry":{"type":"Point","coordinates":[3.4222449,44.1814144]},"properties":{"historic":"wayside_cross"}},
{"type":"Feature","geometry":{"type":"Point","coordinates":[3.4305933,44.1899346]},"properties":{"tourism":"viewpoint"}},
{"type":"Feature","geometry":{"type":"Point","coordinates":[3.5755013,44.0030852]},"properties":{"ele":"510","mountain_pass":"yes","name":"Col de Carnieu","natural":"saddle"}},
{"type":"Feature","geometry":{"type":"Point","coordinates":[3.5146386,44.2044333]},"properties":{"ele":"1031","mountain_pass":"yes","name":"Col de Perjuret","natural":"saddle","wikidata":"Q2982093","wikipedia":"fr:Col de Perjuret"}},
{"type":"Feature","geometry":{"type":"Point","coordinates":[3.4948721,44.0356567]},"properties":{"name":"Col des Pises","natural":"saddle"}},
{"type":"Feature","geometry":{"type":"Point","coordinates":[3.5183537,44.0281968]},"properties":{"mountain_pass":"yes","name":"Col des Portes","natural":"saddle"}},
{"type":"Feature","geometry":{"type":"Point","coordinates":[3.5268609,44.1662559]},"properties":{"mountain_pass":"yes","name":"Col del Bès","natural":"saddle"}},
{"type":"Feature","geometry":{"type":"Point","coordinates":[3.454297,44.0225541]},"properties":{"ele":"1366","name":"Saint-Guiral","natural":"peak","wikidata":"Q3437610","wikipedia":"fr:Rocher de Saint-Guiral"}},
{"type":"Feature","geometry":{"type":"Point","coordinates":[3.5354088,44.0008547]},"properties":{"ele":"737","mountain_pass":"yes","name":"Col de Mouzoules","natural":"saddle"}},
{"type":"Feature","geometry":{"type":"Point","coordinates":[3.5471158,44.0893167]},"properties":{"caravans":"yes","drinking_water":"yes","name":"Camping de l'Espérou","power_supply":"no","shower":"yes","source":"survey","tents":"yes","toilets":"yes","tourism":"camp_site","website":"https://www.tourismegard.com/fr/fiche/hotellerie-plein-air/aire-naturelle-de-camping-de-l-esperou-l-esperou_TFO6016812/"}},
{"type":"Feature","geometry":{"type":"Point","coordinates":[3.5401582,44.0975666]},"properties":{"ele":"1329","mountain_pass":"yes","name":"Col de l'Espérou","natural":"saddle"}},
{"type":"Feature","geometry":{"type":"Point","coordinates":[3.5705179,44.0657619]},"properties":{"ele":"1305","mountain_pass":"yes","name":"Col de Montals","natural":"saddle"}},
{"type":"Feature","geometry":{"type":"Point","coordinates":[3.5466336,44.0929451]},"properties":{"name":"Hôtel du Touring et de l'Observatoire","stars":"2","tourism":"hotel"}},
{"type":"Feature","geometry":{"type":"Point","coordinates":[3.6092327,44.0084031]},"properties":{"ele":"537","mountain_pass":"yes","name":"Col des Mourèzes","natural":"saddle"}},
{"type":"Feature","geometry":{"type":"Point","coordinates":[3.3875942,44.0772297]},"properties":{"barrier":"block","bicycle":"yes","foot":"yes","motorcar":"no"}},
{"type":"Feature","geometry":{"type":"Point","coordinates":[3.3865647,44.0783914]},"properties":{"tourism":"picnic_site"}},
{"type":"Feature","geometry":{"type":"Point","coordinates":[3.3923523,44.1051752]},"properties":{"information":"guidepost","name":"La Pousounyère","tourism":"information"}},
{"type":"Feature","geometry":{"type":"Point","coordinates":[3.4019611,44.1106101]},"properties":{"information":"guidepost","tourism":"information"}},
{"type":"Feature","geometry":{"type":"Point","coordinates":[3.4018419,44.1118728]},"properties":{"information":"guidepost","tourism":"information"}},
{"type":"Feature","geometry":{"type":"Point","coordinates":[3.3919734,44.1234536]},"properties":{"information":"guidepost","name":"Le Roube","tourism":"information"}},
{"type":"Feature","geometry":{"type":"Point","coordinates":[3.3886709,44.08189]},"properties":{"information":"guidepost","name":"Roc du Regard","tourism":"information"}},
{"type":"Feature","geometry":{"type":"Point","coordinates":[3.3893098,44.0766056]},"properties":{"ele":"556","information":"guidepost","name":"Trèves","tourism":"information"}},
{"type":"Feature","geometry":{"type":"Point","coordinates":[3.3947111,44.0928941]},"properties":{"information":"guidepost","name":"Le Puech","tourism":"information"}},
{"type":"Feature","geometry":{"type":"Point","coordinates":[3.3939563,44.0996586]},"properties":{"information":"guidepost","name":"Mare d'Espinassous","tourism":"information"}},
{"type":"Feature","geometry":{"type":"Point","coordinates":[3.409873,44.1013176]},"properties":{"information":"guidepost","name":"Comeiras","tourism":"information"}},
{"type":"Feature","geometry":{"type":"Point","coordinates":[3.4024084,44.0835473]},"properties":{"information":"guidepost","name":"Canayère","tourism":"information"}},
{"type":"Feature","geometry":{"type":"Point","coordinates":[3.3960299,44.0791414]},"properties":{"information":"guidepost","name":"Réservoir du Villaret","tourism":"information"}},
{"type":"Feature","geometry":{"type":"Point","coordinates":[3.4007498,44.0792627]},"properties":{"information":"guidepost","name":"Valat d'Espruniers","tourism":"information"}},
{"type":"Feature","geometry":{"type":"Point","coordinates":[3.3909662,44.0768702]},"properties":{"ele":"584","information":"guidepost","name":"La Vierge","tourism":"information"}},
{"type":"Feature","geometry":{"type":"Point","coordinates":[3.3927167,44.0786491]},"properties":{"information":"guidepost","name":"Villaret","tourism":"information"}},
{"type":"Feature","geometry":{"type":"Point","coordinates":[3.3966519,44.190562]},"properties":{"natural":"spring"}},
{"type":"Feature","geometry":{"type":"Point","coordinates":[3.4166534,44.159131]},"properties":{"tourism":"camp_site"}},
{"type":"Feature","geometry":{"type":"Point","coordinates":[3.4233302,44.1874245]},"properties":{"information":"guidepost","tourism":"information"}},
{"type":"Feature","geometry":{"type":"Point","coordinates":[3.5173504,44.1904372]},"properties":{"archaeological_site":"megalith","historic":"archaeological_site","megalith_type":"menhir"}},
{"type":"Feature","geometry":{"type":"Point","coordinates":[3.491063,44.2154654]},"properties":{"archaeological_site":"megalith","historic":"archaeological_site","megalith_type":"dolmen"}},
{"type":"Feature","geometry":{"type":"Point","coordinates":[3.4461182,44.0648296]},"properties":{"information":"guidepost","name":"Dourbies","tourism":"information"}},
{"type":"Feature","geometry":{"type":"Point","coordinates":[3.4164981,43.9866125]},"properties":{"natural":"peak"}},
{"type":"Feature","geometry":{"type":"Point","coordinates":[3.6034943,43.9900697]},"properties":{"artist_name":"Galli","historic":"memorial","inscription":"1914-1918 – Aux Enfants du Vigan Morts pour la Patrie","memorial":"war_memorial","name":"Monument aux morts","start_date":"1922-09-22"}},
{"type":"Feature","geometry":{"type":"Point","coordinates":[3.6072141,43.9889674]},"properties":{"addr:city":"Le Vigan","addr:housenumber":"1","addr:postcode":"30120","addr:street":"Rue des Calquières","email":"service.musee-cevenol@levigan.fr","museum":"local","name":"Musée Cévenol","opening_hours":"Apr-Jun,Sep-Oct We-Su 10:00-12:00,14:00-18:00; Jul-Aug We-Su 10:00-13:00,15:00-18:30; May 01 off","phone":"+33 4 67 81 06 86","ref:FR:museofile":"M0452","source":"Ministère de la Culture - Muséofile - 09/2019","tourism":"museum","website":"https://museecevenol-levigan.jimdofree.com","wikimedia_commons":"File:Musée cévenol.jpg"}},
{"type":"Feature","geometry":{"type":"Point","coordinates":[3.5484062,44.0740484]},"properties":{"information":"guidepost","tourism":"information"}},
{"type":"Feature","geometry":{"type":"Point","coordinates":[3.5641674,44.0769149]},"properties":{"leisure":"picnic_table","tourism":"picnic_site"}},
{"type":"Feature","geometry":{"type":"Point","coordinates":[3.5634321,44.0840241]},"properties":{"leisure":"picnic_table","tourism":"picnic_site"}},
{"type":"Feature","geometry":{"type":"Point","coordinates":[3.5628215,44.0851635]},"properties":{"leisure":"picnic_table","tourism":"picnic_site"}},
{"type":"Feature","geometry":{"type":"Point","coordinates":[3.5475826,44.0677984]},"properties":{"leisure":"picnic_table","tourism":"picnic_site"}},
{"type":"Feature","geometry":{"type":"Point","coordinates":[3.5464791,44.0684033]},"properties":{"leisure":"picnic_table","tourism":"picnic_site"}},
{"type":"Feature","geometry":{"type":"Point","coordinates":[3.5618584,44.0775551]},"properties":{"leisure":"picnic_table","tourism":"picnic_site"}},
{"type":"Feature","geometry":{"type":"Point","coordinates":[3.4671573,44.1124343]},"properties":{"information":"guidepost","name":"La Clédette","tourism":"information"}},
{"type":"Feature","geometry":{"type":"Point","coordinates":[3.4749692,44.1147199]},"properties":{"information":"guidepost","name":"La Croix Basse","tourism":"information"}},
{"type":"Feature","geometry":{"type":"Point","coordinates":[3.4716507,44.1138671]},"properties":{"information":"guidepost","name":"La Croix Haute","tourism":"information"}},
{"type":"Feature","geometry":{"type":"Point","coordinates":[3.4472687,44.1155372]},"properties":{"information":"guidepost","tourism":"information"}},
{"type":"Feature","geometry":{"type":"Point","coordinates":[3.4699097,44.0701102]},"properties":{"name":"Le Mas Bresson","place":"isolated_dwelling","tourism":"guest_house"}},
{"type":"Feature","geometry":{"type":"Point","coordinates":[3.5067042,44.1121208]},"properties":{"information":"board","name":"La Baraque Neuve","tourism":"information"}},
{"type":"Feature","geometry":{"type":"Point","coordinates":[3.491162,44.1156547]},"properties":{"ele":"1111","hiking":"yes","information":"guidepost","name":"Pont du Bonheur","tourism":"information"}},
{"type":"Feature","geometry":{"type":"Point","coordinates":[3.6051398,43.9885192]},"properties":{"entrance":"yes"}},
{"type":"Feature","geometry":{"type":"Point","coordinates":[3.4287675,44.1784058]},"properties":{"name":"Hôtel Le Sully","source":"survey","tourism":"hotel"}},
{"type":"Feature","geometry":{"type":"Point","coordinates":[3.5368196,43.9994724]},"properties":{"date":"1942-04-19","historic":"memorial","memorial":"stele","name":"À la mémoire des Huguenots"}},
{"type":"Feature","geometry":{"type":"Point","coordinates":[3.5040062,43.9906794]},"properties":{"information":"map","map_size":"city","map_type":"street","name":"Aumessas","tourism":"information"}},
{"type":"Feature","geometry":{"type":"Point","coordinates":[3.5023554,43.9932927]},"properties":{"hiking":"yes","information":"guidepost","name":"Cascades - Sentier botanique","tourism":"information"}},
{"type":"Feature","geometry":{"type":"Point","coordinates":[3.5039844,43.9906672]},"properties":{"board_type":"geography","information":"board","name":"Commune d'Aumessas","tourism":"information"}},
{"type":"Feature","geometry":{"type":"Point","coordinates":[3.5040402,43.9906481]},"properties":{"board_type":"hiking","information":"board","name":"Départ de sentiers de découverte du Pays Viganais","tourism":"information"}},
{"type":"Feature","geometry":{"type":"Point","coordinates":[3.5366462,43.9993983]},"properties":{"ele":"737","hiking":"yes","information":"guidepost","name":"Le Col de Mouzoules","tourism":"information"}},
{"type":"Feature","geometry":{"type":"Point","coordinates":[3.5131389,44.0016135]},"properties":{"ele":"715","hiking":"yes","information":"guidepost","name":"Le Travers","tourism":"information"}},
{"type":"Feature","geometry":{"type":"Point","coordinates":[3.5297722,44.0012142]},"properties":{"information":"guidepost","name":"Mas du Caladon - Le Travers","tourism":"information"}},
{"type":"Feature","geometry":{"type":"Point","coordinates":[3.5036639,43.9913958]},"properties":{"historic":"memorial","name":"Monument aux morts"}},
{"type":"Feature","geometry":{"type":"Point","coordinates":[3.5179937,44.0030125]},"properties":{"hiking":"yes","information":"guidepost","name":"PR","tourism":"information"}},
{"type":"Feature","geometry":{"type":"Point","coordinates":[3.516037,43.9866929]},"properties":{"name":"Rocher du Comte","natural":"rock"}},
{"type":"Feature","geometry":{"type":"Point","coordinates":[3.5146456,43.9867126]},"properties":{"ele":"650","hiking":"yes","information":"guidepost","name":"Rocher du Comte","tourism":"information"}},
{"type":"Feature","geometry":{"type":"Point","coordinates":[3.4982112,44.005271]},"properties":{"hiking":"yes","information":"guidepost","name":"Sentier de Montlouvier","tourism":"information"}},
{"type":"Feature","geometry":{"type":"Point","coordinates":[3.5048822,44.0069804]},"properties":{"hiking":"yes","information":"guidepost","name":"Sentier de Montlouvier","tourism":"information"}},
{"type":"Feature","geometry":{"type":"Point","coordinates":[3.5045097,43.9896184]},"properties":{"board_type":"history","information":"board","name":"Viaduc d'Aumessas","tourism":"information"}},
{"type":"Feature","geometry":{"type":"Point","coordinates":[3.5039714,43.9905862]},"properties":{"leisure":"picnic_table"}},
{"type":"Feature","geometry":{"type":"Point","coordinates":[3.5039243,43.9906672]},"properties":{"leisure":"picnic_table"}},
{"type":"Feature","geometry":{"type":"Point","coordinates":[3.50394,43.9906829]},"properties":{"leisure":"picnic_table"}},
{"type":"Feature","geometry":{"type":"Point","coordinates":[3.5039061,43.9909746]},"properties":{"leisure":"picnic_table"}},
{"type":"Feature","geometry":{"type":"Point","coordinates":[3.5369484,43.9985428]},"properties":{"archaeological_site":"megalith","height":"2","historic":"archaeological_site","megalith_type":"menhir","name":"Menhir du Col de Mouzoules B","name:t4t35.fr":"MHCO05","ref:megalithic.co.uk":"6334907","ref:t4t35.fr":"12555"}},
{"type":"Feature","geometry":{"type":"Point","coordinates":[3.53672,43.9988588]},"properties":{"archaeological_site":"megalith","height":"2","historic":"archaeological_site","megalith_type":"menhir","name":"Menhir du Col de Mouzoules","name:t4t35.fr":"MSCOLD","ref:megalithic.co.uk":"6334906","ref:t4t35.fr":"9858"}},
{"type":"Feature","geometry":{"type":"Point","coordinates":[3.500943,44.0054224]},"properties":{"tourism":"viewpoint"}},
{"type":"Feature","geometry":{"type":"Point","coordinates":[3.5622593,43.9907491]},"properties":{"ele":"485","information":"guidepost","name":"La Bernadelle","tourism":"information"}},
{"type":"Feature","geometry":{"type":"Point","coordinates":[3.5767963,43.9852469]},"properties":{"ele":"301","information":"guidepost","name":"Bréau - Les Vignes","tourism":"information"}},
{"type":"Feature","geometry":{"type":"Point","coordinates":[3.4821327,44.1075265]},"properties":{"email":"terondel@wanadoo.fr","name":"Camping Le Térondel","phone":"+33 4 67 82 61 89","stars":"2","tourism":"camp_site","website":"https://www.camping-cevennes-terondel.com/"}},
{"type":"Feature","geometry":{"type":"Point","coordinates":[3.6088211,44.1839994]},"properties":{"ele":"1000","mountain_pass":"yes","name":"Col du Marquaires","natural":"saddle"}},
{"type":"Feature","geometry":{"type":"Point","coordinates":[3.6064768,44.1906878]},"properties":{"natural":"spring"}},
{"type":"Feature","geometry":{"type":"Point","coordinates":[3.6048133,43.9862019]},"properties":{"light_source":"floodlight"}},
{"type":"Feature","geometry":{"type":"Point","coordinates":[3.6046142,43.9862243]},"properties":{"light_source":"floodlight"}},
{"type":"Feature","geometry":{"type":"Point","coordinates":[3.6048385,43.986315]},"properties":{"light_source":"floodlight"}},
{"type":"Feature","geometry":{"type":"Point","coordinates":[3.6046423,43.9863433]},"properties":{"light_source":"floodlight"}},
{"type":"Feature","geometry":{"type":"Point","coordinates":[3.6048992,43.9865069]},"properties":{"light_source":"floodlight"}},
{"type":"Feature","geometry":{"type":"Point","coordinates":[3.6046835,43.986537]},"properties":{"light_source":"floodlight"}},
{"type":"Feature","geometry":{"type":"Point","coordinates":[3.6049223,43.9866325]},"properties":{"light_source":"floodlight"}},
{"type":"Feature","geometry":{"type":"Point","coordinates":[3.6047069,43.9866562]},"properties":{"light_source":"floodlight"}},
{"type":"Feature","geometry":{"type":"Point","coordinates":[3.4300389,44.1956987]},"properties":{"ele":"1075.97","name":"Serre de Pauparelle","natural":"peak","wikidata":"Q31682980"}},
{"type":"Feature","geometry":{"type":"Point","coordinates":[3.518486,44.0986103]},"properties":{"ele":"1275","fixme":"continue","name":"Serre de Saint-Flour","natural":"peak"}},
{"type":"Feature","geometry":{"type":"Point","coordinates":[3.5323739,44.1011462]},"properties":{"ele":"1286","mountain_pass":"yes","name":"Col de la Pierre Plantée","natural":"saddle"}},
{"type":"Feature","geometry":{"type":"Point","coordinates":[3.5412462,44.1029567]},"properties":{"historic":"wayside_cross"}},
{"type":"Feature","geometry":{"type":"Point","coordinates":[3.5412833,44.1031175]},"properties":{"tourism":"picnic_site"}},
{"type":"Feature","geometry":{"type":"Point","coordinates":[3.5413112,44.1031294]},"properties":{"board_type":"history","check_date":"2023-08-10","information":"board","tourism":"information"}},
{"type":"Feature","geometry":{"type":"Point","coordinates":[3.5413992,44.1031667]},"properties":{"tourism":"picnic_site"}},
{"type":"Feature","geometry":{"type":"Point","coordinates":[3.5722884,44.123425]},"properties":{"natural":"spring"}},
{"type":"Feature","geometry":{"type":"Point","coordinates":[3.5834009,44.1977209]},"properties":{"natural":"peak"}},
{"type":"Feature","geometry":{"type":"Point","coordinates":[3.5908574,44.206355]},"properties":{"leisure":"picnic_table"}},
{"type":"Feature","geometry":{"type":"Point","coordinates":[3.3846029,44.130331]},"properties":{"artwork_type":"mural","tourism":"artwork"}},
{"type":"Feature","geometry":{"type":"Point","coordinates":[3.5476587,44.0923629]},"properties":{"name":"Hôtel du Parc","stars":"2","tourism":"hotel"}},
{"type":"Feature","geometry":{"type":"Point","coordinates":[3.5470838,44.0927982]},"properties":{"entrance":"main"}},
{"type":"Feature","geometry":{"type":"Point","coordinates":[3.4028763,44.0887695]},"properties":{"name":"Grotte de Baume Layrou","natural":"cave_entrance"}},
{"type":"Feature","geometry":{"type":"Point","coordinates":[3.4794712,44.1211625]},"properties":{"direction_northwest":"Aiguebonne 9 km;Saint-Sauveur 4 km;125","direction_south":"PR","hiking":"yes","information":"guidepost","mtb":"yes","tourism":"information"}},
{"type":"Feature","geometry":{"type":"Point","coordinates":[3.6087055,44.2018984]},"properties":{"name":"Peyre Agude","natural":"peak"}},
{"type":"Feature","geometry":{"type":"Point","coordinates":[3.4571716,44.1970673]},"properties":{"name":"Ferme découverte Mille Pattes","tourism":"attraction"}},
{"type":"Feature","geometry":{"type":"Point","coordinates":[3.4042493,44.0910036]},"properties":{"alt_name":"Grotte de la Cabane du Trévezel","name":"Grotte des Cabanes du Trévezel","natural":"cave_entrance"}},
{"type":"Feature","geometry":{"type":"Point","coordinates":[3.3973029,44.0981339]},"properties":{"heritage":"1","heritage:operator":"whc","historic":"cave_entrance","historic:description:fr":"Cave aménagée dans une cavité rocheuse naturelle et destinée à l'affinage du fromage","historic:fr":"Cave bâtarde","name":"Cave d'Espinassous","natural":"cave_entrance","project":"Pap12","ref:whc":"1153"}},
{"type":"Feature","geometry":{"type":"Point","coordinates":[3.4006481,44.0815524]},"properties":{"name":"Baume St Firmin (entrée inférieure fortifiée)","natural":"cave_entrance"}},
{"type":"Feature","geometry":{"type":"Point","coordinates":[3.5464447,44.1052612]},"properties":{"direction":"145","name":"Belvédère de la Serreyrède","tourism":"viewpoint"}},
{"type":"Feature","geometry":{"type":"Point","coordinates":[3.5734864,44.0906031]},"properties":{"tourism":"viewpoint"}},
{"type":"Feature","geometry":{"type":"Point","coordinates":[3.5648325,44.0922482]},"properties":{"leisure":"picnic_table"}},
{"type":"Feature","geometry":{"type":"Point","coordinates":[3.5645547,44.0923215]},"properties":{"drinking_water":"yes","name":"Source de Trois Fontaines","natural":"spring"}},
{"type":"Feature","geometry":{"type":"Point","coordinates":[3.5560536,44.0988361]},"properties":{"tourism":"viewpoint"}},
{"type":"Feature","geometry":{"type":"Point","coordinates":[3.5471085,44.111385]},"properties":{"historic":"memorial","memorial":"plaque","name":"Georg Fabre"}},
{"type":"Feature","geometry":{"type":"Point","coordinates":[3.5800695,44.1213872]},"properties":{"ele":"1554","hiking":"yes","information":"guidepost","name":"Mont Aigoual Parking","tourism":"information"}},
{"type":"Feature","geometry":{"type":"Point","coordinates":[3.5821562,44.121082]},"properties":{"ele":"1554","hiking":"yes","information":"guidepost","name":"Mont Aigoual Station Meteo","tourism":"information"}},
{"type":"Feature","geometry":{"type":"Point","coordinates":[3.5775046,44.1212587]},"properties":{"denomination":"catholic","historic":"wayside_cross","material":"stone","religion":"christian"}},
{"type":"Feature","geometry":{"type":"Point","coordinates":[3.4769291,44.1156852]},"properties":{"ele":"1107","hiking":"yes","information":"guidepost","name":"Mairie","tourism":"information"}},
{"type":"Feature","geometry":{"type":"Point","coordinates":[3.4751347,44.1146655]},"properties":{"denomination":"catholic","historic":"wayside_cross","religion":"christian"}},
{"type":"Feature","geometry":{"type":"Point","coordinates":[3.3894707,44.0759435]},"properties":{"denomination":"catholic","historic":"wayside_cross","religion":"christian"}},
{"type":"Feature","geometry":{"type":"Point","coordinates":[3.3887224,44.0785179]},"properties":{"denomination":"catholic","historic":"wayside_cross","religion":"christian"}},
{"type":"Feature","geometry":{"type":"Point","coordinates":[3.4796989,44.1223157]},"properties":{"historic":"memorial","memorial":"stone","name":"EA Martel"}},
{"type":"Feature","geometry":{"type":"Point","coordinates":[3.4781633,44.1176656]},"properties":{"name":"Perte du Bonheur","natural":"sinkhole","sinkhole":"ponor"}},
{"type":"Feature","geometry":{"type":"Point","coordinates":[3.4784637,44.1178389]},"properties":{"karst":"yes","natural":"spring"}},
{"type":"Feature","geometry":{"type":"Point","coordinates":[3.4803372,44.1189182]},"properties":{"ele":"1098","hiking":"yes","information":"guidepost","name":"Perte du Bonheur","tourism":"information"}},
{"type":"Feature","geometry":{"type":"Point","coordinates":[3.4796331,44.1223205]},"properties":{"covered":"no","leisure":"picnic_table"}},
{"type":"Feature","geometry":{"type":"Point","coordinates":[3.4797619,44.1223292]},"properties":{"covered":"no","leisure":"picnic_table"}},
{"type":"Feature","geometry":{"type":"Point","coordinates":[3.4755994,44.1138788]},"properties":{"ele":"1107","hiking":"yes","information":"guidepost","name":"Camprieu Parking","tourism":"information"}},
{"type":"Feature","geometry":{"type":"Point","coordinates":[3.4786571,44.1145672]},"properties":{"denomination":"catholic","historic":"wayside_cross","religion":"christian"}},
{"type":"Feature","geometry":{"type":"Point","coordinates":[3.4156984,44.1995214]},"properties":{"denomination":"catholic","historic":"wayside_cross","name":"Croix de la Croisette","religion":"christian"}},
{"type":"Feature","geometry":{"type":"Point","coordinates":[3.4154087,44.1998089]},"properties":{"ele":"979","information":"guidepost","tourism":"information"}},
{"type":"Feature","geometry":{"type":"Point","coordinates":[3.3883198,44.2158736]},"properties":{"archaeological_site":"megalith","historic":"archaeological_site","megalith_type":"menhir"}},
{"type":"Feature","geometry":{"type":"Point","coordinates":[3.5470612,44.0923574]},"properties":{"tourism":"artwork"}},
{"type":"Feature","geometry":{"type":"Point","coordinates":[3.4307982,44.1747084]},"properties":{"tourism":"picnic_site"}},
{"type":"Feature","geometry":{"type":"Point","coordinates":[3.605904,44.0604072]},"properties":{"denomination":"catholic","historic":"wayside_cross","name":"Tombe d'André Chamson","religion":"christian"}},
{"type":"Feature","geometry":{"type":"Point","coordinates":[3.5841238,44.1140777]},"properties":{"name":"L’Hort de Dieu","tourism":"viewpoint"}},
{"type":"Feature","geometry":{"type":"Point","coordinates":[3.3812399,44.2161573]},"properties":{"name":"Aven de la Barelle","natural":"cave_entrance"}},
{"type":"Feature","geometry":{"type":"Point","coordinates":[3.5287837,44.121289]},"properties":{"ele":"1455","hiking":"yes","information":"guidepost","name":"Col de la Caumette","tourism":"information"}},
{"type":"Feature","geometry":{"type":"Point","coordinates":[3.5352449,44.1085723]},"properties":{"ele":"1339","hiking":"yes","information":"guidepost","name":"L'Escoutadou","tourism":"information"}},
{"type":"Feature","geometry":{"type":"Point","coordinates":[3.5435188,44.1089249]},"properties":{"ele":"1384","hiking":"yes","information":"guidepost","name":"Le Fangas","tourism":"information"}},
{"type":"Feature","geometry":{"type":"Point","coordinates":[3.5347251,44.1212368]},"properties":{"ele":"1451","hiking":"yes","information":"guidepost","name":"Les Fayards","tourism":"information"}},
{"type":"Feature","geometry":{"type":"Point","coordinates":[3.5512077,44.1166738]},"properties":{"ele":"1409","hiking":"yes","information":"guidepost","name":"Prat Peyrot","tourism":"information"}},
{"type":"Feature","geometry":{"type":"Point","coordinates":[3.5411913,44.1031174]},"properties":{"amenity":"parking"}},
{"type":"Feature","geometry":{"type":"Point","coordinates":[3.3834282,44.1615976]},"properties":{"archaeological_site":"megalith","historic":"archaeological_site","megalith_type":"dolmen","name":"Dolmen de Gras"}},
{"type":"Feature","geometry":{"type":"Point","coordinates":[3.438829,44.1623613]},"properties":{"genus":"Sequoia","height":"45","leaf_type":"needleleaved","name":"Sequoia","natural":"tree","start_date":"1876"}},
{"type":"Feature","geometry":{"type":"Point","coordinates":[3.4369589,44.1792523]},"properties":{"highway":"steps"}},
{"type":"Feature","geometry":{"type":"Point","coordinates":[3.5727453,44.1122234]},"properties":{"ele":"1371","name":"Point sublime","tourism":"viewpoint"}},
{"type":"Feature","geometry":{"type":"Point","coordinates":[3.5543076,44.0896598]},"properties":{"information":"guidepost","tourism":"information"}},
{"type":"Feature","geometry":{"type":"Point","coordinates":[3.3819334,44.2015891]},"properties":{"name":"Grotte de Nabrigas 1","natural":"cave_entrance"}},
{"type":"Feature","geometry":{"type":"Point","coordinates":[3.5444255,44.093679]},"properties":{"name":"Gite d'etape La Grande Draille","tourism":"hostel"}},
{"type":"Feature","geometry":{"type":"Point","coordinates":[3.5334697,44.0965179]},"properties":{"ele":"1291","information":"guidepost","name":"Bois de Miquel","tourism":"information"}},
{"type":"Feature","geometry":{"type":"Point","coordinates":[3.5232398,44.0928944]},"properties":{"ele":"1294","information":"guidepost","name":"La Pépinière","tourism":"information"}},
{"type":"Feature","geometry":{"type":"Point","coordinates":[3.537996,44.0956713]},"properties":{"ele":"1329","information":"guidepost","name":"Montlau","tourism":"information"}},
{"type":"Feature","geometry":{"type":"Point","coordinates":[3.5395986,44.0967264]},"properties":{"ele":"1326","information":"guidepost","name":"Col de l'Espérou","tourism":"information"}},
{"type":"Feature","geometry":{"type":"Point","coordinates":[3.5400452,44.0976023]},"properties":{"ele":"1328","information":"guidepost","name":"Serre de Favatel","tourism":"information"}},
{"type":"Feature","geometry":{"type":"Point","coordinates":[3.5380992,44.1014595]},"properties":{"ele":"1321","information":"guidepost","name":"Le Trévezel","tourism":"information"}},
{"type":"Feature","geometry":{"type":"Point","coordinates":[3.540361,44.1029125]},"properties":{"ele":"1294","information":"guidepost","name":"Col de la Serreyrède","tourism":"information"}},
{"type":"Feature","geometry":{"type":"Point","coordinates":[3.54099,44.1029599]},"properties":{"ele":"1294","information":"guidepost","name":"Col de la Serreyrède","tourism":"information"}},
{"type":"Feature","geometry":{"type":"Point","coordinates":[3.5415499,44.103311]},"properties":{"ele":"1294","information":"guidepost","name":"Col de la Serreyrède","tourism":"information"}},
{"type":"Feature","geometry":{"type":"Point","coordinates":[3.541346,44.1036952]},"properties":{"ele":"1301","information":"guidepost","name":"Col de la Serreyrède","tourism":"information"}},
{"type":"Feature","geometry":{"type":"Point","coordinates":[3.5410242,44.1033919]},"properties":{"ele":"1294","hiking":"yes","information":"guidepost","name":"Col de la Serreyrède","tourism":"information"}},
{"type":"Feature","geometry":{"type":"Point","coordinates":[3.3893989,44.076617]},"properties":{"tourism":"picnic_site"}},
{"type":"Feature","geometry":{"type":"Point","coordinates":[3.3893318,44.0766267]},"properties":{"board_type":"notice","check_date":"2023-08-07","description":"Randonnées: Sentier du Pas de l'Ane - Sentier de Canayère","information":"board","tourism":"information"}},
{"type":"Feature","geometry":{"type":"Point","coordinates":[3.3906783,44.0765053]},"properties":{"historic":"wayside_shrine"}},
{"type":"Feature","geometry":{"type":"Point","coordinates":[3.4040424,44.0750639]},"properties":{"ele":"896","information":"guidepost","name":"Mamorel","tourism":"information"}},
{"type":"Feature","geometry":{"type":"Point","coordinates":[3.5919962,44.0679469]},"properties":{"ele":"1351","mountain_pass":"yes","name":"Col de la Lusette","natural":"saddle","wikipedia":"fr:Col de la Lusette"}},
{"type":"Feature","geometry":{"type":"Point","coordinates":[3.3774106,44.1357215]},"properties":{"name":"Aven des Lavandes","natural":"cave_entrance"}},
{"type":"Feature","geometry":{"type":"Point","coordinates":[3.5714137,43.9888327]},"properties":{"leisure":"park","name":"Les chataigners"}},
{"type":"Feature","geometry":{"type":"Point","coordinates":[3.3777075,44.1968718]},"properties":{"tourism":"viewpoint"}},
{"type":"Feature","geometry":{"type":"Point","coordinates":[3.3777676,44.1964614]},"properties":{"tourism":"picnic_site"}},
{"type":"Feature","geometry":{"type":"Point","coordinates":[3.4285706,44.1783374]},"properties":{"name":"Hôtel Restaurant Sauveur","stars":"3","tourism":"hotel"}},
{"type":"Feature","geometry":{"type":"Point","coordinates":[3.4164497,44.2114707]},"properties":{"archaeological_site":"megalith","historic":"archaeological_site","megalith_type":"menhir"}},
{"type":"Feature","geometry":{"type":"Point","coordinates":[3.5965302,44.186381]},"properties":{"genus":"Sequoiadendron","leaf_cycle":"evergreen","leaf_type":"needleleaved","natural":"tree","species":"Sequoiadendron giganteum","species:fr":"Séquoia géant"}},
{"type":"Feature","geometry":{"type":"Point","coordinates":[3.5903546,44.2010583]},"properties":{"description":"Via Ferrata de Rousses","natural":"cliff","sport":"via_ferrata","via_ferrata":"start"}},
{"type":"Feature","geometry":{"type":"Point","coordinates":[3.3892805,44.0768271]},"properties":{"historic":"memorial","memorial":"war_memorial"}},
{"type":"Feature","geometry":{"type":"Point","coordinates":[3.3778501,44.2012946]},"properties":{"alt_name":"Bauma de la Vinha","name":"Grotte de la Vigne","natural":"cave_entrance"}},
{"type":"Feature","geometry":{"type":"Point","coordinates":[3.5871567,44.1195099]},"properties":{"archaeological_site":"megalith","historic":"archaeological_site","megalith_type":"menhir","name":"Menhir de Trépaloud"}},
{"type":"Feature","geometry":{"type":"Point","coordinates":[3.3876468,44.1540487]},"properties":{"name":"Aven Pernette","natural":"cave_entrance"}},
{"type":"Feature","geometry":{"type":"Point","coordinates":[3.5807916,43.9863876]},"properties":{"name":"Grotte de Montaran","natural":"cave_entrance"}},
{"type":"Feature","geometry":{"type":"Point","coordinates":[3.6082651,44.0494813]},"properties":{"capacity":"27","description":"2021-03 : Cap de Coste accueille bergers et randonneurs depuis sa restauration au début des années 1970, de Pâques à la Toussaint. 2 dortoirs de 12 et 15 p. 1 douche, 2 lavabos et 2 WC Electricité solaire et eau de source.","ele":"1189","email":"reservation@capdecoste.fr","mobile":"+33 6 68 89 73 24","name":"Gîte d'étape Cap de Coste","phone":"+33 4 67 81 94 47","tourism":"hostel","website":"https://capdecoste.fr/"}},
{"type":"Feature","geometry":{"type":"Point","coordinates":[3.4325087,44.205312]},"properties":{"leisure":"horse_riding","name":"Les Écuries du Méjean"}},
{"type":"Feature","geometry":{"type":"Point","coordinates":[3.6073816,44.0658308]},"properties":{"name":"Pic de Barette","tourism":"viewpoint"}},
{"type":"Feature","geometry":{"type":"Point","coordinates":[3.5811618,44.1215448]},"properties":{"board_type":"history","check_date":"2023-08-08","direction":"320","information":"board","tourism":"information"}},
{"type":"Feature","geometry":{"type":"Point","coordinates":[3.4590656,44.2042767]},"properties":{"board_type":"wildlife","information":"board","name":"Gypaète barbu","tourism":"information"}},
{"type":"Feature","geometry":{"type":"Point","coordinates":[3.4381316,44.179684]},"properties":{"natural":"tree"}},
{"type":"Feature","geometry":{"type":"Point","coordinates":[3.4382979,44.1797164]},"properties":{"natural":"tree"}},
{"type":"Feature","geometry":{"type":"Point","coordinates":[3.4384198,44.1796754]},"properties":{"natural":"tree"}},
{"type":"Feature","geometry":{"type":"Point","coordinates":[3.4384343,44.1795904]},"properties":{"natural":"tree"}},
{"type":"Feature","geometry":{"type":"Point","coordinates":[3.4384446,44.1793892]},"properties":{"natural":"tree"}},
{"type":"Feature","geometry":{"type":"Point","coordinates":[3.4383038,44.17944]},"properties":{"natural":"tree"}},
{"type":"Feature","geometry":{"type":"Point","coordinates":[3.4384428,44.1792901]},"properties":{"natural":"tree"}},
{"type":"Feature","geometry":{"type":"Point","coordinates":[3.4384463,44.1792216]},"properties":{"natural":"tree"}},
{"type":"Feature","geometry":{"type":"Point","coordinates":[3.4385179,44.1791788]},"properties":{"natural":"tree"}},
{"type":"Feature","geometry":{"type":"Point","coordinates":[3.4386603,44.179536]},"properties":{"natural":"tree"}},
{"type":"Feature","geometry":{"type":"Point","coordinates":[3.4385818,44.179506]},"properties":{"natural":"tree"}},
{"type":"Feature","geometry":{"type":"Point","coordinates":[3.4352143,44.1806853]},"properties":{"leisure":"picnic_table"}},
{"type":"Feature","geometry":{"type":"Point","coordinates":[3.458578,44.2039291]},"properties":{"direction":"160","name":"Le Cayla","tourism":"viewpoint"}},
{"type":"Feature","geometry":{"type":"Point","coordinates":[3.4345618,44.1792803]},"properties":{"natural":"tree"}},
{"type":"Feature","geometry":{"type":"Point","coordinates":[3.4349556,44.179045]},"properties":{"natural":"tree"}},
{"type":"Feature","geometry":{"type":"Point","coordinates":[3.4350431,44.1792462]},"properties":{"natural":"tree"}},
{"type":"Feature","geometry":{"type":"Point","coordinates":[3.4343919,44.1791391]},"properties":{"natural":"tree"}},
{"type":"Feature","geometry":{"type":"Point","coordinates":[3.4347252,44.1796318]},"properties":{"natural":"tree"}},
{"type":"Feature","geometry":{"type":"Point","coordinates":[3.434562,44.1797604]},"properties":{"natural":"tree"}},
{"type":"Feature","geometry":{"type":"Point","coordinates":[3.434852,44.1798158]},"properties":{"natural":"tree"}},
{"type":"Feature","geometry":{"type":"Point","coordinates":[3.435021,44.1797217]},"properties":{"natural":"tree"}},
{"type":"Feature","geometry":{"type":"Point","coordinates":[3.4348797,44.1800206]},"properties":{"natural":"tree"}},
{"type":"Feature","geometry":{"type":"Point","coordinates":[3.4355587,44.179844]},"properties":{"natural":"tree"}},
{"type":"Feature","geometry":{"type":"Point","coordinates":[3.4354815,44.1796496]},"properties":{"natural":"tree"}},
{"type":"Feature","geometry":{"type":"Point","coordinates":[3.4354086,44.1794855]},"properties":{"natural":"tree"}},
{"type":"Feature","geometry":{"type":"Point","coordinates":[3.435123,44.1794197]},"properties":{"natural":"tree"}},
{"type":"Feature","geometry":{"type":"Point","coordinates":[3.4353023,44.1792995]},"properties":{"natural":"tree"}},
{"type":"Feature","geometry":{"type":"Point","coordinates":[3.4354975,44.1791731]},"properties":{"natural":"tree"}},
{"type":"Feature","geometry":{"type":"Point","coordinates":[3.436044,44.178823]},"properties":{"natural":"tree"}},
{"type":"Feature","geometry":{"type":"Point","coordinates":[3.4363281,44.1788616]},"properties":{"natural":"tree"}},
{"type":"Feature","geometry":{"type":"Point","coordinates":[3.4354902,44.1786808]},"properties":{"natural":"tree"}},
{"type":"Feature","geometry":{"type":"Point","coordinates":[3.4358283,44.1789494]},"properties":{"natural":"tree"}},
{"type":"Feature","geometry":{"type":"Point","coordinates":[3.4356738,44.1785795]},"properties":{"natural":"tree"}},
{"type":"Feature","geometry":{"type":"Point","coordinates":[3.4359755,44.1786098]},"properties":{"natural":"tree"}},
{"type":"Feature","geometry":{"type":"Point","coordinates":[3.4358443,44.1784311]},"properties":{"natural":"tree"}},
{"type":"Feature","geometry":{"type":"Point","coordinates":[3.4362261,44.1786997]},"properties":{"natural":"tree"}},
{"type":"Feature","geometry":{"type":"Point","coordinates":[3.4365132,44.1787415]},"properties":{"natural":"tree"}},
{"type":"Feature","geometry":{"type":"Point","coordinates":[3.4373951,44.1781447]},"properties":{"natural":"tree"}},
{"type":"Feature","geometry":{"type":"Point","coordinates":[3.4371698999999999,44.1780588]},"properties":{"natural":"tree"}},
{"type":"Feature","geometry":{"type":"Point","coordinates":[3.4370573,44.1779042]},"properties":{"natural":"tree"}},
{"type":"Feature","geometry":{"type":"Point","coordinates":[3.4375508,44.1778458]},"properties":{"natural":"tree"}},
{"type":"Feature","geometry":{"type":"Point","coordinates":[3.4374526,44.17765]},"properties":{"natural":"tree"}},
{"type":"Feature","geometry":{"type":"Point","coordinates":[3.4376538,44.1775572]},"properties":{"natural":"tree"}},
{"type":"Feature","geometry":{"type":"Point","coordinates":[3.4380155,44.1773132]},"properties":{"natural":"tree"}},
{"type":"Feature","geometry":{"type":"Point","coordinates":[3.438727,44.1772892]},"properties":{"natural":"tree"}},
{"type":"Feature","geometry":{"type":"Point","coordinates":[3.4390628,44.1793629]},"properties":{"natural":"tree"}},
{"type":"Feature","geometry":{"type":"Point","coordinates":[3.4391123,44.1792563]},"properties":{"natural":"tree"}},
{"type":"Feature","geometry":{"type":"Point","coordinates":[3.4391385,44.1791853]},"properties":{"natural":"tree"}},
{"type":"Feature","geometry":{"type":"Point","coordinates":[3.4392254,44.1791317]},"properties":{"natural":"tree"}},
{"type":"Feature","geometry":{"type":"Point","coordinates":[3.4393216,44.1790855]},"properties":{"natural":"tree"}},
{"type":"Feature","geometry":{"type":"Point","coordinates":[3.4392244,44.1789676]},"properties":{"natural":"tree"}},
{"type":"Feature","geometry":{"type":"Point","coordinates":[3.4388704,44.1789569]},"properties":{"natural":"tree"}},
{"type":"Feature","geometry":{"type":"Point","coordinates":[3.4387228,44.1789354]},"properties":{"natural":"tree"}},
{"type":"Feature","geometry":{"type":"Point","coordinates":[3.438904,44.1790252]},"properties":{"natural":"tree"}},
{"type":"Feature","geometry":{"type":"Point","coordinates":[3.4388022,44.1790868]},"properties":{"natural":"tree"}},
{"type":"Feature","geometry":{"type":"Point","coordinates":[3.4389395,44.1792155]},"properties":{"natural":"tree"}},
{"type":"Feature","geometry":{"type":"Point","coordinates":[3.4389404,44.1793267]},"properties":{"natural":"tree"}},
{"type":"Feature","geometry":{"type":"Point","coordinates":[3.4388162,44.1795042]},"properties":{"natural":"tree"}},
{"type":"Feature","geometry":{"type":"Point","coordinates":[3.4389535,44.1795665]},"properties":{"natural":"tree"}},
{"type":"Feature","geometry":{"type":"Point","coordinates":[3.4387854,44.1796342]},"properties":{"natural":"tree"}},
{"type":"Feature","geometry":{"type":"Point","coordinates":[3.4398675,44.1788635]},"properties":{"natural":"tree"}},
{"type":"Feature","geometry":{"type":"Point","coordinates":[3.439397,44.1787477]},"properties":{"natural":"tree"}},
{"type":"Feature","geometry":{"type":"Point","coordinates":[3.4386399,44.1787371]},"properties":{"natural":"tree"}},
{"type":"Feature","geometry":{"type":"Point","coordinates":[3.4385021,44.1787032]},"properties":{"natural":"tree"}},
{"type":"Feature","geometry":{"type":"Point","coordinates":[3.4381731,44.1789642]},"properties":{"natural":"tree"}},
{"type":"Feature","geometry":{"type":"Point","coordinates":[3.4382795,44.1789837]},"properties":{"natural":"tree"}},
{"type":"Feature","geometry":{"type":"Point","coordinates":[3.4382181,44.1790309]},"properties":{"natural":"tree"}},
{"type":"Feature","geometry":{"type":"Point","coordinates":[3.4383146,44.1790462]},"properties":{"natural":"tree"}},
{"type":"Feature","geometry":{"type":"Point","coordinates":[3.4383174,44.1791549]},"properties":{"natural":"tree"}},
{"type":"Feature","geometry":{"type":"Point","coordinates":[3.4386111,44.1791585]},"properties":{"natural":"tree"}},
{"type":"Feature","geometry":{"type":"Point","coordinates":[3.4382753,44.1793174]},"properties":{"natural":"tree"}},
{"type":"Feature","geometry":{"type":"Point","coordinates":[3.438068,44.1793004]},"properties":{"natural":"tree"}},
{"type":"Feature","geometry":{"type":"Point","coordinates":[3.4380744,44.1793753]},"properties":{"natural":"tree"}},
{"type":"Feature","geometry":{"type":"Point","coordinates":[3.4379958,44.1796703]},"properties":{"information":"office","internet_access":"wlan","name":"Accueil","tourism":"information"}},
{"type":"Feature","geometry":{"type":"Point","coordinates":[3.4284984,44.178223]},"properties":{"natural":"tree"}},
{"type":"Feature","geometry":{"type":"Point","coordinates":[3.429368,44.1790024]},"properties":{"natural":"tree"}},
{"type":"Feature","geometry":{"type":"Point","coordinates":[3.42948,44.1789687]},"properties":{"natural":"tree"}},
{"type":"Feature","geometry":{"type":"Point","coordinates":[3.4294854,44.1790591]},"properties":{"natural":"tree"}},
{"type":"Feature","geometry":{"type":"Point","coordinates":[3.4295893,44.1791851]},"properties":{"natural":"tree"}},
{"type":"Feature","geometry":{"type":"Point","coordinates":[3.4290971,44.1786258]},"properties":{"natural":"tree"}},
{"type":"Feature","geometry":{"type":"Point","coordinates":[3.429181,44.178723]},"properties":{"natural":"tree"}},
{"type":"Feature","geometry":{"type":"Point","coordinates":[3.4289885,44.1784772]},"properties":{"natural":"tree"}},
{"type":"Feature","geometry":{"type":"Point","coordinates":[3.4285319,44.1780983]},"properties":{"natural":"tree"}},
{"type":"Feature","geometry":{"type":"Point","coordinates":[3.4284534,44.1780079]},"properties":{"natural":"tree"}},
{"type":"Feature","geometry":{"type":"Point","coordinates":[3.4283783,44.1778915]},"properties":{"natural":"tree"}},
{"type":"Feature","geometry":{"type":"Point","coordinates":[3.4525362,44.2046625]},"properties":{"ele":"1060","natural":"peak"}},
{"type":"Feature","geometry":{"type":"Point","coordinates":[3.4625062,44.2052399]},"properties":{"ele":"1090","natural":"peak"}},
{"type":"Feature","geometry":{"type":"Point","coordinates":[3.4332457,44.1915045]},"properties":{"ele":"1016","natural":"peak"}},
{"type":"Feature","geometry":{"type":"Point","coordinates":[3.4387272,44.2007167]},"properties":{"ele":"1009","natural":"peak"}},
{"type":"Feature","geometry":{"type":"Point","coordinates":[3.4388414,44.2009232]},"properties":{"direction":"90","tourism":"viewpoint"}},
{"type":"Feature","geometry":{"type":"Point","coordinates":[3.4864571,44.2152356]},"properties":{"ele":"1131","name":"Puech de Mielgues","natural":"peak"}},
{"type":"Feature","geometry":{"type":"Point","coordinates":[3.4291019,44.1761458]},"properties":{"historic":"wayside_cross"}},
{"type":"Feature","geometry":{"type":"Point","coordinates":[3.4294077,44.1758537]},"properties":{"natural":"tree"}},
{"type":"Feature","geometry":{"type":"Point","coordinates":[3.4295501,44.1758632]},"properties":{"natural":"tree"}},
{"type":"Feature","geometry":{"type":"Point","coordinates":[3.480439,44.1224317]},"properties":{"information":"office","name":"Abîme de Bramabiau","tourism":"information"}},
{"type":"Feature","geometry":{"type":"Point","coordinates":[3.4772194,44.1207184]},"properties":{"natural":"cave_entrance"}},
{"type":"Feature","geometry":{"type":"Point","coordinates":[3.4767624,44.1207436]},"properties":{"natural":"cave_entrance"}},
{"type":"Feature","geometry":{"type":"Point","coordinates":[3.4771665,44.1192288]},"properties":{"access":"private","alt_name":"Regard sur le Bonheur","name":"Sortie de l'abîme de Bramabiau","natural":"cave_entrance"}},
{"type":"Feature","geometry":{"type":"Point","coordinates":[3.4758239,44.1136752]},"properties":{"natural":"tree"}},
{"type":"Feature","geometry":{"type":"Point","coordinates":[3.4758801,44.1136556]},"properties":{"natural":"tree"}},
{"type":"Feature","geometry":{"type":"Point","coordinates":[3.5366551,44.0992985]},"properties":{"waterway":"weir"}},
{"type":"Feature","geometry":{"type":"Point","coordinates":[3.5369752,44.0990697]},"properties":{"board_type":"nature","information":"board","name":"La Tourbière du Trévezel","tourism":"information"}},
{"type":"Feature","geometry":{"type":"Point","coordinates":[3.5431266,44.0995394]},"properties":{"ele":"1347","natural":"peak"}},
{"type":"Feature","geometry":{"type":"Point","coordinates":[3.4378345,44.1796479]},"properties":{"leisure":"amusement_arcade","name":"Salle de jeux"}},
{"type":"Feature","geometry":{"type":"Point","coordinates":[3.4386516,44.1798175]},"properties":{"natural":"tree"}},
{"type":"Feature","geometry":{"type":"Point","coordinates":[3.4386212,44.1798622]},"properties":{"natural":"tree"}},
{"type":"Feature","geometry":{"type":"Point","coordinates":[3.4384057,44.1799101]},"properties":{"natural":"tree"}},
{"type":"Feature","geometry":{"type":"Point","coordinates":[3.4384674,44.1799579]},"properties":{"natural":"tree"}},
{"type":"Feature","geometry":{"type":"Point","coordinates":[3.4385407,44.1799527]},"properties":{"natural":"tree"}},
{"type":"Feature","geometry":{"type":"Point","coordinates":[3.4383408,44.1800321]},"properties":{"natural":"tree"}},
{"type":"Feature","geometry":{"type":"Point","coordinates":[3.4364575,44.1799751]},"properties":{"natural":"tree"}},
{"type":"Feature","geometry":{"type":"Point","coordinates":[3.5477535,44.0543004]},"properties":{"leisure":"picnic_table"}},
{"type":"Feature","geometry":{"type":"Point","coordinates":[3.445214,44.0646952]},"properties":{"tourism":"picnic_site"}},
{"type":"Feature","geometry":{"type":"Point","coordinates":[3.4449961,44.0644941]},"properties":{"access":"yes","leisure":"playground"}},
{"type":"Feature","geometry":{"type":"Point","coordinates":[3.4805883,44.1225943]},"properties":{"tourism":"camp_site"}},
{"type":"Feature","geometry":{"type":"Point","coordinates":[3.4485159,44.1233189]},"properties":{"leisure":"picnic_table"}},
{"type":"Feature","geometry":{"type":"Point","coordinates":[3.429302,44.1561699]},"properties":{"covered":"no","leisure":"picnic_table"}},
{"type":"Feature","geometry":{"type":"Point","coordinates":[3.4379922,44.1619573]},"properties":{"natural":"tree"}},
{"type":"Feature","geometry":{"type":"Point","coordinates":[3.4697016,43.9982607]},"properties":{"ele":"729","information":"guidepost","name":"Le Villaret","tourism":"information"}},
{"type":"Feature","geometry":{"type":"Point","coordinates":[3.4583652,43.9940003]},"properties":{"information":"guidepost","tourism":"information"}},
{"type":"Feature","geometry":{"type":"Point","coordinates":[3.4582056,43.9941604]},"properties":{"ele":"677","information":"guidepost","name":"Coste Gineste","tourism":"information"}},
{"type":"Feature","geometry":{"type":"Point","coordinates":[3.4564823,44.0035492]},"properties":{"leisure":"picnic_table"}},
{"type":"Feature","geometry":{"type":"Point","coordinates":[3.4564528,44.0037479]},"properties":{"ele":"776","information":"guidepost","name":"Les Lauzières","tourism":"information"}},
{"type":"Feature","geometry":{"type":"Point","coordinates":[3.4561738,44.0036832]},"properties":{"ele":"782","information":"guidepost","name":"Les Lauzières","tourism":"information"}},
{"type":"Feature","geometry":{"type":"Point","coordinates":[3.4551345,44.0052778]},"properties":{"ele":"828","information":"guidepost","name":"La Fabrié","tourism":"information"}},
{"type":"Feature","geometry":{"type":"Point","coordinates":[3.455231,44.007452]},"properties":{"information":"board","tourism":"information"}},
{"type":"Feature","geometry":{"type":"Point","coordinates":[3.4563576,44.0076401]},"properties":{"ele":"861","information":"guidepost","name":"Chemin des Cascades","tourism":"information"}},
{"type":"Feature","geometry":{"type":"Point","coordinates":[3.4529901,43.990194]},"properties":{"ele":"652","information":"guidepost","name":"Nabairial","tourism":"information"}},
{"type":"Feature","geometry":{"type":"Point","coordinates":[3.5982043,44.1189037]},"properties":{"name":"Cap de Brion","natural":"peak"}},
{"type":"Feature","geometry":{"type":"Point","coordinates":[3.5829156,44.1214243]},"properties":{"artwork_type":"sculpture","tourism":"artwork"}},
{"type":"Feature","geometry":{"type":"Point","coordinates":[3.4766941,44.0133434]},"properties":{"tourism":"viewpoint"}},
{"type":"Feature","geometry":{"type":"Point","coordinates":[3.4767598,44.0133973]},"properties":{"natural":"rock"}},
{"type":"Feature","geometry":{"type":"Point","coordinates":[3.579867,44.0549858]},"properties":{"ele":"1232","information":"guidepost","name":"Cascades d'Orgon","tourism":"information"}},
{"type":"Feature","geometry":{"type":"Point","coordinates":[3.6077981,44.0492891]},"properties":{"ele":"1183","information":"guidepost","name":"Cap de Côte","tourism":"information"}},
{"type":"Feature","geometry":{"type":"Point","coordinates":[3.6081327,44.0497475]},"properties":{"ele":"1189","information":"guidepost","name":"Cap de Côte","tourism":"information"}},
{"type":"Feature","geometry":{"type":"Point","coordinates":[3.6058864,44.0604541]},"properties":{"ele":"1291","hiking":"yes","information":"guidepost","name":"Monument André Chamson","tourism":"information"}},
{"type":"Feature","geometry":{"type":"Point","coordinates":[3.606002,44.0604253]},"properties":{"tourism":"viewpoint"}},
{"type":"Feature","geometry":{"type":"Point","coordinates":[3.6067038,44.0633698]},"properties":{"ele":"1276","hiking":"yes","information":"guidepost","name":"Sous Chamson","tourism":"information"}},
{"type":"Feature","geometry":{"type":"Point","coordinates":[3.6043233,44.0590484]},"properties":{"ele":"1276","hiking":"yes","information":"guidepost","name":"La Draille","tourism":"information"}},
{"type":"Feature","geometry":{"type":"Point","coordinates":[3.6037241,44.0593078]},"properties":{"ele":"1284","information":"guidepost","name":"La Draille","tourism":"information"}},
{"type":"Feature","geometry":{"type":"Point","coordinates":[3.5894782,44.0648826]},"properties":{"ele":"1326","information":"guidepost","name":"Sous la Luzette","tourism":"information"}},
{"type":"Feature","geometry":{"type":"Point","coordinates":[3.5879244,44.0618532]},"properties":{"ele":"1322","information":"guidepost","name":"Les Abéouradous","tourism":"information"}},
{"type":"Feature","geometry":{"type":"Point","coordinates":[3.6012172,44.0629841]},"properties":{"ele":"1295","information":"guidepost","name":"Abri des Abeuradous","tourism":"information"}},
{"type":"Feature","geometry":{"type":"Point","coordinates":[3.607409,44.0653911]},"properties":{"ele":"1303","information":"guidepost","name":"Pic de Barette","tourism":"information"}},
{"type":"Feature","geometry":{"type":"Point","coordinates":[3.578803,44.055561]},"properties":{"leisure":"picnic_table","material":"wood"}},
{"type":"Feature","geometry":{"type":"Point","coordinates":[3.5705946,44.0658089]},"properties":{"ele":"1308","information":"guidepost","name":"Col de Montals","tourism":"information"}},
{"type":"Feature","geometry":{"type":"Point","coordinates":[3.5666608,44.0203787]},"properties":{"ele":"925","name":"Belvédère de la Cravate","note":"Décalage pour coller au cadastre","tourism":"viewpoint"}},
{"type":"Feature","geometry":{"type":"Point","coordinates":[3.6067421,43.9930351]},"properties":{"ele":"240","information":"guidepost","name":"Le Vigan","tourism":"information"}},
{"type":"Feature","geometry":{"type":"Point","coordinates":[3.3886653,44.2035758]},"properties":{"natural":"spring"}},
{"type":"Feature","geometry":{"type":"Point","coordinates":[3.3836436,44.0570468]},"properties":{"historic":"ruins"}},
{"type":"Feature","geometry":{"type":"Point","coordinates":[3.456753,44.0018536]},"properties":{"access":"yes","fee":"no","garden:type":"arboretum","leisure":"garden","name":"Arboretum de Cazebonne","wikidata":"Q4784818","wikipedia":"en:Arboretum de Cazebonne"}},
{"type":"Feature","geometry":{"type":"Point","coordinates":[3.5365221,44.0612275]},"properties":{"historic":"memorial","name":"Monument Huntziger","source":"locale","subject:wikipedia":"fr:Charles Huntziger"}},
{"type":"Feature","geometry":{"type":"Point","coordinates":[3.5786349,44.1210664]},"properties":{"name":"Archéosmart","tourism":"artwork"}},
{"type":"Feature","geometry":{"type":"Point","coordinates":[3.5807696,44.1228976]},"properties":{"name":"Temps fugit","tourism":"artwork"}},
{"type":"Feature","geometry":{"type":"Point","coordinates":[3.5673853,44.1203693]},"properties":{"name":"Les nids","tourism":"artwork"}},
{"type":"Feature","geometry":{"type":"Point","coordinates":[3.5688827,44.1185847]},"properties":{"name":"Tout là-haut","tourism":"artwork"}},
{"type":"Feature","geometry":{"type":"Point","coordinates":[3.5702388,44.1170412]},"properties":{"name":"Coupe-feu","tourism":"artwork"}},
{"type":"Feature","geometry":{"type":"Point","coordinates":[3.581138,44.1201484]},"properties":{"description":"Marie-Hélène Richard","name":"Assise","tourism":"artwork"}},
{"type":"Feature","geometry":{"type":"Point","coordinates":[3.5858533,44.1192611]},"properties":{"description":"Aurélien dupuis (2019)","name":"Équilibre precairn","tourism":"artwork"}},
{"type":"Feature","geometry":{"type":"Point","coordinates":[3.5867495,44.120094]},"properties":{"description":"Fabrice Pressigout (2018)","name":"Couché dans l'herbe","tourism":"artwork"}},
{"type":"Feature","geometry":{"type":"Point","coordinates":[3.4122823,44.0653612]},"properties":{"leisure":"picnic_table"}},
{"type":"Feature","geometry":{"type":"Point","coordinates":[3.5472456,44.0540638]},"properties":{"historic":"memorial","memorial":"war_memorial","name":"Mémorial Huntziger","source":"locale","subject":"Charles Huntziger","subject:wikidata":"Q704264"}},
{"type":"Feature","geometry":{"type":"Point","coordinates":[3.5411315,44.0665894]},"properties":{"leisure":"picnic_table"}},
{"type":"Feature","geometry":{"type":"Point","coordinates":[3.4275652,44.1795374]},"properties":{"historic":"memorial","name":"Mémorial Ėdouard-Alfred Martel"}},
{"type":"Feature","geometry":{"type":"Point","coordinates":[3.3992216,44.1177048]},"properties":{"name":"Aven de Montjardin","natural":"cave_entrance"}},
{"type":"Feature","geometry":{"type":"Point","coordinates":[3.5330299,44.2158458]},"properties":{"historic":"memorial","memorial":"stele","name":"Stèle Roger Rivière"}},
{"type":"Feature","geometry":{"type":"Point","coordinates":[3.5721418,43.9890641]},"properties":{"beds":"8","fixme":"vérifier emplacement exact","name":"Gîte d'étape communal de Bréau","phone":"+33 6 81 16 85 71","ref:refuges.info":"6084","tourism":"guest_house","website":"https://www.breau-mars.fr/Gite-d-etape-communal_a987.html"}},
{"type":"Feature","geometry":{"type":"Point","coordinates":[3.6069254,43.9915416]},"properties":{"leaf_cycle":"deciduous","leaf_type":"broadleaved","natural":"tree"}},
{"type":"Feature","geometry":{"type":"Point","coordinates":[3.6070336,43.991505]},"properties":{"leaf_cycle":"deciduous","leaf_type":"broadleaved","natural":"tree"}},
{"type":"Feature","geometry":{"type":"Point","coordinates":[3.6068936,43.9914793]},"properties":{"leaf_cycle":"deciduous","leaf_type":"broadleaved","natural":"tree"}},
{"type":"Feature","geometry":{"type":"Point","coordinates":[3.6070005,43.9914308]},"properties":{"leaf_cycle":"deciduous","leaf_type":"broadleaved","natural":"tree"}},
{"type":"Feature","geometry":{"type":"Point","coordinates":[3.6069674,43.9913695]},"properties":{"leaf_cycle":"deciduous","leaf_type":"broadleaved","natural":"tree"}},
{"type":"Feature","geometry":{"type":"Point","coordinates":[3.6068567,43.9914134]},"properties":{"leaf_cycle":"deciduous","leaf_type":"broadleaved","natural":"tree"}},
{"type":"Feature","geometry":{"type":"Point","coordinates":[3.6068071,43.9913594]},"properties":{"leaf_cycle":"deciduous","leaf_type":"broadleaved","natural":"tree"}},
{"type":"Feature","geometry":{"type":"Point","coordinates":[3.6069203,43.9913118]},"properties":{"leaf_cycle":"deciduous","leaf_type":"broadleaved","natural":"tree"}},
{"type":"Feature","geometry":{"type":"Point","coordinates":[3.6068758,43.9912514]},"properties":{"leaf_cycle":"deciduous","leaf_type":"broadleaved","natural":"tree"}},
{"type":"Feature","geometry":{"type":"Point","coordinates":[3.6067511,43.991299]},"properties":{"leaf_cycle":"deciduous","leaf_type":"broadleaved","natural":"tree"}},
{"type":"Feature","geometry":{"type":"Point","coordinates":[3.6067027,43.991245]},"properties":{"leaf_cycle":"deciduous","leaf_type":"broadleaved","natural":"tree"}},
{"type":"Feature","geometry":{"type":"Point","coordinates":[3.6068083,43.9911946]},"properties":{"leaf_cycle":"deciduous","leaf_type":"broadleaved","natural":"tree"}},
{"type":"Feature","geometry":{"type":"Point","coordinates":[3.6067485,43.9911305]},"properties":{"leaf_cycle":"deciduous","leaf_type":"broadleaved","natural":"tree"}},
{"type":"Feature","geometry":{"type":"Point","coordinates":[3.6066416,43.9911845]},"properties":{"leaf_cycle":"deciduous","leaf_type":"broadleaved","natural":"tree"}},
{"type":"Feature","geometry":{"type":"Point","coordinates":[3.6065818,43.9911351]},"properties":{"leaf_cycle":"deciduous","leaf_type":"broadleaved","natural":"tree"}},
{"type":"Feature","geometry":{"type":"Point","coordinates":[3.6066416,43.9910628]},"properties":{"leaf_cycle":"deciduous","leaf_type":"broadleaved","natural":"tree"}},
{"type":"Feature","geometry":{"type":"Point","coordinates":[3.6065131,43.9910802]},"properties":{"leaf_cycle":"deciduous","leaf_type":"broadleaved","natural":"tree"}},
{"type":"Feature","geometry":{"type":"Point","coordinates":[3.6064609,43.9910426]},"properties":{"leaf_cycle":"deciduous","leaf_type":"broadleaved","natural":"tree"}},
{"type":"Feature","geometry":{"type":"Point","coordinates":[3.6065322,43.9909913]},"properties":{"leaf_cycle":"deciduous","leaf_type":"broadleaved","natural":"tree"}},
{"type":"Feature","geometry":{"type":"Point","coordinates":[3.6064126,43.9909941]},"properties":{"leaf_cycle":"deciduous","leaf_type":"broadleaved","natural":"tree"}},
{"type":"Feature","geometry":{"type":"Point","coordinates":[3.6064533,43.9909474]},"properties":{"leaf_cycle":"deciduous","leaf_type":"broadleaved","natural":"tree"}},
{"type":"Feature","geometry":{"type":"Point","coordinates":[3.6060563,43.990789]},"properties":{"leaf_cycle":"deciduous","leaf_type":"broadleaved","natural":"tree"}},
{"type":"Feature","geometry":{"type":"Point","coordinates":[3.606139,43.9908119]},"properties":{"leaf_cycle":"deciduous","leaf_type":"broadleaved","natural":"tree"}},
{"type":"Feature","geometry":{"type":"Point","coordinates":[3.6062204,43.9908384]},"properties":{"leaf_cycle":"deciduous","leaf_type":"broadleaved","natural":"tree"}},
{"type":"Feature","geometry":{"type":"Point","coordinates":[3.6063019,43.990876]},"properties":{"leaf_cycle":"deciduous","leaf_type":"broadleaved","natural":"tree"}},
{"type":"Feature","geometry":{"type":"Point","coordinates":[3.6063718,43.9909025]},"properties":{"leaf_cycle":"deciduous","leaf_type":"broadleaved","natural":"tree"}},
{"type":"Feature","geometry":{"type":"Point","coordinates":[3.6057254,43.990832]},"properties":{"leaf_cycle":"deciduous","leaf_type":"broadleaved","natural":"tree"}},
{"type":"Feature","geometry":{"type":"Point","coordinates":[3.6057254,43.9907222]},"properties":{"leaf_cycle":"deciduous","leaf_type":"broadleaved","natural":"tree"}},
{"type":"Feature","geometry":{"type":"Point","coordinates":[3.6058552,43.9908302]},"properties":{"leaf_cycle":"deciduous","leaf_type":"broadleaved","natural":"tree"}},
{"type":"Feature","geometry":{"type":"Point","coordinates":[3.6058565,43.9907084]},"properties":{"leaf_cycle":"deciduous","leaf_type":"broadleaved","natural":"tree"}},
{"type":"Feature","geometry":{"type":"Point","coordinates":[3.6032931,43.9876664]},"properties":{"historic":"wayside_cross"}},
{"type":"Feature","geometry":{"type":"Point","coordinates":[3.603436,43.9910167]},"properties":{"historic":"wayside_cross"}},
{"type":"Feature","geometry":{"type":"Point","coordinates":[3.6068366,43.9884071]},"properties":{"direction":"40","tourism":"viewpoint"}},
{"type":"Feature","geometry":{"type":"Point","coordinates":[3.6061857,43.991952]},"properties":{"entrance":"yes"}},
{"type":"Feature","geometry":{"type":"Point","coordinates":[3.6082533,43.9921905]},"properties":{"artwork_type":"bust","inscription":"Hôtel de la Condamine (XVIIe - XIXe siècles) - siège du subdèlégué de l'intendant du Languedoc en Cévennes – Lieu de naissance du Père Emmanuel d’Alzon (1810 – 1880) – Vicaire général de Nîmes, fondateur des Augustins et des Oblates de l’Assomption","material":"metal","name":"Emmanuel d'Alzon","subject:wikidata":"Q2271989","subject:wikipedia":"fr:Emmanuel d'Alzon","tourism":"artwork"}},
{"type":"Feature","geometry":{"type":"Point","coordinates":[3.6060366,43.9908073]},"properties":{"historic":"memorial","inscription":"10 août 1944 - Ici fut mortellement blessé le chef Marceau commandant Marcel Bonnafoux du maquis Aigoual Cévennes. Il fut le premier partout même à la mort","name":"Hommage aux résistants","subject:wikidata":"Q20899949","subject:wikipedia":"fr:Marcel Bonnafoux"}},
{"type":"Feature","geometry":{"type":"Point","coordinates":[3.6070037,43.9919746]},"properties":{"artist_name":"Jacques-Édouard Gatteaux","artwork_type":"statue","material":"bronze","name":"Statue du chevalier d'Assas","start_date":"1825","subject:wikidata":"Q2754761","subject:wikipedia":"fr:Louis d'Assas","tourism":"artwork"}},
{"type":"Feature","geometry":{"type":"Point","coordinates":[3.6062839,43.9926465]},"properties":{"artist_name":"Léopold Morice","artwork_type":"statue","name":"Statue du sergent Pierre Triaire","start_date":"1891","subject:wikidata":"Q3387158","subject:wikipedia":"fr:Pierre Triaire","tourism":"artwork"}},
{"type":"Feature","geometry":{"type":"Point","coordinates":[3.6054803,43.9906272]},"properties":{"historic":"memorial","inscription":"écrivain académicien (1900-1983) – A vécu ici son enfance cévennole chez ses grands parents Aldebert","material":"stone","memorial":"plaque","name":"André Chamson","subject:wikidata":"Q517743","subject:wikipedia":"fr:André Chamson"}},
{"type":"Feature","geometry":{"type":"Point","coordinates":[3.6064838,43.9924184]},"properties":{"historic":"memorial","inscription":"Maison natale du Sergent Triaire, Artilleur de Bonaparte (1771-1799)","memorial":"plaque","name":"Sergent Triaire"}},
{"type":"Feature","geometry":{"type":"Point","coordinates":[3.6054351,43.9909254]},"properties":{"historic":"memorial","inscription":"En hommage au viganais François-Louis Aguze (1754-1821), Républicain de 1792, dirigeant républicain pour l’arrondissement du Vigan","memorial":"plaque","name":"François-Louis Aguze"}},
{"type":"Feature","geometry":{"type":"Point","coordinates":[3.6045161,43.9909531]},"properties":{"artist_name":"Christian Zenere","artwork_type":"statue","material":"stone","name":"Statue de Coluche","start_date":"1987","tourism":"artwork"}},
{"type":"Feature","geometry":{"type":"Point","coordinates":[3.6063331,43.9903947]},"properties":{"barrier":"gate"}},
{"type":"Feature","geometry":{"type":"Point","coordinates":[3.6058944,43.9900985]},"properties":{"leaf_cycle":"deciduous","leaf_type":"broadleaved","natural":"tree"}},
{"type":"Feature","geometry":{"type":"Point","coordinates":[3.6060341,43.9900526]},"properties":{"leaf_cycle":"deciduous","leaf_type":"broadleaved","natural":"tree"}},
{"type":"Feature","geometry":{"type":"Point","coordinates":[3.6055496,43.9901324]},"properties":{"leaf_cycle":"deciduous","leaf_type":"broadleaved","natural":"tree"}},
{"type":"Feature","geometry":{"type":"Point","coordinates":[3.6056651,43.9898035]},"properties":{"leaf_cycle":"deciduous","leaf_type":"broadleaved","natural":"tree"}},
{"type":"Feature","geometry":{"type":"Point","coordinates":[3.6055162,43.9898254]},"properties":{"leaf_cycle":"deciduous","leaf_type":"broadleaved","natural":"tree"}},
{"type":"Feature","geometry":{"type":"Point","coordinates":[3.6054312,43.9898767]},"properties":{"leaf_cycle":"deciduous","leaf_type":"broadleaved","natural":"tree"}},
{"type":"Feature","geometry":{"type":"Point","coordinates":[3.6055697,43.9896741]},"properties":{"leaf_cycle":"deciduous","leaf_type":"broadleaved","natural":"tree"}},
{"type":"Feature","geometry":{"type":"Point","coordinates":[3.5865912,44.0006039]},"properties":{"historic":"wayside_cross"}},
{"type":"Feature","geometry":{"type":"Point","coordinates":[3.5862367,44.0012145]},"properties":{"historic":"memorial","material":"stone","memorial":"war_memorial","name":"Monument aux morts"}},
{"type":"Feature","geometry":{"type":"Point","coordinates":[3.5896934,43.9974555]},"properties":{"historic":"memorial","inscription":"A la Mémoire des Trois Prédicants Martyrs : A. Roussel, F. Benezet, E. Teissier","material":"stone","name":"Monument des Prédicants","start_date":"1929"}},
{"type":"Feature","geometry":{"type":"Point","coordinates":[3.5882466,44.0036534]},"properties":{"historic":"wayside_cross"}},
{"type":"Feature","geometry":{"type":"Point","coordinates":[3.5639958,44.0011025]},"properties":{"historic":"wayside_cross"}},
{"type":"Feature","geometry":{"type":"Point","coordinates":[3.5791927,43.9901826]},"properties":{"historic":"wayside_cross"}},
{"type":"Feature","geometry":{"type":"Point","coordinates":[3.3770314,44.1830445]},"properties":{"alt_name":"Dargilan","archaeological_site":"megalith","historic":"archaeological_site","historic:civilization":"prehistoric","historic:era":"neolithic","historic:period":"stone-age","megalith_type":"menhir","name":"Menhir dit la Pierre des Trois Evèques","ref:megalithic.co.uk":"6335072","ref:t4t35.fr":"6551"}},
{"type":"Feature","geometry":{"type":"Point","coordinates":[3.4532918,44.0224262]},"properties":{"archaeological_site":"megalith","historic":"archaeological_site","historic:civilization":"prehistoric","historic:era":"neolithic","historic:period":"stone-age","megalith_type":"menhir","name":"Menhir des Pellerins","ref:megalithic.co.uk":"6334814","ref:t4t35.fr":"9874"}},
{"type":"Feature","geometry":{"type":"Point","coordinates":[3.4437376,44.0028248]},"properties":{"archaeological_site":"megalith","historic":"archaeological_site","historic:civilization":"prehistoric","historic:era":"neolithic","historic:period":"stone-age","megalith_type":"menhir","name":"Menhir de Peyrelade","ref:megalithic.co.uk":"6334815","ref:t4t35.fr":"9872","wikidata":"Q89803668"}},
{"type":"Feature","geometry":{"type":"Point","coordinates":[3.5038599,44.0396731]},"properties":{"ele":"1285","information":"guidepost","name":"Observatoire astronomique des Pises","tourism":"information"}},
{"type":"Feature","geometry":{"type":"Point","coordinates":[3.5688856,44.132871]},"properties":{"ele":"1565","name":"Le Portalet","natural":"peak","source":"knowledge"}},
{"type":"Feature","geometry":{"type":"Point","coordinates":[3.5899745,44.1184146]},"properties":{"ele":"1536","natural":"peak","source":"BD Ortho IGN"}},
{"type":"Feature","geometry":{"type":"Point","coordinates":[3.5704138,44.0656232]},"properties":{"bench":"yes","leisure":"picnic_table","lit":"no","material":"wood"}},
{"type":"Feature","geometry":{"type":"Point","coordinates":[3.570491,44.0659353]},"properties":{"bench":"yes","leisure":"picnic_table","lit":"no","material":"wood"}},
{"type":"Feature","geometry":{"type":"Point","coordinates":[3.3763969,43.9897004]},"properties":{"historic":"memorial","name":"Croix des Prisonniers"}},
{"type":"Feature","geometry":{"type":"Point","coordinates":[3.4733038,43.9973857]},"properties":{"disused":"yes","historic":"mine"}},
{"type":"Feature","geometry":{"type":"Point","coordinates":[3.4746636,43.9971252]},"properties":{"disused":"yes","historic":"mine"}},
{"type":"Feature","geometry":{"type":"Point","coordinates":[3.4762193,43.9970615]},"properties":{"disused":"yes","historic":"mine"}},
{"type":"Feature","geometry":{"type":"Point","coordinates":[3.5779542,44.1162329]},"properties":{"board_type":"nature","information":"board","name":"Hort de Dieu","tourism":"information"}},
{"type":"Feature","geometry":{"type":"Point","coordinates":[3.5814384,44.1161087]},"properties":{"genus":"Sequoia","natural":"tree","species":"giganteum","start_date":"1903","taxon":"Sequoia giganteum"}},
{"type":"Feature","geometry":{"type":"Point","coordinates":[3.5816181,44.1160798]},"properties":{"genus":"Sequoia","natural":"tree","species":"giganteum","start_date":"1903","taxon":"Sequoia giganteum"}},
{"type":"Feature","geometry":{"type":"Point","coordinates":[3.5821612,44.1167461]},"properties":{"historic":"memorial","memorial":"stele","name":"Stèle des Botanistes"}},
{"type":"Feature","geometry":{"type":"Point","coordinates":[3.4657064,43.9900611]},"properties":{"tourism":"viewpoint"}},
{"type":"Feature","geometry":{"type":"Point","coordinates":[3.6051831,44.0590414]},"properties":{"information":"map","name":"Sur les traces du mouflon","tourism":"information"}},
{"type":"Feature","geometry":{"type":"Point","coordinates":[3.4094783,44.199066]},"properties":{"archaeological_site":"megalith","historic":"archaeological_site","megalith_type":"menhir","name":"Menhirs de la Garde"}},
{"type":"Feature","geometry":{"type":"Point","coordinates":[3.4095832,44.1990326]},"properties":{"archaeological_site":"megalith","historic":"archaeological_site","megalith_type":"menhir","name":"Menhirs de la Garde"}},
{"type":"Feature","geometry":{"type":"Point","coordinates":[3.4090731,44.1991851]},"properties":{"archaeological_site":"megalith","historic":"archaeological_site","megalith_type":"menhir","name":"Menhirs de la Garde"}},
{"type":"Feature","geometry":{"type":"Point","coordinates":[3.5921806,44.1198901]},"properties":{"direction":"S-E","tourism":"viewpoint"}},
{"type":"Feature","geometry":{"type":"Point","coordinates":[3.5558958,44.1631186]},"properties":{"capacity":"8","description":"2021-05 : la partie refuge gardé est fermée depuis plusieurs années. Reste en accès libre, toute l'année, le bâtiment annexe de refuge non gardé.","ele":"1163","fireplace":"yes","name":"Refuge des Drailles","ref:refuges.info":"7550","stove":"no","tourism":"wilderness_hut"}},
{"type":"Feature","geometry":{"type":"Point","coordinates":[3.6040877,43.9893436]},"properties":{"addr:city":"Le Vigan","addr:housenumber":"26","addr:postcode":"30120","addr:street":"Rue des Barris","internet_access":"wlan","name":"Les Glycines","phone":"+33 4 67 81 03 28","rooms":"5","tourism":"guest_house"}},
{"type":"Feature","geometry":{"type":"Point","coordinates":[3.3995511,44.0640724]},"properties":{"ele":"927","name":"Col des Rhodes","natural":"saddle"}},
{"type":"Feature","geometry":{"type":"Point","coordinates":[3.4249543,44.1824915]},"properties":{"name":"Camping La Pègue","tourism":"camp_site"}},
{"type":"Feature","geometry":{"type":"Point","coordinates":[3.4159246,44.191311]},"properties":{"leisure":"pitch","name":"Les Bouillières","sport":"climbing"}},
{"type":"Feature","geometry":{"type":"Point","coordinates":[3.4247062,44.1878962]},"properties":{"leisure":"pitch","name":"Chaos de Pauparelle","sport":"climbing"}},
{"type":"Feature","geometry":{"type":"Point","coordinates":[3.3953655,44.1688919]},"properties":{"archaeological_site":"megalith","historic":"archaeological_site","megalith_type":"dolmen","name":"Dolmen de Travès"}},
{"type":"Feature","geometry":{"type":"Point","coordinates":[3.4011064,44.1871618]},"properties":{"archaeological_site":"megalith","historic":"archaeological_site","megalith_type":"dolmen","name":"Dolmen du Mont-Domergue"}},
{"type":"Feature","geometry":{"type":"Point","coordinates":[3.3842054,44.1308967]},"properties":{"historic":"memorial","memorial":"war_memorial"}},
{"type":"Feature","geometry":{"type":"Point","coordinates":[3.4669402,43.9959625]},"properties":{"historic":"mine"}},
{"type":"Feature","geometry":{"type":"Point","coordinates":[3.6027927,44.0128563]},"properties":{"ele":"687","name":"Puech Loubier","natural":"peak","source":"IGN - 2021-09"}},
{"type":"Feature","geometry":{"type":"Point","coordinates":[3.5771217,44.1214491]},"properties":{"historic":"memorial","memorial":"stele"}},
{"type":"Feature","geometry":{"type":"Point","coordinates":[3.579531,44.1195456]},"properties":{"information":"map","map_type":"toposcope","tourism":"information"}},
{"type":"Feature","geometry":{"type":"Point","coordinates":[3.4673771,44.1780057]},"properties":{"historic":"mine"}},
{"type":"Feature","geometry":{"type":"Point","coordinates":[3.4669417,44.1784319]},"properties":{"historic":"mine"}},
{"type":"Feature","geometry":{"type":"Point","coordinates":[3.5896245,44.0527675]},"properties":{"historic":"mine"}},
{"type":"Feature","geometry":{"type":"Point","coordinates":[3.5879541,44.2059831]},"properties":{"historic":"memorial","memorial":"war_memorial"}},
{"type":"Feature","geometry":{"type":"Point","coordinates":[3.5847187,44.2064003]},"properties":{"name":"Les Ruches Cévenoles","tourism":"chalet"}},
{"type":"Feature","geometry":{"type":"Point","coordinates":[3.46506,44.2046477]},"properties":{"historic":"archaeological_site","name":"Cap Barré protohistorique"}},
{"type":"Feature","geometry":{"type":"Point","coordinates":[3.4098823,44.1988912]},"properties":{"archaeological_site":"megalith","historic":"archaeological_site","megalith_type":"menhir","name":"Menhirs de la Garde"}},
{"type":"Feature","geometry":{"type":"Point","coordinates":[3.4080449,44.1992205]},"properties":{"archaeological_site":"megalith","historic":"archaeological_site","megalith_type":"menhir","name":"Menhirs de la Garde"}},
{"type":"Feature","geometry":{"type":"Point","coordinates":[3.480067,44.1239482]},"properties":{"historic":"wayside_cross"}},
{"type":"Feature","geometry":{"type":"Point","coordinates":[3.455903,44.1632491]},"properties":{"historic":"mine"}},
{"type":"Feature","geometry":{"type":"Point","coordinates":[3.453509,44.1629547]},"properties":{"historic":"mine"}},
{"type":"Feature","geometry":{"type":"Point","coordinates":[3.4543471,44.1630834]},"properties":{"historic":"mine"}},
{"type":"Feature","geometry":{"type":"Point","coordinates":[3.5366058,44.1034336]},"properties":{"historic":"mine"}},
{"type":"Feature","geometry":{"type":"Point","coordinates":[3.5324261,44.1010308]},"properties":{"archaeological_site":"megalith","historic":"archaeological_site","megalith_type":"menhir"}},
{"type":"Feature","geometry":{"type":"Point","coordinates":[3.4823319,44.1084958]},"properties":{"name":"Résidence de vacances Le Pont du Moulin","tourism":"hostel"}},
{"type":"Feature","geometry":{"type":"Point","coordinates":[3.3806115,44.2017549]},"properties":{"name":"Arcade de Nabrigas","natural":"cave_entrance"}},
{"type":"Feature","geometry":{"type":"Point","coordinates":[3.3835685,44.2016364]},"properties":{"name":"Grotte de Nabrigas 2","natural":"cave_entrance"}},
{"type":"Feature","geometry":{"type":"Point","coordinates":[3.3822732,44.203923]},"properties":{"natural":"spring"}},
{"type":"Feature","geometry":{"type":"Point","coordinates":[3.6020552,43.9896416]},"properties":{"leisure":"sports_hall","name":"Halle des sports Pierre Durand","sport":"multi"}},
{"type":"Feature","geometry":{"type":"Point","coordinates":[3.6080924,43.9887739]},"properties":{"ele":"240","information":"guidepost","name":"Vieux Pont","tourism":"information"}},
{"type":"Feature","geometry":{"type":"Point","coordinates":[3.6062443,43.9899529]},"properties":{"ele":"221","information":"guidepost","name":"Château d'Assas","tourism":"information"}},
{"type":"Feature","geometry":{"type":"Point","coordinates":[3.600482,43.9941742]},"properties":{"ele":"362","information":"guidepost","name":"Val Dourbie","tourism":"information"}},
{"type":"Feature","geometry":{"type":"Point","coordinates":[3.6091577,44.0083432]},"properties":{"ele":"537","information":"guidepost","name":"Col des Mourèzes","tourism":"information"}},
{"type":"Feature","geometry":{"type":"Point","coordinates":[3.6064362,43.998642]},"properties":{"ele":"348","information":"guidepost","name":"Station de Pompage","tourism":"information"}},
{"type":"Feature","geometry":{"type":"Point","coordinates":[3.6069056,43.9964153]},"properties":{"ele":"266","information":"guidepost","name":"Mas de Régis","tourism":"information"}},
{"type":"Feature","geometry":{"type":"Point","coordinates":[3.5901632,43.9972836]},"properties":{"ele":"387","information":"guidepost","name":"Les Quatre Chemins","tourism":"information"}},
{"type":"Feature","geometry":{"type":"Point","coordinates":[3.607673,43.9883683]},"properties":{"ele":"243","information":"guidepost","name":"Le Haut du Pont","tourism":"information"}},
{"type":"Feature","geometry":{"type":"Point","coordinates":[3.606036,43.9885538]},"properties":{"ele":"217","information":"guidepost","name":"Calquières","tourism":"information"}},
{"type":"Feature","geometry":{"type":"Point","coordinates":[3.377744,44.1968709]},"properties":{"artwork_type":"statue","tourism":"artwork"}},
{"type":"Feature","geometry":{"type":"Point","coordinates":[3.4276233,44.17941]},"properties":{"tourism":"viewpoint"}},
{"type":"Feature","geometry":{"type":"Point","coordinates":[3.4270441,44.1791531]},"properties":{"leisure":"picnic_table"}},
{"type":"Feature","geometry":{"type":"Point","coordinates":[3.4269199,44.179317]},"properties":{"leisure":"picnic_table"}},
{"type":"Feature","geometry":{"type":"Point","coordinates":[3.4763121,44.1240246]},"properties":{"tourism":"viewpoint"}},
{"type":"Feature","geometry":{"type":"Point","coordinates":[3.4937715,44.1143226]},"properties":{"covered":"no","leisure":"picnic_table"}},
{"type":"Feature","geometry":{"type":"Point","coordinates":[3.4939255,44.1142343]},"properties":{"covered":"no","leisure":"picnic_table"}},
{"type":"Feature","geometry":{"type":"Point","coordinates":[3.4916074,44.114745]},"properties":{"leisure":"fishing"}},
{"type":"Feature","geometry":{"type":"Point","coordinates":[3.4917893,44.114641399999999]},"properties":{"leisure":"fishing"}},
{"type":"Feature","geometry":{"type":"Point","coordinates":[3.4914757,44.115408]},"properties":{"covered":"no","leisure":"picnic_table"}},
{"type":"Feature","geometry":{"type":"Point","coordinates":[3.4917838,44.1143783]},"properties":{"covered":"no","leisure":"picnic_table"}},
{"type":"Feature","geometry":{"type":"Point","coordinates":[3.4565955,44.0076602]},"properties":{"tourism":"viewpoint"}},
{"type":"Feature","geometry":{"type":"Point","coordinates":[3.4573143,44.008185]},"properties":{"historic":"ruins"}},
{"type":"Feature","geometry":{"type":"Point","coordinates":[3.3812034,44.1305955]},"properties":{"ele":"913","information":"guidepost","name":"La Croix des Jasses","tourism":"information"}},
{"type":"Feature","geometry":{"type":"Point","coordinates":[3.3795954,44.1279473]},"properties":{"ele":"895","information":"guidepost","name":"La Cambieyre","tourism":"information"}},
{"type":"Feature","geometry":{"type":"Point","coordinates":[3.4186618,44.1591407]},"properties":{"ele":"998","information":"guidepost","name":"Le Marjoab","tourism":"information"}},
{"type":"Feature","geometry":{"type":"Point","coordinates":[3.4232967,44.1553941]},"properties":{"ele":"967","information":"guidepost","name":"Roquedols","tourism":"information"}},
{"type":"Feature","geometry":{"type":"Point","coordinates":[3.423809,44.1516646]},"properties":{"ele":"1007","information":"guidepost","name":"Le Bout de la Côte","tourism":"information"}},
{"type":"Feature","geometry":{"type":"Point","coordinates":[3.4241201,44.1512306]},"properties":{"information":"board","tourism":"information"}},
{"type":"Feature","geometry":{"type":"Point","coordinates":[3.4240571,44.15099]},"properties":{"leisure":"picnic_table"}},
{"type":"Feature","geometry":{"type":"Point","coordinates":[3.4242985,44.1508072]},"properties":{"leisure":"picnic_table"}},
{"type":"Feature","geometry":{"type":"Point","coordinates":[3.4304716,44.1405266]},"properties":{"ele":"1097","information":"guidepost","name":"Les Commandeurs","tourism":"information"}},
{"type":"Feature","geometry":{"type":"Point","coordinates":[3.4344251,44.1341117]},"properties":{"ele":"1149","information":"guidepost","name":"La Pierre Plantée","tourism":"information"}},
{"type":"Feature","geometry":{"type":"Point","coordinates":[3.4225336,44.134617]},"properties":{"ele":"1142","information":"guidepost","name":"Le Devois","tourism":"information"}},
{"type":"Feature","geometry":{"type":"Point","coordinates":[3.3995283,44.1307331]},"properties":{"ele":"983","information":"guidepost","name":"Croix de l'Estrade","tourism":"information"}},
{"type":"Feature","geometry":{"type":"Point","coordinates":[3.3997174,44.1308178]},"properties":{"historic":"wayside_cross","name":"Croix de l'Estrade"}},
{"type":"Feature","geometry":{"type":"Point","coordinates":[3.4295744,44.1790474]},"properties":{"leisure":"picnic_table"}},
{"type":"Feature","geometry":{"type":"Point","coordinates":[3.4296548,44.1791821]},"properties":{"leisure":"picnic_table"}},
{"type":"Feature","geometry":{"type":"Point","coordinates":[3.4284894,44.1778365]},"properties":{"ele":"718","information":"guidepost","name":"Meyrueis - Monuments aux Morts","tourism":"information"}},
{"type":"Feature","geometry":{"type":"Point","coordinates":[3.4273401,44.177749]},"properties":{"ele":"732","information":"guidepost","name":"Chemin de la Vinade","tourism":"information"}},
{"type":"Feature","geometry":{"type":"Point","coordinates":[3.4272985,44.1774807]},"properties":{"information":"guidepost","tourism":"information"}},
{"type":"Feature","geometry":{"type":"Point","coordinates":[3.4085432,44.1817433]},"properties":{"information":"guidepost","tourism":"information"}},
{"type":"Feature","geometry":{"type":"Point","coordinates":[3.4223753,44.1811662]},"properties":{"historic":"wayside_cross"}},
{"type":"Feature","geometry":{"type":"Point","coordinates":[3.4272797,44.1778644]},"properties":{"information":"board","name":"Voies de Communication et Commerce","tourism":"information"}},
{"type":"Feature","geometry":{"type":"Point","coordinates":[3.392517,44.1923879]},"properties":{"name":"Fontaine Saint-Martin","natural":"spring"}},
{"type":"Feature","geometry":{"type":"Point","coordinates":[3.4103429,44.1865855]},"properties":{"information":"guidepost","tourism":"information"}},
{"type":"Feature","geometry":{"type":"Point","coordinates":[3.5365916,44.0919826]},"properties":{"natural":"spring"}},
{"type":"Feature","geometry":{"type":"Point","coordinates":[3.5702806,44.1170616]},"properties":{"name":"Les vigies","tourism":"artwork"}},
{"type":"Feature","geometry":{"type":"Point","coordinates":[3.5704504,44.0257514]},"properties":{"name":"Source","natural":"spring"}},
{"type":"Feature","geometry":{"type":"Point","coordinates":[3.5878955,44.205952]},"properties":{"leisure":"pitch","sport":"boules"}},
{"type":"Feature","geometry":{"type":"Point","coordinates":[3.5473827,44.0539567]},"properties":{"hiking":"yes","horse":"yes","information":"map","map_size":"region","map_type":"topo","mtb":"yes","tourism":"information"}},
{"type":"Feature","geometry":{"type":"Point","coordinates":[3.5919536,44.0679184]},"properties":{"leisure":"picnic_table"}},
{"type":"Feature","geometry":{"type":"Point","coordinates":[3.5920449,44.0679597]},"properties":{"ele":"1351","information":"guidepost","name":"Col de la Lusette","tourism":"information"}},
{"type":"Feature","geometry":{"type":"Point","coordinates":[3.6057338,43.9918791]},"properties":{"natural":"tree"}},
{"type":"Feature","geometry":{"type":"Point","coordinates":[3.6057217,43.9919934]},"properties":{"natural":"tree"}},
{"type":"Feature","geometry":{"type":"Point","coordinates":[3.6055749,43.9919355]},"properties":{"natural":"tree"}},
{"type":"Feature","geometry":{"type":"Point","coordinates":[3.6055608,43.9918685]},"properties":{"natural":"tree"}},
{"type":"Feature","geometry":{"type":"Point","coordinates":[3.4364546,44.1836196]},"properties":{"historic":"monument","name":"Pont","name:en":"Six Liards bridge","name:fr":"Pont des six Liards"}},
{"type":"Feature","geometry":{"type":"Point","coordinates":[3.5820678,44.1214223]},"properties":{"bench":"yes","covered":"no","leisure":"picnic_table"}},
{"type":"Feature","geometry":{"type":"Point","coordinates":[3.5824203,44.1214787]},"properties":{"bench":"yes","covered":"no","leisure":"picnic_table"}},
{"type":"Feature","geometry":{"type":"Point","coordinates":[3.4800017,44.1224304]},"properties":{"board_type":"nature","information":"board","tourism":"information"}},
{"type":"Feature","geometry":{"type":"Point","coordinates":[3.5607899,44.1068974]},"properties":{"ele":"1339","information":"guidepost","name":"Muraille de Volpelliere","tourism":"information"}},
{"type":"Feature","geometry":{"type":"Point","coordinates":[3.5721463,44.1122749]},"properties":{"ele":"1371","information":"guidepost","name":"Point Sublime","tourism":"information"}},
{"type":"Feature","geometry":{"type":"Point","coordinates":[3.5818523,44.1168449]},"properties":{"ele":"1307","information":"guidepost","name":"Stèle des Botanistes","tourism":"information"}},
{"type":"Feature","geometry":{"type":"Point","coordinates":[3.5832524,44.1168665]},"properties":{"ele":"1299","information":"guidepost","name":"L'Hort de Dieu","tourism":"information"}},
{"type":"Feature","geometry":{"type":"Point","coordinates":[3.586725,44.114747]},"properties":{"ele":"1381","information":"guidepost","name":"Le Grel","tourism":"information"}},
{"type":"Feature","geometry":{"type":"Point","coordinates":[3.588262,44.1162176]},"properties":{"ele":"1425","information":"guidepost","name":"L'Apollon","tourism":"information"}},
{"type":"Feature","geometry":{"type":"Point","coordinates":[3.5874623,44.1193946]},"properties":{"ele":"1498","information":"guidepost","name":"Menhir de Trépaloud","tourism":"information"}},
{"type":"Feature","geometry":{"type":"Point","coordinates":[3.5871075,44.1195179]},"properties":{"ele":"1498","information":"guidepost","name":"Menhir de Trépaloud","tourism":"information"}},
{"type":"Feature","geometry":{"type":"Point","coordinates":[3.5867068,44.1194982]},"properties":{"ele":"1495","information":"guidepost","name":"Menhir de Trépaloud","tourism":"information"}},
{"type":"Feature","geometry":{"type":"Point","coordinates":[3.5822082,44.1215163]},"properties":{"ele":"1556","information":"guidepost","name":"Mont Aigoual - Sommet","tourism":"information"}},
{"type":"Feature","geometry":{"type":"Point","coordinates":[3.5668191,44.1204424]},"properties":{"ele":"1447","information":"guidepost","name":"La Source","tourism":"information"}},
{"type":"Feature","geometry":{"type":"Point","coordinates":[3.5634885,44.1207608]},"properties":{"ele":"1441","information":"guidepost","name":"La Baraquette","tourism":"information"}},
{"type":"Feature","geometry":{"type":"Point","coordinates":[3.557764,44.1177075]},"properties":{"ele":"1410","information":"guidepost","name":"La Sapinière","tourism":"information"}},
{"type":"Feature","geometry":{"type":"Point","coordinates":[3.5553825,44.1172538]},"properties":{"ele":"1411","information":"guidepost","name":"Balcons de l'Aigoual - Parking","tourism":"information"}},
{"type":"Feature","geometry":{"type":"Point","coordinates":[3.5552533,44.1173431]},"properties":{"tourism":"picnic_site"}},
{"type":"Feature","geometry":{"type":"Point","coordinates":[3.555985,44.1170718]},"properties":{"name":"L’orée","tourism":"artwork"}},
{"type":"Feature","geometry":{"type":"Point","coordinates":[3.5546511,44.1171123]},"properties":{"name:en":"Burning Beds","tourism":"artwork"}},
{"type":"Feature","geometry":{"type":"Point","coordinates":[3.5703189,43.9909713]},"properties":{"historic":"wayside_cross","source":"IGN - 2022-06"}},
{"type":"Feature","geometry":{"type":"Point","coordinates":[3.3948891,44.1259098]},"properties":{"historic":"wayside_cross"}},
{"type":"Feature","geometry":{"type":"Point","coordinates":[3.3891435,44.0766307]},"properties":{"historic":"wayside_cross"}},
{"type":"Feature","geometry":{"type":"Point","coordinates":[3.3844074,44.1302696]},"properties":{"addr:city":"Lanuéjols","addr:postcode":"30750","addr:street":"Rue du Countal","email":"herve.maille30@orange.fr","fax":"+33 4 67 82 73 42","name":"Hôtel Bel Air","phone":"+33 4 67 82 72 78","rooms":"11","stars":"2","swimming_pool":"yes","tourism":"hotel","website":"https://www.hotel-restaurant-belair.fr"}},
{"type":"Feature","geometry":{"type":"Point","coordinates":[3.3850276,44.1295966]},"properties":{"leisure":"pitch","sport":"table_tennis"}},
{"type":"Feature","geometry":{"type":"Point","coordinates":[3.3851619,44.1295725]},"properties":{"leisure":"playground"}},
{"type":"Feature","geometry":{"type":"Point","coordinates":[3.385399,44.1295169]},"properties":{"bench":"yes","leisure":"picnic_table","material":"concrete"}},
{"type":"Feature","geometry":{"type":"Point","coordinates":[3.385436,44.1294679]},"properties":{"bench":"yes","leisure":"picnic_table","material":"concrete"}},
{"type":"Feature","geometry":{"type":"Point","coordinates":[3.3853585,44.1294837]},"properties":{"bench":"yes","leisure":"picnic_table","material":"concrete"}},
{"type":"Feature","geometry":{"type":"Point","coordinates":[3.3853447,44.1295326]},"properties":{"bench":"yes","leisure":"picnic_table","material":"concrete"}},
{"type":"Feature","geometry":{"type":"Point","coordinates":[3.4011996,44.0817824]},"properties":{"name":"Baume St Firmin (entrée Aven)","natural":"cave_entrance"}},
{"type":"Feature","geometry":{"type":"Point","coordinates":[3.4000111,44.078489]},"properties":{"name":"Grotte Sépulcrale du Pas de Joulié","natural":"cave_entrance"}},
{"type":"Feature","geometry":{"type":"Point","coordinates":[3.4000258,44.0762663]},"properties":{"historic":"memorial"}},
{"type":"Feature","geometry":{"type":"Point","coordinates":[3.3987719,44.0761594]},"properties":{"tourism":"viewpoint"}},
{"type":"Feature","geometry":{"type":"Point","coordinates":[3.6022366,43.9912972]},"properties":{"leisure":"playground","playground":"slide"}},
{"type":"Feature","geometry":{"type":"Point","coordinates":[3.6060775,43.9927666]},"properties":{"leisure":"playground","playground":"swing"}},
{"type":"Feature","geometry":{"type":"Point","coordinates":[3.4128079,44.0652104]},"properties":{"tourism":"viewpoint"}},
{"type":"Feature","geometry":{"type":"Point","coordinates":[3.5152074,44.1859844]},"properties":{"leisure":"picnic_table"}},
{"type":"Feature","geometry":{"type":"Point","coordinates":[3.5199318,44.1904069]},"properties":{"leisure":"picnic_table"}},
{"type":"Feature","geometry":{"type":"Point","coordinates":[3.6061968,43.9915672]},"properties":{"leisure":"outdoor_seating"}},
{"type":"Feature","geometry":{"type":"Point","coordinates":[3.50614,43.990595]},"properties":{"natural":"tree"}},
{"type":"Feature","geometry":{"type":"Point","coordinates":[3.5034223,43.9910905]},"properties":{"tourism":"information"}},
{"type":"Feature","geometry":{"type":"Point","coordinates":[3.5052641,43.9905537]},"properties":{"natural":"tree"}},
{"type":"Feature","geometry":{"type":"Point","coordinates":[3.5048001,43.990414]},"properties":{"tourism":"information"}},
{"type":"Feature","geometry":{"type":"Point","coordinates":[3.5055241,43.9905564]},"properties":{"natural":"tree"}},
{"type":"Feature","geometry":{"type":"Point","coordinates":[3.5060675,43.9906131]},"properties":{"tourism":"information"}},
{"type":"Feature","geometry":{"type":"Point","coordinates":[3.5035567,43.9911599]},"properties":{"ele":"458","information":"guidepost","name":"Aumessas","tourism":"information"}},
{"type":"Feature","geometry":{"type":"Point","coordinates":[3.5044472,43.9898501]},"properties":{"tourism":"information"}},
{"type":"Feature","geometry":{"type":"Point","coordinates":[3.502997,43.9924805]},"properties":{"natural":"tree"}},
{"type":"Feature","geometry":{"type":"Point","coordinates":[3.5043775,43.9898407]},"properties":{"tourism":"information"}},
{"type":"Feature","geometry":{"type":"Point","coordinates":[3.5053421,43.9906449]},"properties":{"natural":"tree"}},
{"type":"Feature","geometry":{"type":"Point","coordinates":[3.5056479,43.9905727]},"properties":{"natural":"tree"}},
{"type":"Feature","geometry":{"type":"Point","coordinates":[3.5058812,43.9905779]},"properties":{"natural":"tree"}},
{"type":"Feature","geometry":{"type":"Point","coordinates":[3.5053114,43.990647]},"properties":{"tourism":"information"}},
{"type":"Feature","geometry":{"type":"Point","coordinates":[3.503831,43.9911598]},"properties":{"information":"map","tourism":"information"}},
{"type":"Feature","geometry":{"type":"Point","coordinates":[3.5063338,43.9906485]},"properties":{"tourism":"information"}},
{"type":"Feature","geometry":{"type":"Point","coordinates":[3.5053052,43.9905228]},"properties":{"tourism":"information"}},
{"type":"Feature","geometry":{"type":"Point","coordinates":[3.5062737,43.9906307]},"properties":{"natural":"tree"}},
{"type":"Feature","geometry":{"type":"Point","coordinates":[3.5060448,43.9905812]},"properties":{"natural":"tree"}},
{"type":"Feature","geometry":{"type":"Point","coordinates":[3.5727173,43.9890753]},"properties":{"ele":"363","information":"guidepost","name":"Bréau","tourism":"information"}},
{"type":"Feature","geometry":{"type":"Point","coordinates":[3.5730114,43.988992]},"properties":{"natural":"tree"}},
{"type":"Feature","geometry":{"type":"Point","coordinates":[3.5728954,43.9887521]},"properties":{"natural":"tree"}},