{"type":"FeatureCollection","features":[
{"type":"Feature","geometry":{"type":"Point","coordinates":[6.6632424,46.3636653]},"properties":{"source":"cadastre-dgi-fr source : Direction Générale des Impôts - Cadastre ; mise à jour : 2008"}},
{"type":"Feature","geometry":{"type":"Point","coordinates":[6.7518059,46.3346943]},"properties":{"ele":"2069","name":"Pointe de Bénévent","natural":"peak","source":"cadastre-dgi-fr source : Direction Générale des Impôts - Cadastre ; mise à jour : 2008","summit:cross":"yes","wikidata":"Q49753300","wikimedia_commons":"Category:Pointe de Bénevent"}},
{"type":"Feature","geometry":{"type":"Point","coordinates":[6.7517192,46.3383519]},"properties":{"ele":"1956","name":"Pointe des Fires","natural":"peak","source":"cadastre-dgi-fr source : Direction Générale des Impôts - Cadastre ; mise à jour : 2008"}},
{"type":"Feature","geometry":{"type":"Point","coordinates":[6.764186,46.3434006]},"properties":{"ele":"2003","name":"Tête de Charousse","natural":"peak","source":"cadastre-dgi-fr source : Direction Générale des Impôts - Cadastre ; mise à jour : 2008"}},
{"type":"Feature","geometry":{"type":"Point","coordinates":[6.7396044,46.3599653]},"properties":{"ele":"1951","name":"Roc de Rianda","natural":"peak","source":"cadastre-dgi-fr source : Direction Générale des Impôts - Cadastre ; mise à jour : 2008"}},
{"type":"Feature","geometry":{"type":"Point","coordinates":[6.752913,46.3718582]},"properties":{"ele":"1878","name":"Pointe de Pétalouse","natural":"peak","source":"cadastre-dgi-fr source : Direction Générale des Impôts - Cadastre ; mise à jour : 2008"}},
{"type":"Feature","geometry":{"type":"Point","coordinates":[6.7606705,46.3725672]},"properties":{"ele":"1888","natural":"peak","source":"cadastre-dgi-fr source : Direction Générale des Impôts - Cadastre ; mise à jour : 2008"}},
{"type":"Feature","geometry":{"type":"Point","coordinates":[6.7258729,46.3742769]},"properties":{"ele":"1736","name":"Le Grand Mottay","natural":"peak","source":"cadastre-dgi-fr source : Direction Générale des Impôts - Cadastre ; mise à jour : 2008"}},
{"type":"Feature","geometry":{"type":"Point","coordinates":[6.6579127,46.3448664]},"properties":{"ele":"1423","name":"Tête des Trêches","natural":"peak","source":"cadastre-dgi-fr source : Direction Générale des Impôts - Cadastre ; mise à jour : 2008"}},
{"type":"Feature","geometry":{"type":"Point","coordinates":[6.7093351,46.3377831]},"properties":{"information":"map","map_size":"landscape","map_type":"toposcope","source":"IGN - 2021-06","tourism":"information"}},
{"type":"Feature","geometry":{"type":"Point","coordinates":[6.7169039,46.338342]},"properties":{"ele":"1908","name":"Pointe de Pelluaz","natural":"peak","source":"cadastre-dgi-fr source : Direction Générale des Impôts - Cadastre ; mise à jour : 2008","summit:cross":"yes"}},
{"type":"Feature","geometry":{"type":"Point","coordinates":[6.7280175,46.3439127]},"properties":{"ele":"1812","mountain_pass":"yes","name":"Col de la Case d'Oche","natural":"saddle","source":"cadastre-dgi-fr source : Direction Générale des Impôts - Cadastre ; mise à jour : 2008"}},
{"type":"Feature","geometry":{"type":"Point","coordinates":[6.7386911,46.3425831]},"properties":{"ele":"2030","name":"Aiguilles de Darbon","natural":"peak","source":"cadastre-dgi-fr source : Direction Générale des Impôts - Cadastre ; mise à jour : 2008"}},
{"type":"Feature","geometry":{"type":"Point","coordinates":[6.7603386,46.3455488]},"properties":{"alt_name":"Col de Bemialet","ele":"1915","mountain_pass":"yes","name":"Col de Bise","natural":"saddle"}},
{"type":"Feature","geometry":{"type":"Point","coordinates":[6.7420422,46.349809]},"properties":{"ele":"2197","name":"Château d'Oche","natural":"peak","summit:cross":"yes","wikidata":"Q2968301","wikipedia":"fr:Château d'Oche (montagne)"}},
{"type":"Feature","geometry":{"type":"Point","coordinates":[6.7414989,46.3460752]},"properties":{"source":"cadastre-dgi-fr source : Direction Générale des Impôts - Cadastre ; mise à jour : 2009"}},
{"type":"Feature","geometry":{"type":"Point","coordinates":[6.6844663,46.3447809]},"properties":{"ele":"1566","name":"Mont Baron","natural":"peak","summit:cross":"yes"}},
{"type":"Feature","geometry":{"type":"Point","coordinates":[6.7566679,46.3813283]},"properties":{"ele":"1426","name":"Col de Corniens","natural":"saddle"}},
{"type":"Feature","geometry":{"type":"Point","coordinates":[6.7192343,46.3620543]},"properties":{"ele":"1325","hiking":"yes","information":"guidepost","name":"La Bonne Eau","support":"wall_mounted","tourism":"information"}},
{"type":"Feature","geometry":{"type":"Point","coordinates":[6.6570341,46.365255]},"properties":{"leisure":"bowling_alley"}},
{"type":"Feature","geometry":{"type":"Point","coordinates":[6.6648455,46.4026264]},"properties":{"information":"office","name":"Office du Tourisme","tourism":"information"}},
{"type":"Feature","geometry":{"type":"Point","coordinates":[6.6658535,46.4028148]},"properties":{"denotation":"urban","leaf_type":"broadleaved","natural":"tree"}},
{"type":"Feature","geometry":{"type":"Point","coordinates":[6.6822472,46.4072355]},"properties":{"leisure":"marina","name":"Plage Pont Rouge"}},
{"type":"Feature","geometry":{"type":"Point","coordinates":[6.7555401,46.3458543]},"properties":{"alt_name":"Saix de Bise","ele":"2075","name":"Pointe des Pavis","natural":"peak","summit:cross":"yes"}},
{"type":"Feature","geometry":{"type":"Point","coordinates":[6.6818298,46.3724757]},"properties":{"ele":"1285","name":"Mont Bénand","natural":"peak","wikidata":"Q113438200"}},
{"type":"Feature","geometry":{"type":"Point","coordinates":[6.7224435,46.3401046]},"properties":{"ele":"1915","natural":"peak","source":"cadastre-dgi-fr source : Direction Générale des Impôts - Cadastre ; mise à jour : 2008","summit:cross":"yes"}},
{"type":"Feature","geometry":{"type":"Point","coordinates":[6.7422895,46.3702309]},"properties":{"ele":"1974","name":"Pic Boré","natural":"peak"}},
{"type":"Feature","geometry":{"type":"Point","coordinates":[6.7126051,46.3787558]},"properties":{"ele":"1675","name":"Pic des Mémises","natural":"peak","summit:cross":"yes","wikidata":"Q3322307","wikimedia_commons":"Category:Montagne des Mémises","wikipedia":"fr:Montagne des Mémises"}},
{"type":"Feature","geometry":{"type":"Point","coordinates":[6.7171426,46.3696811]},"properties":{"natural":"spring"}},
{"type":"Feature","geometry":{"type":"Point","coordinates":[6.6887906,46.3434159]},"properties":{"ele":"1432","mountain_pass":"yes","name":"Col des Bœufs","natural":"saddle"}},
{"type":"Feature","geometry":{"type":"Point","coordinates":[6.7031515,46.3360766]},"properties":{"ele":"1772","name":"Tête des Fieux","natural":"peak"}},
{"type":"Feature","geometry":{"type":"Point","coordinates":[6.7386384,46.3639355]},"properties":{"ele":"1775","mountain_pass":"yes","name":"Col de Neuva","natural":"saddle"}},
{"type":"Feature","geometry":{"type":"Point","coordinates":[6.723684,46.3515712]},"properties":{"ele":"1925","mountain_pass":"yes","name":"Col de Rebollion","natural":"saddle"}},
{"type":"Feature","geometry":{"type":"Point","coordinates":[6.7468588,46.3317588]},"properties":{"ele":"1951","name":"Mont de Chillon","natural":"peak"}},
{"type":"Feature","geometry":{"type":"Point","coordinates":[6.7048169,46.3708207]},"properties":{"ele":"1512","mountain_pass":"yes","name":"Col de Pertuis","natural":"saddle"}},
{"type":"Feature","geometry":{"type":"Point","coordinates":[6.7124566,46.3787639]},"properties":{"denomination":"roman_catholic","height":"5.5","historic":"wayside_cross","material":"wood","name":"Croix du Vuargne","religion":"christian","start_date":"2013"}},
{"type":"Feature","geometry":{"type":"Point","coordinates":[6.749684,46.3468224]},"properties":{"ele":"1944","hiking":"yes","information":"guidepost","name":"Col de Pavis","tourism":"information"}},
{"type":"Feature","geometry":{"type":"Point","coordinates":[6.7398605,46.3509752]},"properties":{"ele":"1996","mountain_pass":"yes","name":"Col de Planchamp","natural":"saddle"}},
{"type":"Feature","geometry":{"type":"Point","coordinates":[6.7406965,46.3771716]},"properties":{"natural":"spring"}},
{"type":"Feature","geometry":{"type":"Point","coordinates":[6.6945752,46.3352414]},"properties":{"tourism":"picnic_site"}},
{"type":"Feature","geometry":{"type":"Point","coordinates":[6.6939314,46.3316967]},"properties":{"natural":"spring"}},
{"type":"Feature","geometry":{"type":"Point","coordinates":[6.6640366,46.3456356]},"properties":{"denomination":"roman_catholic","historic":"wayside_cross","religion":"christian"}},
{"type":"Feature","geometry":{"type":"Point","coordinates":[6.6766577,46.3466623]},"properties":{"denomination":"roman_catholic","historic":"wayside_cross","religion":"christian"}},
{"type":"Feature","geometry":{"type":"Point","coordinates":[6.6836167,46.3404807]},"properties":{"historic":"wayside_cross"}},
{"type":"Feature","geometry":{"type":"Point","coordinates":[6.6896846,46.3701918]},"properties":{"bicycle":"yes","ele":"1165","hiking":"yes","information":"guidepost","name":"Col de Creusaz (parking)","operator":"Conseil départemental de la Haute-Savoie","operator:wikidata":"Q23782116","operator:wikipedia":"fr:Conseil départemental de la Haute-Savoie","tourism":"information"}},
{"type":"Feature","geometry":{"type":"Point","coordinates":[6.7150998,46.3710367]},"properties":{"ele":"1660","mountain_pass":"yes","name":"Col du Grand Mottay","natural":"saddle"}},
{"type":"Feature","geometry":{"type":"Point","coordinates":[6.7115017,46.369123]},"properties":{"tourism":"viewpoint"}},
{"type":"Feature","geometry":{"type":"Point","coordinates":[6.6813864,46.3626547]},"properties":{"historic":"wayside_cross"}},
{"type":"Feature","geometry":{"type":"Point","coordinates":[6.6675637,46.3599134]},"properties":{"denomination":"roman_catholic","historic":"wayside_cross","religion":"christian"}},
{"type":"Feature","geometry":{"type":"Point","coordinates":[6.7240808,46.3791967]},"properties":{"ele":"960","free_flying:site":"takeoff","leisure":"pitch","name":"Aire de Décollage le Hucel","source":"data.gouv.fr:Le ministère des droits des femmes, de la ville, de la jeunesse et des sports - 2014","sport":"free_flying"}},
{"type":"Feature","geometry":{"type":"Point","coordinates":[6.7157978,46.357705]},"properties":{"tourism":"viewpoint"}},
{"type":"Feature","geometry":{"type":"Point","coordinates":[6.711533,46.3530854]},"properties":{"denomination":"roman_catholic","historic":"wayside_cross","material":"wood","religion":"christian"}},
{"type":"Feature","geometry":{"type":"Point","coordinates":[6.6975013,46.3574159]},"properties":{"board_type":"history","information":"board","name":"Un riche patrimoine religieux","tourism":"information"}},
{"type":"Feature","geometry":{"type":"Point","coordinates":[6.7157489,46.3907702]},"properties":{"leisure":"sports_centre","name":"École de Parapente"}},
{"type":"Feature","geometry":{"type":"Point","coordinates":[6.6996661,46.373898]},"properties":{"information":"board","name":"Le lac, le glacier du Rhône","name:de":"Der See, der Rhônegletscher","name:en":"The Lake, the Glacier of the Rhône","operator":"Evian","operator:wikidata":"Q1050918","operator:wikipedia":"fr:Évian (eau minérale)","ref":"13","tourism":"information"}},
{"type":"Feature","geometry":{"type":"Point","coordinates":[6.7018641,46.3719597]},"properties":{"ele":"1380","hiking":"yes","information":"guidepost","tourism":"information"}},
{"type":"Feature","geometry":{"type":"Point","coordinates":[6.6889545,46.3699256]},"properties":{"information":"board","name":"Mont Bénand","name:en":"Here the Alps tell of...","operator":"Géoparc du Chablais","operator:wikidata":"Q21283529","operator:wikipedia":"fr:Géoparc mondial Unesco du Chablais","tourism":"information"}},
{"type":"Feature","geometry":{"type":"Point","coordinates":[6.6889807,46.3699168]},"properties":{"hiking":"yes","information":"map","map_size":"region","map_type":"topo","name":"Randonnées au départ du Col de Creusaz","operator":"Conseil départemental de la Haute-Savoie","operator:wikidata":"Q23782116","operator:wikipedia":"fr:Conseil départemental de la Haute-Savoie","tourism":"information"}},
{"type":"Feature","geometry":{"type":"Point","coordinates":[6.6890062,46.3699163]},"properties":{"information":"guidepost","tourism":"information"}},
{"type":"Feature","geometry":{"type":"Point","coordinates":[6.6945592,46.3873357]},"properties":{"historic":"wayside_cross"}},
{"type":"Feature","geometry":{"type":"Point","coordinates":[6.7512322,46.3470181]},"properties":{"ele":"1944","mountain_pass":"yes","name":"Col de Pavis","natural":"saddle"}},
{"type":"Feature","geometry":{"type":"Point","coordinates":[6.742936,46.3456105]},"properties":{"ele":"1937","mountain_pass":"yes","name":"Les Portes d'Oche","natural":"saddle"}},
{"type":"Feature","geometry":{"type":"Point","coordinates":[6.6844176,46.3447745]},"properties":{"tourism":"viewpoint"}},
{"type":"Feature","geometry":{"type":"Point","coordinates":[6.7335151,46.3569161]},"properties":{"ele":"1877","mountain_pass":"yes","name":"Col de Trepertuis","natural":"saddle"}},
{"type":"Feature","geometry":{"type":"Point","coordinates":[6.7487509,46.360848]},"properties":{"ele":"1713","name":"Les Dents de Monys","natural":"peak"}},
{"type":"Feature","geometry":{"type":"Point","coordinates":[6.7526873,46.3603667]},"properties":{"ele":"1583","natural":"peak"}},
{"type":"Feature","geometry":{"type":"Point","coordinates":[6.7390748,46.364014]},"properties":{"tourism":"viewpoint"}},
{"type":"Feature","geometry":{"type":"Point","coordinates":[6.6751262,46.3603261]},"properties":{"historic":"memorial","material":"stone","memorial":"war_memorial","name":"À la mémoire glorieuse des enfants de Bernex morts pour la France (1914-1918)"}},
{"type":"Feature","geometry":{"type":"Point","coordinates":[6.7032897,46.370198]},"properties":{"ele":"1574","name":"La Colombière","natural":"peak"}},
{"type":"Feature","geometry":{"type":"Point","coordinates":[6.6982745,46.3688136]},"properties":{"ele":"1548","name":"Mont César","natural":"peak","wikidata":"Q49752839"}},
{"type":"Feature","geometry":{"type":"Point","coordinates":[6.6889481,46.3701859]},"properties":{"ele":"1175","mountain_pass":"yes","name":"Col de Creusaz","natural":"saddle"}},
{"type":"Feature","geometry":{"type":"Point","coordinates":[6.6761755,46.3736802]},"properties":{"denomination":"roman_catholic","historic":"wayside_cross","name":"Croix du Mont Bénand","religion":"christian"}},
{"type":"Feature","geometry":{"type":"Point","coordinates":[6.7492089,46.3785999]},"properties":{"ele":"1694","natural":"peak"}},
{"type":"Feature","geometry":{"type":"Point","coordinates":[6.7465482,46.3784371]},"properties":{"ele":"1747","natural":"peak"}},
{"type":"Feature","geometry":{"type":"Point","coordinates":[6.7562916,46.3788808]},"properties":{"ele":"1680","name":"Pointe de Corniens","natural":"peak"}},
{"type":"Feature","geometry":{"type":"Point","coordinates":[6.765296,46.3755699]},"properties":{"ele":"1716","name":"Pointe de l'Aguille","natural":"peak"}},
{"type":"Feature","geometry":{"type":"Point","coordinates":[6.7516193,46.3826377]},"properties":{"ele":"1406","natural":"peak"}},
{"type":"Feature","geometry":{"type":"Point","coordinates":[6.7611397,46.3528829]},"properties":{"ele":"1938","name":"Rochers de Chauffes Floras","natural":"peak"}},
{"type":"Feature","geometry":{"type":"Point","coordinates":[6.73629,46.39435]},"properties":{"ele":"1052","name":"Mont Chalon","natural":"peak"}},
{"type":"Feature","geometry":{"type":"Point","coordinates":[6.7043313,46.3990155]},"properties":{"ele":"996","name":"Le Hucel","natural":"peak"}},
{"type":"Feature","geometry":{"type":"Point","coordinates":[6.7278063,46.3656934]},"properties":{"ele":"1627","natural":"peak"}},
{"type":"Feature","geometry":{"type":"Point","coordinates":[6.7165949,46.3905958]},"properties":{"information":"guidepost","tourism":"information"}},
{"type":"Feature","geometry":{"type":"Point","coordinates":[6.7238292,46.3799371]},"properties":{"ele":"1598","hiking":"yes","information":"guidepost","mtb":"yes","name":"Télécabine (Gare supérieure)","operator":"CC Pays d'Evian et Vallée d'Abondance","operator:wikidata":"Q23782116","operator:wikipedia":"fr:Conseil départemental de la Haute-Savoie","tourism":"information"}},
{"type":"Feature","geometry":{"type":"Point","coordinates":[6.7224908,46.3799177]},"properties":{"information":"guidepost","tourism":"information"}},
{"type":"Feature","geometry":{"type":"Point","coordinates":[6.7208788,46.3798942]},"properties":{"information":"board","name":"Les Carrières","tourism":"information"}},
{"type":"Feature","geometry":{"type":"Point","coordinates":[6.7125736,46.3787326]},"properties":{"ele":"1674","hiking":"yes","information":"guidepost","name":"Pic des Mémises","tourism":"information"}},
{"type":"Feature","geometry":{"type":"Point","coordinates":[6.7124524,46.3787509]},"properties":{"information":"map","map_size":"region","map_type":"toposcope","name":"Le Chablais","tourism":"information"}},
{"type":"Feature","geometry":{"type":"Point","coordinates":[6.7125135,46.3787691]},"properties":{"tourism":"viewpoint"}},
{"type":"Feature","geometry":{"type":"Point","coordinates":[6.7124602,46.3787642]},"properties":{"board_type":"history","description":"Petite histoire des croix des Mémises","information":"board","name":"Croix des Mémises","tourism":"information"}},
{"type":"Feature","geometry":{"type":"Point","coordinates":[6.7276398,46.381269]},"properties":{"information":"map","name":"Table d'orientation Les Préalpes Romandes","tourism":"information"}},
{"type":"Feature","geometry":{"type":"Point","coordinates":[6.7275218,46.3813172]},"properties":{"tourism":"viewpoint"}},
{"type":"Feature","geometry":{"type":"Point","coordinates":[6.7277256,46.3812802]},"properties":{"information":"board","name":"Pente et Parapente","tourism":"information"}},
{"type":"Feature","geometry":{"type":"Point","coordinates":[6.7276362,46.3811469]},"properties":{"information":"guidepost","tourism":"information"}},
{"type":"Feature","geometry":{"type":"Point","coordinates":[6.7323748,46.3818019]},"properties":{"information":"guidepost","tourism":"information"}},
{"type":"Feature","geometry":{"type":"Point","coordinates":[6.7337266,46.3819019]},"properties":{"historic":"wayside_cross","name":"La Pétolère"}},
{"type":"Feature","geometry":{"type":"Point","coordinates":[6.7182163,46.3864288]},"properties":{"information":"board","name":"Les Bruyères","tourism":"information"}},
{"type":"Feature","geometry":{"type":"Point","coordinates":[6.7634237,46.3302512]},"properties":{"ele":"1500","hiking":"yes","information":"guidepost","name":"Chalets de Bise (Parking)","operator":"Conseil départemental de la Haute-Savoie","operator:wikidata":"Q23782116","operator:wikipedia":"fr:Conseil départemental de la Haute-Savoie","support":"pole","tourism":"information"}},
{"type":"Feature","geometry":{"type":"Point","coordinates":[6.7636232,46.3364372]},"properties":{"ele":"1535","hiking":"yes","information":"guidepost","name":"La Salle","operator":"Conseil départemental de la Haute-Savoie","operator:wikidata":"Q23782116","operator:wikipedia":"fr:Conseil départemental de la Haute-Savoie","support":"pole","tourism":"information"}},
{"type":"Feature","geometry":{"type":"Point","coordinates":[6.7603229,46.3456509]},"properties":{"hiking":"yes","information":"route_marker","support":"pole","tourism":"information"}},
{"type":"Feature","geometry":{"type":"Point","coordinates":[6.7655797,46.3304678]},"properties":{"hiking":"yes","information":"map","map_size":"region","map_type":"topo","name":"Randonnées autour de Bise","operator":"Conseil départemental de la Haute-Savoie","operator:wikidata":"Q23782116","operator:wikipedia":"fr:Conseil départemental de la Haute-Savoie","tourism":"information"}},
{"type":"Feature","geometry":{"type":"Point","coordinates":[6.7656126,46.3305544]},"properties":{"ele":"1500","hiking":"yes","information":"guidepost","name":"Chalets de Bise (Refuge)","operator":"Conseil départemental de la Haute-Savoie","operator:wikidata":"Q23782116","operator:wikipedia":"fr:Conseil départemental de la Haute-Savoie","support":"pole","tourism":"information"}},
{"type":"Feature","geometry":{"type":"Point","coordinates":[6.6600385,46.3586652]},"properties":{"hiking":"yes","information":"guidepost","mtb":"yes","name":"Les Faverges","operator":"CC Pays d'Evian et Vallée d'Abondance","tourism":"information"}},
{"type":"Feature","geometry":{"type":"Point","coordinates":[6.6600843,46.35867]},"properties":{"denomination":"roman_catholic","historic":"wayside_shrine","image":"https://commons.wikimedia.org/wiki/File:Oratoire_faverges_Saint-Paul-en-Chablais.JPG","religion":"christian"}},
{"type":"Feature","geometry":{"type":"Point","coordinates":[6.6604913,46.3582959]},"properties":{"information":"guidepost","tourism":"information"}},
{"type":"Feature","geometry":{"type":"Point","coordinates":[6.6628536,46.3565896]},"properties":{"denomination":"roman_catholic","historic":"wayside_cross","material":"wood","religion":"christian"}},
{"type":"Feature","geometry":{"type":"Point","coordinates":[6.7501739,46.3391697]},"properties":{"hiking":"yes","information":"route_marker","support":"pole","tourism":"information"}},
{"type":"Feature","geometry":{"type":"Point","coordinates":[6.7499186,46.341423]},"properties":{"ele":"1925","hiking":"yes","information":"guidepost","name":"Col de Floray","operator":"Conseil départemental de la Haute-Savoie","operator:wikidata":"Q23782116","operator:wikipedia":"fr:Conseil départemental de la Haute-Savoie","support":"pole","tourism":"information"}},
{"type":"Feature","geometry":{"type":"Point","coordinates":[6.7496366,46.3415787]},"properties":{"hiking":"yes","information":"route_marker","support":"pole","tourism":"information"}},
{"type":"Feature","geometry":{"type":"Point","coordinates":[6.7489229,46.3426708]},"properties":{"information":"guidepost","tourism":"information"}},
{"type":"Feature","geometry":{"type":"Point","coordinates":[6.7473538,46.3429917]},"properties":{"information":"guidepost","tourism":"information"}},
{"type":"Feature","geometry":{"type":"Point","coordinates":[6.7495255,46.3436608]},"properties":{"information":"guidepost","tourism":"information"}},
{"type":"Feature","geometry":{"type":"Point","coordinates":[6.7512985,46.3470022]},"properties":{"information":"guidepost","tourism":"information"}},
{"type":"Feature","geometry":{"type":"Point","coordinates":[6.7556231,46.3485155]},"properties":{"information":"guidepost","name":"La Montagne de Neuteu Est","tourism":"information"}},
{"type":"Feature","geometry":{"type":"Point","coordinates":[6.7593064,46.3474962]},"properties":{"information":"guidepost","name":"La Montagne de Neuteu Sud","tourism":"information"}},
{"type":"Feature","geometry":{"type":"Point","coordinates":[6.7603543,46.3455361]},"properties":{"ele":"1915","hiking":"yes","information":"guidepost","name":"Col de Bise","operator":"Conseil départemental de la Haute-Savoie","operator:wikidata":"Q23782116","operator:wikipedia":"fr:Conseil départemental de la Haute-Savoie","support":"pole","tourism":"information"}},
{"type":"Feature","geometry":{"type":"Point","coordinates":[6.7608892,46.3384921]},"properties":{"hiking":"yes","information":"route_marker","support":"pole","tourism":"information"}},
{"type":"Feature","geometry":{"type":"Point","coordinates":[6.7397214,46.3780882]},"properties":{"information":"guidepost","tourism":"information"}},
{"type":"Feature","geometry":{"type":"Point","coordinates":[6.734669,46.3755543]},"properties":{"hiking":"yes","information":"guidepost","ruins":"yes","support":"pole","tourism":"information"}},
{"type":"Feature","geometry":{"type":"Point","coordinates":[6.7388953,46.3796284]},"properties":{"information":"guidepost","name":"La Frasse","tourism":"information"}},
{"type":"Feature","geometry":{"type":"Point","coordinates":[6.7382981,46.380115]},"properties":{"information":"guidepost","tourism":"information"}},
{"type":"Feature","geometry":{"type":"Point","coordinates":[6.7383195,46.38096]},"properties":{"information":"guidepost","tourism":"information"}},
{"type":"Feature","geometry":{"type":"Point","coordinates":[6.7365484,46.381517]},"properties":{"information":"board","name":"L'Alpage","tourism":"information"}},
{"type":"Feature","geometry":{"type":"Point","coordinates":[6.7359225,46.3816339]},"properties":{"information":"guidepost","tourism":"information"}},
{"type":"Feature","geometry":{"type":"Point","coordinates":[6.6590905,46.3584756]},"properties":{"denomination":"roman_catholic","historic":"wayside_cross","religion":"christian"}},
{"type":"Feature","geometry":{"type":"Point","coordinates":[6.6689179,46.3653756]},"properties":{"hiking":"yes","information":"guidepost","name":"Derrière le Four","operator":"CC Pays d'Evian et Vallée d'Abondance","tourism":"information"}},
{"type":"Feature","geometry":{"type":"Point","coordinates":[6.6627934,46.3669311]},"properties":{"hiking":"yes","information":"guidepost","mtb":"yes","name":"Fin des Combes","operator":"CC Pays d'Evian et Vallée d'Abondance","tourism":"information"}},
{"type":"Feature","geometry":{"type":"Point","coordinates":[6.7243508,46.3801269]},"properties":{"name":"ME 15-1","natural":"cave_entrance"}},
{"type":"Feature","geometry":{"type":"Point","coordinates":[6.6812735,46.4031447]},"properties":{"information":"board","name":"Atterrissage FFVL de Troubois","tourism":"information"}},
{"type":"Feature","geometry":{"type":"Point","coordinates":[6.7246465,46.3800874]},"properties":{"leisure":"pitch","name":"balise pioupiou","sport":"free_flying","website":"https://pioupiou.com/fr/289"}},
{"type":"Feature","geometry":{"type":"Point","coordinates":[6.6609528,46.3796528]},"properties":{"historic":"wayside_shrine","religion":"christian"}},
{"type":"Feature","geometry":{"type":"Point","coordinates":[6.7226638,46.4050412]},"properties":{"alt_name":"Pierre à Rousseau","material":"limestone","name":"Pierre à Jean-Jacques Rousseau","name:etymology:wikidata":"Q6527","natural":"stone","tourism":"attraction","wikidata":"Q16670102","wikipedia":"fr:Pierre à Jean-Jacques Rousseau"}},
{"type":"Feature","geometry":{"type":"Point","coordinates":[6.6585314,46.3982892]},"properties":{"artwork_type":"sculpture","heritage":"2","heritage:operator":"mhs","image":"https://commons.wikimedia.org/wiki/File:Sculpture_tric%C3%A9phale_de_Lugrin_(d%C3%A9tail).jpg","material":"stone","mhs:inscription_date":"1954-10-11","name":"Sculpture tricéphale","ref:mhs":"PA00118403","source:heritage":"data.gouv.fr, Ministère de la Culture - 2016","tourism":"artwork","wikidata":"Q3476530","wikimedia_commons":"Category:Sculpture tricéphale de Lugrin","wikipedia":"fr:Sculpture tricéphale (Lugrin)"}},
{"type":"Feature","geometry":{"type":"Point","coordinates":[6.7025587,46.3588037]},"properties":{"ele":"1061","information":"guidepost","name":"Le Chon","snowshoe":"yes","support":"pole","tourism":"information"}},
{"type":"Feature","geometry":{"type":"Point","coordinates":[6.6972348,46.3577352]},"properties":{"ele":"1021","hiking":"yes","information":"guidepost","mtb":"yes","name":"Pont de Morgon (Parking)","operator":"CC Pays d'Evian et Vallée d'Abondance","tourism":"information"}},
{"type":"Feature","geometry":{"type":"Point","coordinates":[6.7236811,46.3708235]},"properties":{"hiking":"yes","information":"route_marker","support":"pole","tourism":"information"}},
{"type":"Feature","geometry":{"type":"Point","coordinates":[6.7292668,46.3716249]},"properties":{"hiking":"yes","information":"route_marker","support":"pole","tourism":"information"}},
{"type":"Feature","geometry":{"type":"Point","coordinates":[6.7193654,46.364291]},"properties":{"ele":"1247","hiking":"yes","information":"guidepost","name":"La Couttetaz","snowshoe":"yes","support":"pole","tourism":"information"}},
{"type":"Feature","geometry":{"type":"Point","coordinates":[6.7074886,46.3603771]},"properties":{"ele":"1100","hiking":"yes","information":"guidepost","name":"Les Chautets (Parking)","snowshoe":"yes","support":"pole","tourism":"information"}},
{"type":"Feature","geometry":{"type":"Point","coordinates":[6.7483994,46.3700758]},"properties":{"ele":"1816","mountain_pass":"yes","name":"Col de Parchet","natural":"saddle","source":"IGN - 2021-06"}},
{"type":"Feature","geometry":{"type":"Point","coordinates":[6.7313182,46.3529787]},"properties":{"ele":"2221","name":"Dent d'Oche","natural":"peak","wikidata":"Q1189865","wikimedia_commons":"Category:Dent d'Oche","wikipedia":"fr:Dent d'Oche"}},
{"type":"Feature","geometry":{"type":"Point","coordinates":[6.7302089,46.3527782]},"properties":{"historic":"wayside_cross"}},
{"type":"Feature","geometry":{"type":"Point","coordinates":[6.7678718,46.3624604]},"properties":{"ele":"1205","hiking":"yes","information":"guidepost","mtb":"yes","tourism":"information"}},
{"type":"Feature","geometry":{"type":"Point","coordinates":[6.6894396,46.3710833]},"properties":{"ele":"1165","hiking":"yes","information":"guidepost","mtb":"yes","name":"Col de la Creusaz","operator":"CC Pays d'Evian et Vallée d'Abondance","tourism":"information"}},
{"type":"Feature","geometry":{"type":"Point","coordinates":[6.6986887,46.3746474]},"properties":{"ele":"1210","hiking":"yes","information":"guidepost","name":"Bois de la Corne","operator":"Conseil départemental de la Haute-Savoie","operator:wikidata":"Q23782116","operator:wikipedia":"fr:Conseil départemental de la Haute-Savoie","tourism":"information"}},
{"type":"Feature","geometry":{"type":"Point","coordinates":[6.6757952,46.3571956]},"properties":{"leaf_type":"broadleaved","natural":"tree"}},
{"type":"Feature","geometry":{"type":"Point","coordinates":[6.7499086,46.3414214]},"properties":{"ele":"1925","name":"Col de Floray","natural":"saddle","source":"cadastre-dgi-fr source : Direction Générale des Impôts - Cadastre;mise à jour : 2008"}},
{"type":"Feature","geometry":{"type":"Point","coordinates":[6.7667989,46.3310783]},"properties":{"ele":"1510","hiking":"yes","information":"guidepost","name":"Chalets de Bise","tourism":"information"}},
{"type":"Feature","geometry":{"type":"Point","coordinates":[6.7679925,46.3303069]},"properties":{"board_type":"geology","information":"board","name":"Le Lac de Bise, un lac d'écroulement","operator":"Géoparc du Chablais","operator:wikidata":"Q21283529","operator:wikipedia":"fr:Géoparc mondial Unesco du Chablais","tourism":"information"}},
{"type":"Feature","geometry":{"type":"Point","coordinates":[6.6850033,46.3681767]},"properties":{"denomination":"roman_catholic","historic":"wayside_cross","religion":"christian"}},
{"type":"Feature","geometry":{"type":"Point","coordinates":[6.6848987,46.3682683]},"properties":{"denomination":"roman_catholic","historic":"wayside_shrine","religion":"christian"}},
{"type":"Feature","geometry":{"type":"Point","coordinates":[6.6844409,46.3673384]},"properties":{"information":"guidepost","tourism":"information"}},
{"type":"Feature","geometry":{"type":"Point","coordinates":[6.6818267,46.3667362]},"properties":{"information":"board","name":"Oche, un refuge panoramique","tourism":"information"}},
{"type":"Feature","geometry":{"type":"Point","coordinates":[6.6747733,46.3685025]},"properties":{"board_type":"history","information":"board","name":"Il y avait un vieux chalet","tourism":"information"}},
{"type":"Feature","geometry":{"type":"Point","coordinates":[6.6746413,46.3685192]},"properties":{"hiking":"yes","information":"guidepost","tourism":"information"}},
{"type":"Feature","geometry":{"type":"Point","coordinates":[6.6744045,46.368528]},"properties":{"hiking":"yes","information":"guidepost","tourism":"information"}},
{"type":"Feature","geometry":{"type":"Point","coordinates":[6.6716973,46.3672219]},"properties":{"information":"board","name":"L'Érosion","tourism":"information"}},
{"type":"Feature","geometry":{"type":"Point","coordinates":[6.665888,46.3681084]},"properties":{"information":"board","name":"Le Chablais et son fromage","tourism":"information"}},
{"type":"Feature","geometry":{"type":"Point","coordinates":[6.6737687,46.374434]},"properties":{"information":"board","name":"Tous les bois sont dans la Nature","tourism":"information"}},
{"type":"Feature","geometry":{"type":"Point","coordinates":[6.6763319,46.3740468]},"properties":{"information":"board","name":"Le Tsunami lémanique","tourism":"information"}},
{"type":"Feature","geometry":{"type":"Point","coordinates":[6.6770001,46.3735062]},"properties":{"information":"guidepost","tourism":"information"}},
{"type":"Feature","geometry":{"type":"Point","coordinates":[6.6793939,46.3740519]},"properties":{"information":"board","name":"La Naissance du Léman","tourism":"information"}},
{"type":"Feature","geometry":{"type":"Point","coordinates":[6.6826247,46.376449]},"properties":{"information":"board","name":"Les Mémises","tourism":"information"}},
{"type":"Feature","geometry":{"type":"Point","coordinates":[6.6859952,46.3746239]},"properties":{"information":"board","name":"L'étagement de la végétation","tourism":"information"}},
{"type":"Feature","geometry":{"type":"Point","coordinates":[6.6889648,46.3702169]},"properties":{"information":"board","name":"L'Alpage","tourism":"information"}},
{"type":"Feature","geometry":{"type":"Point","coordinates":[6.6932163,46.3452727]},"properties":{"ele":"1335","hiking":"yes","information":"guidepost","name":"Rocher des Pellys","operator":"Conseil départemental de la Haute-Savoie","operator:wikidata":"Q23782116","operator:wikipedia":"fr:Conseil départemental de la Haute-Savoie","tourism":"information"}},
{"type":"Feature","geometry":{"type":"Point","coordinates":[6.6888517,46.3434188]},"properties":{"ele":"1342","hiking":"yes","information":"guidepost","mtb":"yes","name":"Col des Bœufs","operator":"CC Pays d'Evian et Vallée d'Abondance","operator:wikidata":"Q23782116","operator:wikipedia":"fr:Conseil départemental de la Haute-Savoie","tourism":"information"}},
{"type":"Feature","geometry":{"type":"Point","coordinates":[6.6844019,46.3447676]},"properties":{"denomination":"roman_catholic","historic":"wayside_cross","material":"wood","religion":"christian"}},
{"type":"Feature","geometry":{"type":"Point","coordinates":[6.6864532,46.343534]},"properties":{"ele":"1470","hiking":"yes","information":"guidepost","mtb":"yes","name":"Sous Mont Baron","operator":"CC Pays d'Evian et Vallée d'Abondance","operator:wikidata":"Q23782116","operator:wikipedia":"fr:Conseil départemental de la Haute-Savoie","tourism":"information"}},
{"type":"Feature","geometry":{"type":"Point","coordinates":[6.6996918,46.3442862]},"properties":{"historic":"wayside_cross"}},
{"type":"Feature","geometry":{"type":"Point","coordinates":[6.7284841,46.3526197]},"properties":{"leisure":"outdoor_seating","operator":"Refuge de la Dent d'Oche","outdoor_seating":"veranda","outdoor_seating:comfort":"bench","weather_protection":"parasol","wheelchair":"no"}},
{"type":"Feature","geometry":{"type":"Point","coordinates":[6.7308171,46.3699332]},"properties":{"hiking":"yes","information":"route_marker","support":"pole","tourism":"information"}},
{"type":"Feature","geometry":{"type":"Point","coordinates":[6.7307702,46.3710705]},"properties":{"hiking":"yes","information":"route_marker","support":"pole","tourism":"information"}},
{"type":"Feature","geometry":{"type":"Point","coordinates":[6.7331828,46.3643281]},"properties":{"ele":"1770","hiking":"yes","information":"guidepost","name":"Chalet de Neuvaz Dessus","support":"pole","tourism":"information"}},
{"type":"Feature","geometry":{"type":"Point","coordinates":[6.7386337,46.3639488]},"properties":{"ele":"1775","hiking":"yes","information":"guidepost","name":"Col de Neuva","support":"pole","tourism":"information"}},
{"type":"Feature","geometry":{"type":"Point","coordinates":[6.738385,46.3639278]},"properties":{"ele":"1775","hiking":"yes","information":"guidepost","name":"Col de Neuva","support":"pole","tourism":"information"}},
{"type":"Feature","geometry":{"type":"Point","coordinates":[6.7315359,46.3643947]},"properties":{"hiking":"yes","information":"guidepost","name":"Neuvaz Dessus","tourism":"information"}},
{"type":"Feature","geometry":{"type":"Point","coordinates":[6.7144293,46.4037756]},"properties":{"name":"Grotte du Bois de la Corne","natural":"cave_entrance"}},
{"type":"Feature","geometry":{"type":"Point","coordinates":[6.7182829,46.4067649]},"properties":{"denomination":"roman_catholic","historic":"wayside_shrine","religion":"christian","source":"IGN - 2021-06"}},
{"type":"Feature","geometry":{"type":"Point","coordinates":[6.7502695,46.3493496]},"properties":{"name":"OC 18-6","natural":"cave_entrance"}},
{"type":"Feature","geometry":{"type":"Point","coordinates":[6.7520794,46.3457937]},"properties":{"name":"PP 14-4","natural":"cave_entrance"}},
{"type":"Feature","geometry":{"type":"Point","coordinates":[6.75207,46.3458674]},"properties":{"name":"PP 14-5","natural":"cave_entrance"}},
{"type":"Feature","geometry":{"type":"Point","coordinates":[6.7515607,46.3462198]},"properties":{"name":"PP 14-6","natural":"cave_entrance"}},
{"type":"Feature","geometry":{"type":"Point","coordinates":[6.7699013,46.3605124]},"properties":{"information":"guidepost","tourism":"information"}},
{"type":"Feature","geometry":{"type":"Point","coordinates":[6.7462853,46.3328452]},"properties":{"name":"CH 11-1","natural":"cave_entrance"}},
{"type":"Feature","geometry":{"type":"Point","coordinates":[6.7515606,46.3372872]},"properties":{"ele":"1796","name":"Col de Bouaz","natural":"saddle"}},
{"type":"Feature","geometry":{"type":"Point","coordinates":[6.7482395,46.3315934]},"properties":{"name":"CH 11-2","natural":"cave_entrance"}},
{"type":"Feature","geometry":{"type":"Point","coordinates":[6.7005976,46.3560579]},"properties":{"name":"Notre-Dame de Maupas","natural":"cave_entrance","source":"IGN - 2022-03"}},
{"type":"Feature","geometry":{"type":"Point","coordinates":[6.6851652,46.3678571]},"properties":{"hiking":"yes","information":"guidepost","name":"Creusaz","tourism":"information"}},
{"type":"Feature","geometry":{"type":"Point","coordinates":[6.6760438,46.3613891]},"properties":{"denomination":"roman_catholic","historic":"wayside_cross","material":"concrete;metal","religion":"christian"}},
{"type":"Feature","geometry":{"type":"Point","coordinates":[6.6753758,46.3612878]},"properties":{"denotation":"urban","leaf_type":"broadleaved","natural":"tree"}},
{"type":"Feature","geometry":{"type":"Point","coordinates":[6.6750205,46.3596811]},"properties":{"bar":"yes","leisure":"outdoor_seating","outdoor_seating":"terrace","outdoor_seating:comfort":"chair","restaurant":"yes","weather_protection":"parasol"}},
{"type":"Feature","geometry":{"type":"Point","coordinates":[6.6910413,46.3574677]},"properties":{"denotation":"urban","leaf_type":"broadleaved","natural":"tree"}},
{"type":"Feature","geometry":{"type":"Point","coordinates":[6.6910695,46.3571719]},"properties":{"natural":"rock"}},
{"type":"Feature","geometry":{"type":"Point","coordinates":[6.6965525,46.3468757]},"properties":{"board_type":"geology","information":"board","name":"Le château qui s'écroule","name:en":"The Crumbling Castle","operator":"Géoparc du Chablais","operator:wikidata":"Q21283529","operator:wikipedia":"fr:Géoparc mondial Unesco du Chablais","tourism":"information"}},
{"type":"Feature","geometry":{"type":"Point","coordinates":[6.707905,46.3460186]},"properties":{"board_type":"notice","description":"Consignes à respecter dans les alpages","information":"board","name":"Bienvenue dans les alpages de Haute-Savoie","operator":"Conseil départemental de la Haute-Savoie","operator:wikidata":"Q23782116","operator:wikipedia":"fr:Conseil départemental de la Haute-Savoie","support":"poles","tourism":"information"}},
{"type":"Feature","geometry":{"type":"Point","coordinates":[6.7080726,46.3459037]},"properties":{"leisure":"outdoor_seating"}},
{"type":"Feature","geometry":{"type":"Point","coordinates":[6.6970528,46.3572228]},"properties":{"leisure":"outdoor_seating","outdoor_seating":"garden","outdoor_seating:comfort":"chair","restaurant":"yes","weather_protection":"parasol"}},
{"type":"Feature","geometry":{"type":"Point","coordinates":[6.6856029,46.3596496]},"properties":{"amenity":"post_box","operator":"La Poste","operator:wikidata":"Q373724","operator:wikipedia":"fr:La Poste (entreprise française)","post_box:type":"wall","ref":"A1R2R0","source":"data.gouv.fr:LaPoste - 05/2016"}},
{"type":"Feature","geometry":{"type":"Point","coordinates":[6.6597976,46.3652248]},"properties":{"ele":"1000","hiking":"yes","information":"guidepost","mtb":"yes","name":"La Beunaz","operator":"CC Pays d'Evian et Vallée d'Abondance","tourism":"information"}},
{"type":"Feature","geometry":{"type":"Point","coordinates":[6.6795748,46.3663184]},"properties":{"addr:housename":"Le Tirou","addr:housenumber":"437","addr:street":"Chemin du Chaudron","beds":"5","contact:email":"jp.birraux@orange.fr","contact:mobile":"+33 6 77 76 20 27","contact:phone":"+33 4 50 73 67 36","contact:website":"https://leschaletsdebenand.com/","name":"Les Chalets de Bénand","ref:FR:gites-de-france":"74G33018","rooms":"2","tourism":"chalet","wlan":"yes"}},
{"type":"Feature","geometry":{"type":"Point","coordinates":[6.689087,46.404439]},"properties":{"ele":"412","hiking":"yes","information":"guidepost","name":"Troubois","tourism":"information"}},
{"type":"Feature","geometry":{"type":"Point","coordinates":[6.6657065,46.402782]},"properties":{"historic":"memorial","memorial":"war_memorial"}},
{"type":"Feature","geometry":{"type":"Point","coordinates":[6.6663945,46.4028671]},"properties":{"denotation":"urban","leaf_type":"broadleaved","natural":"tree"}},
{"type":"Feature","geometry":{"type":"Point","coordinates":[6.6662483,46.4028528]},"properties":{"denotation":"urban","leaf_type":"broadleaved","natural":"tree"}},
{"type":"Feature","geometry":{"type":"Point","coordinates":[6.6660096,46.402831]},"properties":{"denotation":"urban","leaf_type":"broadleaved","natural":"tree"}},
{"type":"Feature","geometry":{"type":"Point","coordinates":[6.6659358,46.4028227]},"properties":{"denotation":"urban","leaf_type":"broadleaved","natural":"tree"}},
{"type":"Feature","geometry":{"type":"Point","coordinates":[6.715494,46.390575]},"properties":{"amenity":"post_box","operator":"La Poste","operator:wikidata":"Q373724","operator:wikipedia":"fr:La Poste (entreprise française)","post_box:type":"wall","ref":"A1R2Y8","source":"data.gouv.fr:LaPoste - 05/2016"}},
{"type":"Feature","geometry":{"type":"Point","coordinates":[6.6747393,46.3684974]},"properties":{"artwork_type":"installation","name":"Chaudron","tourism":"artwork"}},
{"type":"Feature","geometry":{"type":"Point","coordinates":[6.7189363,46.3700077]},"properties":{"ele":"1517","hiking":"yes","information":"guidepost","name":"Sur les Prés","support":"pole","tourism":"information"}},
{"type":"Feature","geometry":{"type":"Point","coordinates":[6.7189772,46.3700179]},"properties":{"information":"map","map_type":"toposcope","name":"Sur les Prés","source":"IGN - 2021-06","tourism":"information"}},
{"type":"Feature","geometry":{"type":"Point","coordinates":[6.7049143,46.3679543]},"properties":{"ele":"1320","hiking":"yes","information":"guidepost","name":"Sous l'Échelle","operator":"Conseil départemental de la Haute-Savoie","operator:wikidata":"Q23782116","operator:wikipedia":"fr:Conseil départemental de la Haute-Savoie","support":"pole","tourism":"information"}},
{"type":"Feature","geometry":{"type":"Point","coordinates":[6.705422,46.3706351]},"properties":{"ele":"1512","hiking":"yes","information":"guidepost","name":"Col de Pertuis","support":"pole","tourism":"information"}},
{"type":"Feature","geometry":{"type":"Point","coordinates":[6.707954,46.3724706]},"properties":{"board_type":"geology","information":"board","name":"Les Mémises, 245 millions d'années d'histoire...","operator":"Géoparc du Chablais","operator:wikidata":"Q21283529","operator:wikipedia":"fr:Géoparc mondial Unesco du Chablais","tourism":"information"}},
{"type":"Feature","geometry":{"type":"Point","coordinates":[6.7079164,46.3725131]},"properties":{"ele":"1520","hiking":"yes","information":"guidepost","mtb":"yes","operator":"CC Pays d'Evian et Vallée d'Abondance","support":"pole","tourism":"information"}},
{"type":"Feature","geometry":{"type":"Point","coordinates":[6.7151208,46.371039]},"properties":{"ele":"1670","hiking":"yes","information":"guidepost","name":"Crête du Grand Mottay","support":"pole","tourism":"information"}},
{"type":"Feature","geometry":{"type":"Point","coordinates":[6.7188545,46.3701294]},"properties":{"access":"yes","drinking_water":"no","fee":"no","name":"Chalet de Sur les Prés","operator":"Bernex","operator:wikidata":"Q333082","operator:wikipedia":"fr:Bernex (Haute-Savoie)","reservation":"no","shower":"no","toilets":"no","tourism":"wilderness_hut"}},
{"type":"Feature","geometry":{"type":"Point","coordinates":[6.6823482,46.3587982]},"properties":{"access":"yes","free_flying:official":"yes","free_flying:paragliding":"yes","free_flying:site":"landing","leisure":"pitch","lit":"no","name":"Atterrissage parapente de Bernex","sport":"free_flying","surface":"grass"}},
{"type":"Feature","geometry":{"type":"Point","coordinates":[6.67655,46.3584437]},"properties":{"leaf_type":"broadleaved","natural":"tree"}},
{"type":"Feature","geometry":{"type":"Point","coordinates":[6.6764648,46.3584737]},"properties":{"leaf_type":"broadleaved","natural":"tree"}},
{"type":"Feature","geometry":{"type":"Point","coordinates":[6.6763341,46.3584798]},"properties":{"leaf_type":"broadleaved","natural":"tree"}},
{"type":"Feature","geometry":{"type":"Point","coordinates":[6.676383,46.3584525]},"properties":{"leaf_type":"broadleaved","natural":"tree"}},
{"type":"Feature","geometry":{"type":"Point","coordinates":[6.676314,46.3584483]},"properties":{"leaf_type":"broadleaved","natural":"tree"}},
{"type":"Feature","geometry":{"type":"Point","coordinates":[6.6760739,46.358421]},"properties":{"leaf_type":"broadleaved","natural":"tree"}},
{"type":"Feature","geometry":{"type":"Point","coordinates":[6.6761128,46.3583979]},"properties":{"leaf_type":"broadleaved","natural":"tree"}},
{"type":"Feature","geometry":{"type":"Point","coordinates":[6.6761631,46.3583715]},"properties":{"leaf_type":"broadleaved","natural":"tree"}},
{"type":"Feature","geometry":{"type":"Point","coordinates":[6.6762026,46.3584205]},"properties":{"leaf_type":"broadleaved","natural":"tree"}},
{"type":"Feature","geometry":{"type":"Point","coordinates":[6.6760397,46.3584326]},"properties":{"leaf_type":"needleleaved","natural":"tree"}},
{"type":"Feature","geometry":{"type":"Point","coordinates":[6.6749849,46.3611087]},"properties":{"hiking":"yes","information":"guidepost","tourism":"information"}},
{"type":"Feature","geometry":{"type":"Point","coordinates":[6.6826876,46.3440151]},"properties":{"ele":"1530","hiking":"yes","information":"guidepost","mtb":"yes","operator":"CC Pays d'Evian et Vallée d'Abondance","support":"pole","tourism":"information"}},
{"type":"Feature","geometry":{"type":"Point","coordinates":[6.6763897,46.3464194]},"properties":{"ele":"1445","hiking":"yes","information":"guidepost","mtb":"yes","name":"Croix Grand Chesnay","operator":"CC Pays d'Evian et Vallée d'Abondance","support":"pole","tourism":"information"}},
{"type":"Feature","geometry":{"type":"Point","coordinates":[6.6638625,46.3457968]},"properties":{"ele":"1336","hiking":"yes","information":"guidepost","mtb":"yes","name":"Le Petit Chesnay","operator":"CC Pays d'Evian et Vallée d'Abondance","support":"pole","tourism":"information"}},
{"type":"Feature","geometry":{"type":"Point","coordinates":[6.7052236,46.3707924]},"properties":{"leisure":"picnic_table","lit":"no","material":"wood"}},
{"type":"Feature","geometry":{"type":"Point","coordinates":[6.6843733,46.3443188]},"properties":{"leaf_type":"needleleaved","natural":"tree"}},
{"type":"Feature","geometry":{"type":"Point","coordinates":[6.6725045,46.3443354]},"properties":{"leaf_type":"needleleaved","natural":"tree"}},
{"type":"Feature","geometry":{"type":"Point","coordinates":[6.6816723,46.3450816]},"properties":{"leaf_type":"needleleaved","natural":"tree"}},
{"type":"Feature","geometry":{"type":"Point","coordinates":[6.6684839,46.3469609]},"properties":{"leaf_type":"needleleaved","natural":"tree"}},
{"type":"Feature","geometry":{"type":"Point","coordinates":[6.6664186,46.3458278]},"properties":{"leaf_type":"needleleaved","natural":"tree"}},
{"type":"Feature","geometry":{"type":"Point","coordinates":[6.6655013,46.3444151]},"properties":{"leaf_type":"needleleaved","natural":"tree"}},
{"type":"Feature","geometry":{"type":"Point","coordinates":[6.6639081,46.3442521]},"properties":{"leaf_type":"needleleaved","natural":"tree"}},
{"type":"Feature","geometry":{"type":"Point","coordinates":[6.6631624,46.3443521]},"properties":{"leaf_type":"needleleaved","natural":"tree"}},
{"type":"Feature","geometry":{"type":"Point","coordinates":[6.6634387,46.3443966]},"properties":{"leaf_type":"needleleaved","natural":"tree"}},
{"type":"Feature","geometry":{"type":"Point","coordinates":[6.6643828,46.3446447]},"properties":{"leaf_type":"needleleaved","natural":"tree"}},
{"type":"Feature","geometry":{"type":"Point","coordinates":[6.6639054,46.3443725]},"properties":{"leaf_type":"needleleaved","natural":"tree"}},
{"type":"Feature","geometry":{"type":"Point","coordinates":[6.6637874,46.3444817]},"properties":{"leaf_type":"needleleaved","natural":"tree"}},
{"type":"Feature","geometry":{"type":"Point","coordinates":[6.6629612,46.3444836]},"properties":{"leaf_type":"needleleaved","natural":"tree"}},
{"type":"Feature","geometry":{"type":"Point","coordinates":[6.6623631,46.3458741]},"properties":{"leaf_type":"needleleaved","natural":"tree"}},
{"type":"Feature","geometry":{"type":"Point","coordinates":[6.6622934,46.3456334]},"properties":{"leaf_type":"needleleaved","natural":"tree"}},
{"type":"Feature","geometry":{"type":"Point","coordinates":[6.6630658,46.3447669]},"properties":{"leaf_type":"needleleaved","natural":"tree"}},
{"type":"Feature","geometry":{"type":"Point","coordinates":[6.6615826,46.3451983]},"properties":{"leaf_type":"needleleaved","natural":"tree"}},
{"type":"Feature","geometry":{"type":"Point","coordinates":[6.7259035,46.3354407]},"properties":{"name":"Darbon 19-11","natural":"cave_entrance"}},
{"type":"Feature","geometry":{"type":"Point","coordinates":[6.7395537,46.3497095]},"properties":{"name":"Tanne ê Chaw","natural":"cave_entrance"}},
{"type":"Feature","geometry":{"type":"Point","coordinates":[6.6814417,46.3725131]},"properties":{"name":"Mont Bénand","source":"data.gouv.fr:DATAtourisme - 05/2020","tourism":"viewpoint"}},
{"type":"Feature","geometry":{"type":"Point","coordinates":[6.6821646,46.4067594]},"properties":{"historic":"memorial","memorial":"war_memorial"}},
{"type":"Feature","geometry":{"type":"Point","coordinates":[6.7720788,46.3822583]},"properties":{"name":"ME 21-1 (résurgences)","natural":"cave_entrance"}},
{"type":"Feature","geometry":{"type":"Point","coordinates":[6.6754076,46.3588465]},"properties":{"information":"guidepost","tourism":"information"}},
{"type":"Feature","geometry":{"type":"Point","coordinates":[6.7240687,46.3467198]},"properties":{"denomination":"roman_catholic","historic":"wayside_cross","material":"wood","religion":"christian"}},
{"type":"Feature","geometry":{"type":"Point","coordinates":[6.7282958,46.3475432]},"properties":{"ele":"1670","hiking":"yes","information":"guidepost","support":"pole","tourism":"information"}},
{"type":"Feature","geometry":{"type":"Point","coordinates":[6.731369,46.345701]},"properties":{"ele":"1750","hiking":"yes","information":"guidepost","name":"Lac de la Case","operator":"Conseil départemental de la Haute-Savoie","operator:wikidata":"Q23782116","operator:wikipedia":"fr:Conseil départemental de la Haute-Savoie","support":"pole","tourism":"information"}},
{"type":"Feature","geometry":{"type":"Point","coordinates":[6.7340022,46.346735]},"properties":{"ele":"1770","hiking":"yes","information":"guidepost","name":"Oche","operator":"Conseil départemental de la Haute-Savoie","operator:wikidata":"Q23782116","operator:wikipedia":"fr:Conseil départemental de la Haute-Savoie","support":"pole","tourism":"information"}},
{"type":"Feature","geometry":{"type":"Point","coordinates":[6.7481878,46.3475812]},"properties":{"ele":"1910","hiking":"yes","information":"guidepost","support":"pole","tourism":"information"}},
{"type":"Feature","geometry":{"type":"Point","coordinates":[6.7247875,46.3473738]},"properties":{"ele":"1630","hiking":"yes","information":"guidepost","name":"Chalets d'Oche","operator":"Conseil départemental de la Haute-Savoie","operator:wikidata":"Q23782116","operator:wikipedia":"fr:Conseil départemental de la Haute-Savoie","support":"pole","tourism":"information"}},
{"type":"Feature","geometry":{"type":"Point","coordinates":[6.6576833,46.3448277]},"properties":{"historic":"wayside_cross"}},
{"type":"Feature","geometry":{"type":"Point","coordinates":[6.6572019,46.3666365]},"properties":{"denomination":"roman_catholic","historic":"wayside_shrine","religion":"christian"}},
{"type":"Feature","geometry":{"type":"Point","coordinates":[6.7041264,46.352468]},"properties":{"denomination":"roman_catholic","historic":"wayside_cross","religion":"christian"}},
{"type":"Feature","geometry":{"type":"Point","coordinates":[6.7039923,46.352206]},"properties":{"ele":"1110","hiking":"yes","information":"guidepost","name":"Malpasset","tourism":"information"}},
{"type":"Feature","geometry":{"type":"Point","coordinates":[6.709332,46.3377948]},"properties":{"source":"IGN - 2021-06","tourism":"viewpoint"}},
{"type":"Feature","geometry":{"type":"Point","coordinates":[6.7166014,46.3386531]},"properties":{"source":"IGN - 2021-06","tourism":"viewpoint"}},
{"type":"Feature","geometry":{"type":"Point","coordinates":[6.7171928,46.338049]},"properties":{"access":"yes","free_flying:official":"yes","free_flying:paragliding":"yes","free_flying:site":"takeoff","free_flying:site_orientation":"S","leisure":"pitch","lit":"no","name":"Décollage Parapente de Pelluaz","sport":"free_flying","surface":"grass"}},
{"type":"Feature","geometry":{"type":"Point","coordinates":[6.7189711,46.3700327]},"properties":{"tourism":"viewpoint"}},
{"type":"Feature","geometry":{"type":"Point","coordinates":[6.6912492,46.3737835]},"properties":{"denomination":"roman_catholic","historic":"wayside_cross","religion":"christian"}},
{"type":"Feature","geometry":{"type":"Point","coordinates":[6.6833206,46.3649842]},"properties":{"denomination":"roman_catholic","historic":"wayside_cross","religion":"christian"}},
{"type":"Feature","geometry":{"type":"Point","coordinates":[6.6744445,46.3684961]},"properties":{"denomination":"roman_catholic","historic":"wayside_cross","religion":"christian"}},
{"type":"Feature","geometry":{"type":"Point","coordinates":[6.6725957,46.3567795]},"properties":{"denomination":"roman_catholic","historic":"wayside_cross","religion":"christian"}},
{"type":"Feature","geometry":{"type":"Point","coordinates":[6.6753812,46.3588815]},"properties":{"information":"map","map_size":"region","map_type":"topo","tourism":"information"}},
{"type":"Feature","geometry":{"type":"Point","coordinates":[6.6753229,46.3588852]},"properties":{"board_type":"notice","information":"board","operator":"Géoparc du Chablais","operator:wikidata":"Q21283529","operator:wikipedia":"fr:Géoparc mondial Unesco du Chablais","tourism":"information"}},
{"type":"Feature","geometry":{"type":"Point","coordinates":[6.6753517,46.3589166]},"properties":{"denomination":"roman_catholic","historic":"wayside_shrine","religion":"christian"}},
{"type":"Feature","geometry":{"type":"Point","coordinates":[6.6955729,46.3581854]},"properties":{"denomination":"roman_catholic","historic":"wayside_cross","religion":"christian"}},
{"type":"Feature","geometry":{"type":"Point","coordinates":[6.69967,46.3579975]},"properties":{"man_made":"spring_box","natural":"spring","source":"IGN - 2021-06"}},
{"type":"Feature","geometry":{"type":"Point","coordinates":[6.6775612,46.3571254]},"properties":{"denomination":"roman_catholic","historic":"wayside_cross","religion":"christian"}},
{"type":"Feature","geometry":{"type":"Point","coordinates":[6.6582929,46.3802477]},"properties":{"denomination":"roman_catholic","historic":"wayside_cross","religion":"christian","source":"IGN - 2021-06"}},
{"type":"Feature","geometry":{"type":"Point","coordinates":[6.6617569,46.3758441]},"properties":{"denomination":"roman_catholic","historic":"wayside_shrine","religion":"christian"}},
{"type":"Feature","geometry":{"type":"Point","coordinates":[6.6763066,46.3862921]},"properties":{"denomination":"roman_catholic","historic":"wayside_cross","religion":"christian","source":"IGN - 2021-06"}},
{"type":"Feature","geometry":{"type":"Point","coordinates":[6.6758721,46.3860608]},"properties":{"denomination":"roman_catholic","historic":"wayside_shrine","religion":"christian","source":"IGN - 2021-06"}},
{"type":"Feature","geometry":{"type":"Point","coordinates":[6.6662174,46.3827202]},"properties":{"denomination":"roman_catholic","historic":"wayside_cross","religion":"christian","source":"IGN - 2021-06"}},
{"type":"Feature","geometry":{"type":"Point","coordinates":[6.6900234,46.3876737]},"properties":{"denomination":"roman_catholic","historic":"wayside_shrine","religion":"christian","source":"IGN - 2021-06"}},
{"type":"Feature","geometry":{"type":"Point","coordinates":[6.6911727,46.3886436]},"properties":{"denomination":"roman_catholic","historic":"wayside_shrine","religion":"christian","source":"IGN - 2021-06"}},
{"type":"Feature","geometry":{"type":"Point","coordinates":[6.7039923,46.3988662]},"properties":{"source":"IGN - 2021-06","tourism":"viewpoint"}},
{"type":"Feature","geometry":{"type":"Point","coordinates":[6.7036584,46.3971349]},"properties":{"denomination":"roman_catholic","historic":"wayside_shrine","religion":"christian","source":"IGN - 2021-06"}},
{"type":"Feature","geometry":{"type":"Point","coordinates":[6.7516666,46.3764946]},"properties":{"man_made":"spring_box","natural":"spring","source":"IGN - 2021-06"}},
{"type":"Feature","geometry":{"type":"Point","coordinates":[6.7378995,46.3929634]},"properties":{"source":"IGN - 2021-06","tourism":"viewpoint"}},
{"type":"Feature","geometry":{"type":"Point","coordinates":[6.7329602,46.3912568]},"properties":{"denomination":"roman_catholic","historic":"wayside_shrine","religion":"christian","source":"IGN - 2021-06"}},
{"type":"Feature","geometry":{"type":"Point","coordinates":[6.7271103,46.3909395]},"properties":{"denomination":"roman_catholic","historic":"wayside_cross","religion":"christian","source":"IGN - 2021-06"}},
{"type":"Feature","geometry":{"type":"Point","coordinates":[6.7269118,46.3909072]},"properties":{"denomination":"roman_catholic","historic":"wayside_cross","religion":"christian","source":"IGN - 2021-06"}},
{"type":"Feature","geometry":{"type":"Point","coordinates":[6.7265041,46.3908415]},"properties":{"hiking":"yes","information":"guidepost","tourism":"information"}},
{"type":"Feature","geometry":{"type":"Point","coordinates":[6.7266972,46.390872]},"properties":{"denomination":"roman_catholic","historic":"wayside_cross","religion":"christian","source":"IGN - 2021-06"}},
{"type":"Feature","geometry":{"type":"Point","coordinates":[6.7257692,46.3908637]},"properties":{"amenity":"place_of_worship","denomination":"roman_catholic","historic":"wayside_shrine","religion":"christian","source":"IGN - 2021-06"}},
{"type":"Feature","geometry":{"type":"Point","coordinates":[6.7256223,46.3907823]},"properties":{"hiking":"yes","information":"guidepost","tourism":"information"}},
{"type":"Feature","geometry":{"type":"Point","coordinates":[6.7121959,46.390317]},"properties":{"hiking":"yes","information":"guidepost","tourism":"information"}},
{"type":"Feature","geometry":{"type":"Point","coordinates":[6.7021644,46.3916342]},"properties":{"hiking":"yes","information":"guidepost","tourism":"information"}},
{"type":"Feature","geometry":{"type":"Point","coordinates":[6.7035632,46.3902333]},"properties":{"denomination":"roman_catholic","historic":"wayside_shrine","religion":"christian","source":"IGN - 2021-06"}},
{"type":"Feature","geometry":{"type":"Point","coordinates":[6.6596031,46.4025665]},"properties":{"denomination":"roman_catholic","historic":"wayside_cross","religion":"christian","source":"IGN - 2021-06"}},
{"type":"Feature","geometry":{"type":"Point","coordinates":[6.6583948,46.4027219]},"properties":{"denomination":"roman_catholic","historic":"wayside_shrine","name":"Saint-Anna","religion":"christian","source":"IGN - 2021-06"}},
{"type":"Feature","geometry":{"type":"Point","coordinates":[6.6722868,46.4048671]},"properties":{"denomination":"roman_catholic","historic":"wayside_cross","religion":"christian","source":"IGN - 2021-06"}},
{"type":"Feature","geometry":{"type":"Point","coordinates":[6.6830242,46.4041276]},"properties":{"access":"yes","free_flying:hanggliding":"yes","free_flying:paragliding":"yes","free_flying:site":"landing","leisure":"pitch","lit":"yes","name":"Atterrissage FFVL de Troubois","network":"FFVL","sport":"free_flying","surface":"grass","website":"https://intranet.ffvl.fr/sites_pratique/voir/13252"}},
{"type":"Feature","geometry":{"type":"Point","coordinates":[6.6893616,46.4044152]},"properties":{"denomination":"roman_catholic","historic":"wayside_shrine","religion":"christian","source":"IGN - 2021-06"}},
{"type":"Feature","geometry":{"type":"Point","coordinates":[6.6868631,46.3990101]},"properties":{"denomination":"roman_catholic","historic":"wayside_shrine","religion":"christian","source":"IGN - 2021-06"}},
{"type":"Feature","geometry":{"type":"Point","coordinates":[6.6729203,46.398328]},"properties":{"hiking":"yes","information":"guidepost","tourism":"information"}},
{"type":"Feature","geometry":{"type":"Point","coordinates":[6.6758975,46.3997319]},"properties":{"denomination":"roman_catholic","historic":"wayside_cross","religion":"christian","source":"IGN - 2021-06"}},
{"type":"Feature","geometry":{"type":"Point","coordinates":[6.6719668,46.4024944]},"properties":{"denomination":"roman_catholic","historic":"wayside_shrine","religion":"christian","source":"IGN - 2021-06"}},
{"type":"Feature","geometry":{"type":"Point","coordinates":[6.6611494,46.3959353]},"properties":{"denomination":"roman_catholic","historic":"wayside_cross","religion":"christian","source":"IGN - 2021-06"}},
{"type":"Feature","geometry":{"type":"Point","coordinates":[6.6627889,46.3985527]},"properties":{"denomination":"roman_catholic","historic":"wayside_cross","material":"wood","religion":"christian","source":"IGN - 2021-06","start_date":"2004"}},
{"type":"Feature","geometry":{"type":"Point","coordinates":[6.6615712,46.3982933]},"properties":{"denomination":"roman_catholic","historic":"wayside_shrine","religion":"christian","source":"IGN - 2021-06"}},
{"type":"Feature","geometry":{"type":"Point","coordinates":[6.750697,46.4000464]},"properties":{"denomination":"roman_catholic","historic":"wayside_cross","religion":"christian","source":"IGN - 2021-06"}},
{"type":"Feature","geometry":{"type":"Point","coordinates":[6.7549724,46.4027792]},"properties":{"denomination":"roman_catholic","historic":"wayside_cross","material":"wood","religion":"christian","source":"IGN - 2021-06"}},
{"type":"Feature","geometry":{"type":"Point","coordinates":[6.6648401,46.3989458]},"properties":{"denomination":"roman_catholic","historic":"wayside_shrine","religion":"christian","source":"IGN - 2021-06"}},
{"type":"Feature","geometry":{"type":"Point","coordinates":[6.690883,46.3398766]},"properties":{"denomination":"roman_catholic","historic":"wayside_cross","religion":"christian","source":"IGN - 2021-06"}},
{"type":"Feature","geometry":{"type":"Point","coordinates":[6.7314005,46.3359499]},"properties":{"denomination":"roman_catholic","historic":"wayside_cross","material":"wood","religion":"christian","source":"IGN - 2021-06"}},
{"type":"Feature","geometry":{"type":"Point","coordinates":[6.6640073,46.3312496]},"properties":{"denomination":"roman_catholic","historic":"wayside_shrine","religion":"christian","source":"IGN - 2021-06"}},
{"type":"Feature","geometry":{"type":"Point","coordinates":[6.7712056,46.382586]},"properties":{"name":"Trou du Boeule","natural":"cave_entrance"}},
{"type":"Feature","geometry":{"type":"Point","coordinates":[6.7418179,46.3773622]},"properties":{"name":"ME 10-1","natural":"cave_entrance"}},
{"type":"Feature","geometry":{"type":"Point","coordinates":[6.7430828,46.3704523]},"properties":{"name":"ME 11-1","natural":"cave_entrance"}},
{"type":"Feature","geometry":{"type":"Point","coordinates":[6.7313956,46.3669299]},"properties":{"ele":"1672","name":"ME 13-1","natural":"cave_entrance"}},
{"type":"Feature","geometry":{"type":"Point","coordinates":[6.7289495,46.3661825]},"properties":{"name":"ME 13-2","natural":"cave_entrance"}},
{"type":"Feature","geometry":{"type":"Point","coordinates":[6.7147383,46.3693048]},"properties":{"name":"ME 14-1","natural":"cave_entrance"}},
{"type":"Feature","geometry":{"type":"Point","coordinates":[6.709851,46.3779525]},"properties":{"name":"ME 14-2","natural":"cave_entrance"}},
{"type":"Feature","geometry":{"type":"Point","coordinates":[6.727193,46.3462023]},"properties":{"name":"Trou du Chalet Cassé","natural":"cave_entrance"}},
{"type":"Feature","geometry":{"type":"Point","coordinates":[6.6844303,46.3489]},"properties":{"name":"Grotte des Maquisards","natural":"cave_entrance"}},
{"type":"Feature","geometry":{"type":"Point","coordinates":[6.7187847,46.4066836]},"properties":{"historic":"memorial","memorial":"war_memorial","source":"IGN - 2022-03"}},
{"type":"Feature","geometry":{"type":"Point","coordinates":[6.6889455,46.369967]},"properties":{"bicycle":"yes","ele":"1165","hiking":"yes","information":"guidepost","name":"Col de la Creusaz (Parking)","operator":"Conseil départemental de la Haute-Savoie","operator:wikidata":"Q23782116","operator:wikipedia":"fr:Conseil départemental de la Haute-Savoie","tourism":"information"}},
{"type":"Feature","geometry":{"type":"Point","coordinates":[6.6888734,46.3701562]},"properties":{"ele":"1160","hiking":"yes","information":"guidepost","mtb":"yes","name":"Col de la Creusaz","operator":"CC Pays d'Evian et Vallée d'Abondance","operator:wikidata":"Q23782116","operator:wikipedia":"fr:Conseil départemental de la Haute-Savoie","tourism":"information"}},
{"type":"Feature","geometry":{"type":"Point","coordinates":[6.6891061,46.3707327]},"properties":{"ele":"1160","hiking":"yes","information":"guidepost","mtb":"yes","name":"Col de la Creusaz","operator":"CC Pays d'Evian et Vallée d'Abondance","operator:wikidata":"Q23782116","operator:wikipedia":"fr:Conseil départemental de la Haute-Savoie","tourism":"information"}},
{"type":"Feature","geometry":{"type":"Point","coordinates":[6.723256,46.3795339]},"properties":{"ele":"1598","hiking":"yes","information":"guidepost","name":"Télécabine (Gare supérieure)","operator":"Conseil départemental de la Haute-Savoie","operator:wikidata":"Q23782116","operator:wikipedia":"fr:Conseil départemental de la Haute-Savoie","tourism":"information"}},
{"type":"Feature","geometry":{"type":"Point","coordinates":[6.7253736,46.3801006]},"properties":{"ele":"1610","hiking":"yes","information":"guidepost","tourism":"information"}},
{"type":"Feature","geometry":{"type":"Point","coordinates":[6.7006416,46.3642026]},"properties":{"ele":"1250","hiking":"yes","information":"guidepost","name":"Bois de la Rasse","tourism":"information"}},
{"type":"Feature","geometry":{"type":"Point","coordinates":[6.6916495,46.3668489]},"properties":{"ele":"1250","hiking":"yes","information":"guidepost","mtb":"yes","name":"Sur la Rasse","operator":"CC Pays d'Evian et Vallée d'Abondance","operator:wikidata":"Q23782116","operator:wikipedia":"fr:Conseil départemental de la Haute-Savoie","tourism":"information"}},
{"type":"Feature","geometry":{"type":"Point","coordinates":[6.7003673,46.3427644]},"properties":{"ele":"1425","hiking":"yes","information":"guidepost","mtb":"yes","name":"Chalets de Pré Richard","operator":"CC Pays d'Evian et Vallée d'Abondance","operator:wikidata":"Q23782116","operator:wikipedia":"fr:Conseil départemental de la Haute-Savoie","tourism":"information"}},
{"type":"Feature","geometry":{"type":"Point","coordinates":[6.6980982,46.3398748]},"properties":{"ele":"1508","hiking":"yes","information":"guidepost","mtb":"yes","name":"La Crouaz","operator":"CC Pays d'Evian et Vallée d'Abondance","operator:wikidata":"Q23782116","operator:wikipedia":"fr:Conseil départemental de la Haute-Savoie","tourism":"information"}},
{"type":"Feature","geometry":{"type":"Point","coordinates":[6.6959631,46.3465721]},"properties":{"ele":"1350","hiking":"yes","information":"guidepost","name":"Pré richard","tourism":"information"}},
{"type":"Feature","geometry":{"type":"Point","coordinates":[6.6965921,46.3465008]},"properties":{"information":"map","map_size":"site","map_type":"scheme","name":"Bernex","ski":"yes","tourism":"information"}},
{"type":"Feature","geometry":{"type":"Point","coordinates":[6.6967095,46.3468489]},"properties":{"board_type":"history","information":"board","name":"Un Téléski Bric et Broc","name:en":"A drag lift made of Bits and Pieces","operator":"Géoparc du Chablais","operator:wikidata":"Q21283529","operator:wikipedia":"fr:Géoparc mondial Unesco du Chablais","tourism":"information"}},
{"type":"Feature","geometry":{"type":"Point","coordinates":[6.6966994,46.3468529]},"properties":{"board_type":"history","information":"board","name":"L'aventure de l'or blanc","name:en":"The Adventure of the White Gold","operator":"Géoparc du Chablais","operator:wikidata":"Q21283529","operator:wikipedia":"fr:Géoparc mondial Unesco du Chablais","tourism":"information"}},
{"type":"Feature","geometry":{"type":"Point","coordinates":[6.6967336,46.3468281]},"properties":{"board_type":"nature","information":"board","name":"Dans l'oubliette du Château d'Oche","name:en":"In the Dungeons of the Château d'Oche","operator":"Géoparc du Chablais","operator:wikidata":"Q21283529","operator:wikipedia":"fr:Géoparc mondial Unesco du Chablais","tourism":"information"}},
{"type":"Feature","geometry":{"type":"Point","coordinates":[6.6967443,46.3467938]},"properties":{"leisure":"picnic_table","material":"wood"}},
{"type":"Feature","geometry":{"type":"Point","coordinates":[6.6977368,46.3469401]},"properties":{"ele":"1338","hiking":"yes","information":"guidepost","mtb":"yes","name":"Pré Richard (Parking)","operator":"CC Pays d'Evian et Vallée d'Abondance","operator:wikidata":"Q23782116","operator:wikipedia":"fr:Conseil départemental de la Haute-Savoie","tourism":"information"}},
{"type":"Feature","geometry":{"type":"Point","coordinates":[6.6974759,46.345638]},"properties":{"bicycle":"yes","ele":"1340","hiking":"yes","information":"guidepost","name":"L'Arête","operator":"Conseil départemental de la Haute-Savoie","operator:wikidata":"Q23782116","operator:wikipedia":"fr:Conseil départemental de la Haute-Savoie","tourism":"information"}},
{"type":"Feature","geometry":{"type":"Point","coordinates":[6.7642274,46.3297207]},"properties":{"board_type":"geology","information":"board","name":"Roche-mer, pli tectonique, érosion glaciaire","operator":"Géoparc du Chablais","operator:wikidata":"Q21283529","operator:wikipedia":"fr:Géoparc mondial Unesco du Chablais","tourism":"information"}},
{"type":"Feature","geometry":{"type":"Point","coordinates":[6.7640812,46.3296568]},"properties":{"board_type":"geology","information":"board","name":"Le karst, là où l'eau s'échappe","operator":"Géoparc du Chablais","operator:wikidata":"Q21283529","operator:wikipedia":"fr:Géoparc mondial Unesco du Chablais","tourism":"information"}},
{"type":"Feature","geometry":{"type":"Point","coordinates":[6.7655852,46.3304861]},"properties":{"board_type":"notice","description":"Consignes à respecter dans les alpages","information":"board","name":"Bienvenue dans les alpages de Haute-Savoie","operator":"Conseil départemental de la Haute-Savoie","operator:wikidata":"Q23782116","operator:wikipedia":"fr:Conseil départemental de la Haute-Savoie","support":"poles","tourism":"information"}},
{"type":"Feature","geometry":{"type":"Point","coordinates":[6.7658072,46.3341401]},"properties":{"hiking":"yes","information":"route_marker","support":"rock","tourism":"information"}},
{"type":"Feature","geometry":{"type":"Point","coordinates":[6.7579443,46.3399035]},"properties":{"hiking":"yes","information":"route_marker","support":"pole","tourism":"information"}},
{"type":"Feature","geometry":{"type":"Point","coordinates":[6.7645228,46.3300819]},"properties":{"hiking":"yes","information":"route_marker","support":"pole","tourism":"information"}},
{"type":"Feature","geometry":{"type":"Point","coordinates":[6.7479728,46.3341955]},"properties":{"hiking":"yes","information":"route_marker","support":"pole","tourism":"information"}},
{"type":"Feature","geometry":{"type":"Point","coordinates":[6.7443106,46.3333308]},"properties":{"hiking":"yes","information":"route_marker","support":"pole","tourism":"information"}},
{"type":"Feature","geometry":{"type":"Point","coordinates":[6.7401566,46.3320381]},"properties":{"board_type":"notice","description":"Quelques réflexes à adopter","information":"board","name":"Troupeau et Chiens de protection","tourism":"information"}},
{"type":"Feature","geometry":{"type":"Point","coordinates":[6.73695,46.3316247]},"properties":{"hiking":"yes","information":"route_marker","support":"pole","tourism":"information"}},
{"type":"Feature","geometry":{"type":"Point","coordinates":[6.7362399,46.3313589]},"properties":{"hiking":"yes","information":"route_marker","support":"pole","tourism":"information"}},
{"type":"Feature","geometry":{"type":"Point","coordinates":[6.734485,46.3301342]},"properties":{"hiking":"yes","information":"route_marker","support":"pole","tourism":"information"}},
{"type":"Feature","geometry":{"type":"Point","coordinates":[6.7348351,46.3294883]},"properties":{"ele":"1796","hiking":"yes","information":"guidepost","name":"Bouaz Dessus","operator":"Conseil départemental de la Haute-Savoie","operator:wikidata":"Q23782116","operator:wikipedia":"fr:Conseil départemental de la Haute-Savoie","support":"pole","tourism":"information"}},
{"type":"Feature","geometry":{"type":"Point","coordinates":[6.7190114,46.3637487]},"properties":{"hiking":"yes","information":"route_marker","support":"pole","tourism":"information"}},
{"type":"Feature","geometry":{"type":"Point","coordinates":[6.719753,46.3630361]},"properties":{"hiking":"yes","information":"route_marker","support":"pole","tourism":"information"}},
{"type":"Feature","geometry":{"type":"Point","coordinates":[6.7204772,46.3620116]},"properties":{"hiking":"yes","information":"guidepost","material":"wood","support":"pole","tourism":"information"}},
{"type":"Feature","geometry":{"type":"Point","coordinates":[6.7184159,46.3617422]},"properties":{"denomination":"roman_catholic","historic":"wayside_cross","material":"wood","religion":"christian"}},
{"type":"Feature","geometry":{"type":"Point","coordinates":[6.7190234,46.3614507]},"properties":{"hiking":"yes","information":"route_marker","support":"pole","tourism":"information"}},
{"type":"Feature","geometry":{"type":"Point","coordinates":[6.7198616,46.3593489]},"properties":{"ele":"1410","hiking":"yes","information":"guidepost","name":"La Frasse","support":"pole","tourism":"information"}},
{"type":"Feature","geometry":{"type":"Point","coordinates":[6.7198616,46.3593489]},"properties":{"ele":"1775","hiking":"yes","information":"guidepost","name":"Col de Neuva","support":"pole","tourism":"information"}},
{"type":"Feature","geometry":{"type":"Point","coordinates":[6.7331567,46.3613822]},"properties":{"hiking":"yes","information":"guidepost","material":"wood","ref":"14","support":"pole","tourism":"information"}},
{"type":"Feature","geometry":{"type":"Point","coordinates":[6.7376936,46.3631388]},"properties":{"hiking":"yes","information":"route_marker","support":"pole","tourism":"information"}},
{"type":"Feature","geometry":{"type":"Point","coordinates":[6.7315386,46.3643711]},"properties":{"hiking":"yes","information":"route_marker","support":"pole","tourism":"information"}},
{"type":"Feature","geometry":{"type":"Point","coordinates":[6.7305703,46.3654497]},"properties":{"hiking":"yes","information":"route_marker","support":"pole","tourism":"information"}},
{"type":"Feature","geometry":{"type":"Point","coordinates":[6.7062172,46.3599125]},"properties":{"leisure":"picnic_table","material":"wood"}},
{"type":"Feature","geometry":{"type":"Point","coordinates":[6.7342993,46.34701]},"properties":{"hiking":"yes","information":"route_marker","support":"pole","tourism":"information"}},
{"type":"Feature","geometry":{"type":"Point","coordinates":[6.7332948,46.3467878]},"properties":{"hiking":"yes","information":"route_marker","support":"pole","tourism":"information"}},
{"type":"Feature","geometry":{"type":"Point","coordinates":[6.7348887,46.3466022]},"properties":{"hiking":"yes","information":"route_marker","support":"rock","tourism":"information"}},
{"type":"Feature","geometry":{"type":"Point","coordinates":[6.7255985,46.3473322]},"properties":{"hiking":"yes","information":"route_marker","support":"pole","tourism":"information"}},
{"type":"Feature","geometry":{"type":"Point","coordinates":[6.7193829,46.3473886]},"properties":{"hiking":"yes","information":"route_marker","support":"pole","tourism":"information"}},
{"type":"Feature","geometry":{"type":"Point","coordinates":[6.7181048,46.3471313]},"properties":{"hiking":"yes","information":"route_marker","support":"pole","tourism":"information"}},
{"type":"Feature","geometry":{"type":"Point","coordinates":[6.7156787,46.3466707]},"properties":{"hiking":"yes","information":"route_marker","support":"pole","tourism":"information"}},
{"type":"Feature","geometry":{"type":"Point","coordinates":[6.7139581,46.3455427]},"properties":{"hiking":"yes","information":"route_marker","support":"pole","tourism":"information"}},
{"type":"Feature","geometry":{"type":"Point","coordinates":[6.7136663,46.3456454]},"properties":{"hiking":"yes","information":"route_marker","support":"pole","tourism":"information"}},
{"type":"Feature","geometry":{"type":"Point","coordinates":[6.7092709,46.3471873]},"properties":{"information":"guidepost","material":"wood","support":"pole","tourism":"information"}},
{"type":"Feature","geometry":{"type":"Point","coordinates":[6.6773801,46.3455714]},"properties":{"ele":"1440","hiking":"yes","information":"guidepost","mtb":"yes","name":"Le Chesnais","operator":"CC Pays d'Evian et Vallée d'Abondance","operator:wikidata":"Q23782116","operator:wikipedia":"fr:Conseil départemental de la Haute-Savoie","support":"pole","tourism":"information"}},
{"type":"Feature","geometry":{"type":"Point","coordinates":[6.7385271,46.3469808]},"properties":{"hiking":"yes","information":"route_marker","support":"rock","tourism":"information"}},
{"type":"Feature","geometry":{"type":"Point","coordinates":[6.7433926,46.3491878]},"properties":{"hiking":"yes","information":"route_marker","support":"rock","tourism":"information"}},
{"type":"Feature","geometry":{"type":"Point","coordinates":[6.7425129,46.3483482]},"properties":{"hiking":"yes","information":"route_marker","support":"rock","tourism":"information"}},
{"type":"Feature","geometry":{"type":"Point","coordinates":[6.7429756,46.3481783]},"properties":{"hiking":"yes","information":"route_marker","support":"rock","tourism":"information"}},
{"type":"Feature","geometry":{"type":"Point","coordinates":[6.7444816,46.3477247]},"properties":{"hiking":"yes","information":"route_marker","support":"rock","tourism":"information"}},
{"type":"Feature","geometry":{"type":"Point","coordinates":[6.7434215,46.3474437]},"properties":{"hiking":"yes","information":"route_marker","support":"rock","tourism":"information"}},
{"type":"Feature","geometry":{"type":"Point","coordinates":[6.7432914,46.3472775]},"properties":{"ele":"2024","hiking":"yes","information":"guidepost","name":"Le Château d'Oche (Dessous)","operator":"Conseil départemental de la Haute-Savoie","operator:wikidata":"Q23782116","operator:wikipedia":"fr:Conseil départemental de la Haute-Savoie","support":"pole","tourism":"information"}},
{"type":"Feature","geometry":{"type":"Point","coordinates":[6.7713792,46.3548395]},"properties":{"information":"guidepost","tourism":"information"}},
{"type":"Feature","geometry":{"type":"Point","coordinates":[6.7716535,46.3607369]},"properties":{"information":"guidepost","tourism":"information"}},
{"type":"Feature","geometry":{"type":"Point","coordinates":[6.750639,46.3643197]},"properties":{"denomination":"roman_catholic","historic":"wayside_cross","religion":"christian"}},
{"type":"Feature","geometry":{"type":"Point","coordinates":[6.7079587,46.3460292]},"properties":{"bicycle":"yes","ele":"1215","hiking":"yes","information":"guidepost","name":"La Fétuière","operator":"Conseil départemental de la Haute-Savoie","operator:wikidata":"Q23782116","operator:wikipedia":"fr:Conseil départemental de la Haute-Savoie","support":"pole","tourism":"information"}},
{"type":"Feature","geometry":{"type":"Point","coordinates":[6.7009494,46.3439249]},"properties":{"bicycle":"yes","hiking":"yes","information":"route_marker","support":"pole","tourism":"information"}},
{"type":"Feature","geometry":{"type":"Point","coordinates":[6.7072579,46.341052]},"properties":{"hiking":"yes","information":"route_marker","support":"pole","tourism":"information"}},
{"type":"Feature","geometry":{"type":"Point","coordinates":[6.7076924,46.341196]},"properties":{"hiking":"yes","information":"route_marker","support":"pole","tourism":"information"}},
{"type":"Feature","geometry":{"type":"Point","coordinates":[6.711931,46.3404488]},"properties":{"ele":"1635","hiking":"yes","information":"guidepost","name":"Combet","operator":"Conseil départemental de la Haute-Savoie","operator:wikidata":"Q23782116","operator:wikipedia":"fr:Conseil départemental de la Haute-Savoie","support":"pole","tourism":"information"}},
{"type":"Feature","geometry":{"type":"Point","coordinates":[6.7114301,46.3399331]},"properties":{"hiking":"yes","information":"route_marker","support":"pole","tourism":"information"}},
{"type":"Feature","geometry":{"type":"Point","coordinates":[6.709368,46.3377777]},"properties":{"hiking":"yes","information":"route_marker","support":"pole","tourism":"information"}},
{"type":"Feature","geometry":{"type":"Point","coordinates":[6.7093286,46.3378078]},"properties":{"information":"map","map_size":"landscape","map_type":"toposcope","source":"IGN - 2021-06","tourism":"information"}},
{"type":"Feature","geometry":{"type":"Point","coordinates":[6.7107347,46.3374508]},"properties":{"hiking":"yes","information":"route_marker","support":"pole","tourism":"information"}},
{"type":"Feature","geometry":{"type":"Point","coordinates":[6.7167751,46.338483600000007]},"properties":{"denomination":"roman_catholic","description":"remplace une croix mise en place en 1992. Taillé en 2019 mais installé uniquement en 2022 (Covid).","historic":"wayside_cross","inscription":"2019","material":"wood","religion":"christian","start_date":"2022-07-20"}},
{"type":"Feature","geometry":{"type":"Point","coordinates":[6.7187083,46.3381783]},"properties":{"historic":"memorial","inscription":"Maxime Arandel 1946-1999","memorial":"plaque","name":"Maxime Arandel"}},
{"type":"Feature","geometry":{"type":"Point","coordinates":[6.7230551,46.3415909]},"properties":{"ele":"1839","hiking":"yes","information":"guidepost","name":"Arête Nord de Pelluaz","operator":"Conseil départemental de la Haute-Savoie","operator:wikidata":"Q23782116","operator:wikipedia":"fr:Conseil départemental de la Haute-Savoie","support":"pole","tourism":"information"}},
{"type":"Feature","geometry":{"type":"Point","coordinates":[6.7280045,46.3439169]},"properties":{"ele":"1810","hiking":"yes","information":"guidepost","name":"Col de la Case d'Oche","operator":"Conseil départemental de la Haute-Savoie","operator:wikidata":"Q23782116","operator:wikipedia":"fr:Conseil départemental de la Haute-Savoie","support":"pole","tourism":"information"}},
{"type":"Feature","geometry":{"type":"Point","coordinates":[6.7324023,46.3455195]},"properties":{"ele":"1750","hiking":"yes","information":"guidepost","name":"Lac de la Case","operator":"Conseil départemental de la Haute-Savoie","operator:wikidata":"Q23782116","operator:wikipedia":"fr:Conseil départemental de la Haute-Savoie","support":"pole","tourism":"information"}},
{"type":"Feature","geometry":{"type":"Point","coordinates":[6.7243201,46.3467776]},"properties":{"denomination":"roman_catholic","historic":"wayside_shrine","religion":"christian"}},
{"type":"Feature","geometry":{"type":"Point","coordinates":[6.7241478,46.3468253]},"properties":{"denomination":"roman_catholic","historic":"wayside_shrine","religion":"christian"}},
{"type":"Feature","geometry":{"type":"Point","coordinates":[6.7086138,46.3464027]},"properties":{"bicycle":"yes","hiking":"yes","information":"route_marker","support":"pole","tourism":"information"}},
{"type":"Feature","geometry":{"type":"Point","coordinates":[6.6760907,46.3614141]},"properties":{"ele":"950","hiking":"yes","information":"guidepost","name":"Le Sonjon","operator":"Conseil départemental de la Haute-Savoie","operator:wikidata":"Q23782116","operator:wikipedia":"fr:Conseil départemental de la Haute-Savoie","support":"pole","tourism":"information"}},
{"type":"Feature","geometry":{"type":"Point","coordinates":[6.7087144,46.3416168]},"properties":{"historic":"memorial","material":"granite","memorial":"plaque","name":"Dominique Blanc & Jacky Dutruel"}},
{"type":"Feature","geometry":{"type":"Point","coordinates":[6.718465,46.4080615]},"properties":{"ele":"383","information":"guidepost","name":"Meillerie (Débarcadère)","operator":"CC Pays d'Evian et Vallée d'Abondance","tourism":"information"}},
{"type":"Feature","geometry":{"type":"Point","coordinates":[6.7193355,46.4054848]},"properties":{"ele":"451","hiking":"yes","information":"guidepost","name":"Bois Coment","operator":"CC Pays d'Evian et Vallée d'Abondance","tourism":"information"}},
{"type":"Feature","geometry":{"type":"Point","coordinates":[6.7222689,46.4048374]},"properties":{"ele":"470","hiking":"yes","information":"guidepost","name":"Pierre à J. Jacques Rousseau","operator":"CC Pays d'Evian et Vallée d'Abondance","tourism":"information"}},
{"type":"Feature","geometry":{"type":"Point","coordinates":[6.7229786,46.4046148]},"properties":{"ele":"470","hiking":"yes","information":"guidepost","name":"Carrière des Etalins","operator":"CC Pays d'Evian et Vallée d'Abondance","tourism":"information"}},
{"type":"Feature","geometry":{"type":"Point","coordinates":[6.7239052,46.4047317]},"properties":{"ele":"480","information":"guidepost","name":"Pré Founet","operator":"CC  Pays d'Evian et Vallée d'Abondance","tourism":"information"}},
{"type":"Feature","geometry":{"type":"Point","coordinates":[6.7270586,46.4030379]},"properties":{"ele":"680","information":"guidepost","name":"La Fauconnière","operator":"CC Pays d'Evian et Vallée d'Abondance","tourism":"information"}},
{"type":"Feature","geometry":{"type":"Point","coordinates":[6.7289234,46.3982565]},"properties":{"ele":"860","hiking":"yes","information":"guidepost","name":"Les Reboux","operator":"CC Pays d'Evian et Vallée d'Abondance","tourism":"information"}},
{"type":"Feature","geometry":{"type":"Point","coordinates":[6.7111277,46.395541]},"properties":{"ele":"960","information":"guidepost","name":"Le Maravant","operator":"CC Pays d'Evian et Vallée d'Abondance","tourism":"information"}},
{"type":"Feature","geometry":{"type":"Point","coordinates":[6.7090683,46.3962889]},"properties":{"ele":"950","information":"guidepost","name":"La Rassetaz","operator":"CC Pays d'Evian et Vallée d'Abondance","tourism":"information"}},
{"type":"Feature","geometry":{"type":"Point","coordinates":[6.7032709,46.3971006]},"properties":{"ele":"945","information":"guidepost","name":"Le Hucel","operator":"CC Pays d'Evian et Vallée d'Abondance","tourism":"information"}},
{"type":"Feature","geometry":{"type":"Point","coordinates":[6.7028276,46.3981096]},"properties":{"ele":"930","information":"guidepost","name":"La fin du Hucel","operator":"CC Pays d'Evian et Vallée d'Abondance","tourism":"information"}},
{"type":"Feature","geometry":{"type":"Point","coordinates":[6.6959563,46.4015723]},"properties":{"ele":"620","information":"guidepost","name":"La Grande Côte","operator":"CC Pays d'Evian et Vallée d'Abondance","tourism":"information"}},
{"type":"Feature","geometry":{"type":"Point","coordinates":[6.7019352,46.404118]},"properties":{"ele":"610","hiking":"yes","information":"guidepost","name":"Les Mollards","operator":"CC Pays d'Evian et Vallée d'Abondance","tourism":"information"}},
{"type":"Feature","geometry":{"type":"Point","coordinates":[6.7017138,46.3936524]},"properties":{"historic":"wayside_shrine"}},
{"type":"Feature","geometry":{"type":"Point","coordinates":[6.7044547,46.3989415]},"properties":{"information":"board","tourism":"information"}},
{"type":"Feature","geometry":{"type":"Point","coordinates":[6.7262828,46.3501075]},"properties":{"hiking":"yes","information":"route_marker","support":"rock","tourism":"information"}},
{"type":"Feature","geometry":{"type":"Point","coordinates":[6.7262969,46.3501468]},"properties":{"hiking":"yes","information":"route_marker","support":"rock","tourism":"information"}},
{"type":"Feature","geometry":{"type":"Point","coordinates":[6.7246078,46.3513035]},"properties":{"ele":"1915","hiking":"yes","information":"guidepost","name":"Col de Rebollion","operator":"Conseil départemental de la Haute-Savoie","operator:wikidata":"Q23782116","operator:wikipedia":"fr:Conseil départemental de la Haute-Savoie","support":"pole","tourism":"information"}},
{"type":"Feature","geometry":{"type":"Point","coordinates":[6.7236965,46.3515499]},"properties":{"hiking":"yes","information":"route_marker","support":"pole","tourism":"information"}},
{"type":"Feature","geometry":{"type":"Point","coordinates":[6.7236368,46.3516261]},"properties":{"hiking":"yes","information":"route_marker","support":"rock","tourism":"information"}},
{"type":"Feature","geometry":{"type":"Point","coordinates":[6.7235403,46.3516649]},"properties":{"hiking":"yes","information":"route_marker","support":"rock","tourism":"information"}},
{"type":"Feature","geometry":{"type":"Point","coordinates":[6.7239621,46.3518353]},"properties":{"hiking":"yes","information":"route_marker","support":"rock","tourism":"information"}},
{"type":"Feature","geometry":{"type":"Point","coordinates":[6.7241196,46.3521051]},"properties":{"hiking":"yes","information":"route_marker","support":"rock","tourism":"information"}},
{"type":"Feature","geometry":{"type":"Point","coordinates":[6.7240982,46.3521472]},"properties":{"hiking":"yes","information":"route_marker","support":"rock","tourism":"information"}},
{"type":"Feature","geometry":{"type":"Point","coordinates":[6.7248572,46.3530354]},"properties":{"hiking":"yes","information":"route_marker","support":"rock","tourism":"information"}},
{"type":"Feature","geometry":{"type":"Point","coordinates":[6.725456,46.3532177]},"properties":{"hiking":"yes","information":"route_marker","support":"rock","tourism":"information"}},
{"type":"Feature","geometry":{"type":"Point","coordinates":[6.7285949,46.3545803]},"properties":{"hiking":"yes","information":"route_marker","support":"rock","tourism":"information"}},
{"type":"Feature","geometry":{"type":"Point","coordinates":[6.7347834,46.36036]},"properties":{"hiking":"yes","natural":"spring","support":"pole"}},
{"type":"Feature","geometry":{"type":"Point","coordinates":[6.7295149,46.3608325]},"properties":{"denomination":"roman_catholic","historic":"wayside_shrine","religion":"christian"}},
{"type":"Feature","geometry":{"type":"Point","coordinates":[6.7205147,46.3588398]},"properties":{"information":"guidepost","material":"wood","ref":"8","support":"tree","tourism":"information"}},
{"type":"Feature","geometry":{"type":"Point","coordinates":[6.7185299,46.3598079]},"properties":{"hiking":"yes","information":"route_marker","support":"pole","tourism":"information"}},
{"type":"Feature","geometry":{"type":"Point","coordinates":[6.7145676,46.3566073]},"properties":{"hiking":"yes","information":"route_marker","support":"pole","tourism":"information"}},
{"type":"Feature","geometry":{"type":"Point","coordinates":[6.7116058,46.3530238]},"properties":{"information":"guidepost","material":"wood","tourism":"information"}},
{"type":"Feature","geometry":{"type":"Point","coordinates":[6.711587,46.3530696]},"properties":{"covered":"no","leisure":"picnic_table","material":"wood"}},
{"type":"Feature","geometry":{"type":"Point","coordinates":[6.7114985,46.3526859]},"properties":{"ele":"1295","hiking":"yes","information":"guidepost","name":"Le Tirou","operator":"Conseil départemental de la Haute-Savoie","operator:wikidata":"Q23782116","operator:wikipedia":"fr:Conseil départemental de la Haute-Savoie","support":"pole","tourism":"information"}},
{"type":"Feature","geometry":{"type":"Point","coordinates":[6.7095834,46.350686]},"properties":{"information":"guidepost","material":"wood","tourism":"information"}},
{"type":"Feature","geometry":{"type":"Point","coordinates":[6.7092488,46.3471998]},"properties":{"board_type":"notice","description":"Consignes à respecter dans les alpages","information":"board","name":"Bienvenue dans les alpages de Haute-Savoie, espaces naturels remarquables","name:en":"Welcome to the alpine pastures of Haute-Savoie, a remarkable natural area","operator":"Conseil départemental de la Haute-Savoie","operator:wikidata":"Q23782116","operator:wikipedia":"fr:Conseil départemental de la Haute-Savoie","support":"poles","tourism":"information"}},
{"type":"Feature","geometry":{"type":"Point","coordinates":[6.7197879,46.3476941]},"properties":{"denomination":"roman_catholic","historic":"wayside_cross","material":"wood","religion":"christian","source":"IGN - 2022-06"}},
{"type":"Feature","geometry":{"type":"Point","coordinates":[6.7314501,46.3366147]},"properties":{"denomination":"roman_catholic","historic":"wayside_cross","material":"wood","religion":"christian","source":"IGN - 2021-06"}},
{"type":"Feature","geometry":{"type":"Point","coordinates":[6.7320811,46.3359605]},"properties":{"hiking":"yes","information":"route_marker","support":"pole","tourism":"information"}},
{"type":"Feature","geometry":{"type":"Point","coordinates":[6.7323701,46.3364767]},"properties":{"hiking":"yes","information":"route_marker","support":"pole","tourism":"information"}},
{"type":"Feature","geometry":{"type":"Point","coordinates":[6.7317324,46.3353531]},"properties":{"ele":"1555","hiking":"yes","information":"guidepost","name":"Chalets de Darbon","operator":"Conseil départemental de la Haute-Savoie","operator:wikidata":"Q23782116","operator:wikipedia":"fr:Conseil départemental de la Haute-Savoie","support":"pole","tourism":"information"}},
{"type":"Feature","geometry":{"type":"Point","coordinates":[6.6873822,46.399493]},"properties":{"fixme":"D'après PDIPR et IGN, croisement ici. Donc logique à ce qu'il y est un poteau ici. A confirmer avec terrain.","information":"guidepost","tourism":"information"}},
{"type":"Feature","geometry":{"type":"Point","coordinates":[6.7078836,46.3460181]},"properties":{"board_type":"notice","description":"Consignes à respecter dans les alpages","information":"board","name":"Bienvenue dans les alpages de Haute-Savoie, espaces naturels remarquables","operator":"Conseil départemental de la Haute-Savoie","operator:wikidata":"Q23782116","operator:wikipedia":"fr:Conseil départemental de la Haute-Savoie","support":"poles","tourism":"information"}},
{"type":"Feature","geometry":{"type":"Point","coordinates":[6.7136241,46.3450178]},"properties":{"hiking":"yes","information":"route_marker","support":"pole","tourism":"information"}},
{"type":"Feature","geometry":{"type":"Point","coordinates":[6.742931,46.3456065]},"properties":{"ele":"1937","hiking":"yes","information":"guidepost","name":"Les Portes d'Oche","operator":"Conseil départemental de la Haute-Savoie","operator:wikidata":"Q23782116","operator:wikipedia":"fr:Conseil départemental de la Haute-Savoie","support":"rock","tourism":"information"}},
{"type":"Feature","geometry":{"type":"Point","coordinates":[6.7432136,46.3456394]},"properties":{"hiking":"yes","information":"route_marker","support":"rock","tourism":"information"}},
{"type":"Feature","geometry":{"type":"Point","coordinates":[6.7388738,46.3465305]},"properties":{"hiking":"yes","information":"route_marker","support":"rock","tourism":"information"}},
{"type":"Feature","geometry":{"type":"Point","coordinates":[6.7139849,46.3455487]},"properties":{"board_type":"notice","description":"Règles en vigueur dans l'espace pastoral protégé","information":"board","name":"Bienvenue à l'alpage des chalets d'Oche","tourism":"information"}},
{"type":"Feature","geometry":{"type":"Point","coordinates":[6.6917031,46.3612244]},"properties":{"denomination":"roman_catholic","historic":"wayside_cross","religion":"christian"}},
{"type":"Feature","geometry":{"type":"Point","coordinates":[6.6953791,46.3568466]},"properties":{"bicycle":"yes","hiking":"yes","information":"guidepost","support":"pole","tourism":"information"}},
{"type":"Feature","geometry":{"type":"Point","coordinates":[6.6754442,46.3621768]},"properties":{"denomination":"roman_catholic","historic":"wayside_shrine","religion":"christian"}},
{"type":"Feature","geometry":{"type":"Point","coordinates":[6.738157,46.3932307]},"properties":{"denomination":"roman_catholic","historic":"wayside_shrine","religion":"christian","source":"IGN - 2022-06"}},
{"type":"Feature","geometry":{"type":"Point","coordinates":[6.7257611,46.3908799]},"properties":{"name":"Pierre des Auguets","natural":"cave_entrance","source":"IGN - 2022-06"}},
{"type":"Feature","geometry":{"type":"Point","coordinates":[6.7094741,46.3905182]},"properties":{"denomination":"roman_catholic","historic":"wayside_shrine","religion":"christian","source":"IGN - 2022-06"}},
{"type":"Feature","geometry":{"type":"Point","coordinates":[6.6989364,46.388182]},"properties":{"denomination":"roman_catholic","historic":"wayside_cross","religion":"christian","source":"IGN - 2022-06"}},
{"type":"Feature","geometry":{"type":"Point","coordinates":[6.7641489,46.399119]},"properties":{"covered":"no","leisure":"picnic_table","material":"wood"}},
{"type":"Feature","geometry":{"type":"Point","coordinates":[6.7191602,46.364291]},"properties":{"board_type":"notice","description":"Consignes à respecter dans les alpages","information":"board","name":"Bienvenue dans les alpages de Haute-Savoie, espaces naturels remarquables","operator":"Conseil départemental de la Haute-Savoie","operator:wikidata":"Q23782116","operator:wikipedia":"fr:Conseil départemental de la Haute-Savoie","support":"poles","tourism":"information"}},
{"type":"Feature","geometry":{"type":"Point","coordinates":[6.7352575,46.3756082]},"properties":{"information":"guidepost","ski":"yes","tourism":"information"}},
{"type":"Feature","geometry":{"type":"Point","coordinates":[6.6776081,46.361721]},"properties":{"historic":"memorial","material":"stone","memorial":"war_memorial","memorial:conflict":"WW2","name":"Aux patriotes de la Resistance victimes des hordes allemandes","start_date":"1944-12-17"}},
{"type":"Feature","geometry":{"type":"Point","coordinates":[6.7338325,46.3819482]},"properties":{"ele":"1686","name":"Grand Pic des Mémises","natural":"peak"}},
{"type":"Feature","geometry":{"type":"Point","coordinates":[6.7569083,46.4019779]},"properties":{"bicycle":"yes","information":"guidepost","tourism":"information"}},
{"type":"Feature","geometry":{"type":"Point","coordinates":[6.753747,46.4026125]},"properties":{"hiking":"yes","information":"route_marker","tourism":"information"}},