{"type":"FeatureCollection","features":[
{"type":"Feature","geometry":{"type":"Point","coordinates":[1.8957748,47.898529]},"properties":{"addr:city":"Orléans","addr:housenumber":"44","addr:postcode":"45000","addr:street":"Quai Barentin","award:accueilvelo":"2024","bar":"yes","brand":"Mercure","brand:wikidata":"Q1709809","brand:wikipedia":"fr:Mercure (hôtels)","email":"H0581@accor.com","internet_access":"wlan","name":"Mercure hotel","phone":"+33 238621739","rooms":"111","smoking":"no","stars":"4","tourism":"hotel","website":"https://all.accor.com/hotel/0581/index.fr.shtml","wheelchair":"yes"}},
{"type":"Feature","geometry":{"type":"Point","coordinates":[1.9178021,47.8981134]},"properties":{"name":"Ecluse d'Orléans","seamark:type":"gate","waterway":"lock_gate"}},
{"type":"Feature","geometry":{"type":"Point","coordinates":[1.985439,47.8989514]},"properties":{"name":"Écluse de la Patache","seamark:type":"gate","waterway":"lock_gate"}},
{"type":"Feature","geometry":{"type":"Point","coordinates":[1.9022904,47.8848438]},"properties":{"barrier":"cycle_barrier","bicycle":"no","cycle_barrier":"triple","cycle_barrier:installation":"fixed","kissing_gate":"yes","wheelchair":"limited"}},
{"type":"Feature","geometry":{"type":"Point","coordinates":[1.9008637,47.8842687]},"properties":{"barrier":"cycle_barrier","bicycle":"no","cycle_barrier":"triple","cycle_barrier:installation":"fixed","kissing_gate":"yes","wheelchair":"limited"}},
{"type":"Feature","geometry":{"type":"Point","coordinates":[1.8542962,47.8978367]},"properties":{"brand":"B&B Hotels","brand:wikidata":"Q794939","brand:wikipedia":"fr:B&B Hotels","name":"B&B Hôtel","phone":"+33 892 788075","tourism":"hotel","wheelchair":"yes","wheelchair:description":"3 chambre adapte avec lit double, et la salle petit dej' au R de C."}},
{"type":"Feature","geometry":{"type":"Point","coordinates":[1.8892729,47.8940162]},"properties":{"leisure":"playground"}},
{"type":"Feature","geometry":{"type":"Point","coordinates":[1.8980054,47.9062274]},"properties":{"addr:city":"Orléans","addr:housenumber":"4","addr:postcode":"45000","addr:street":"Rue du Maréchal Foch","award:accueilvelo":"2014-2024","brand":"Ibis","brand:wikidata":"Q920166","brand:wikipedia":"fr:Ibis (chaîne d'hôtels)","contact:facebook":"https://www.facebook.com/people/ibis-Orl%C3%A9ans-Centre/100062809076326/","email":"H1397@accor.com","internet_access":"wlan","name":"Ibis","phone":"+33 238542311","rooms":"125","stars":"3","tourism":"hotel","website":"https://all.accor.com/hotel/1397/index.fr.shtml"}},
{"type":"Feature","geometry":{"type":"Point","coordinates":[1.9040665,47.9014868]},"properties":{"height":"5","highway":"street_lamp","lamp_mount":"wall","lamp_type":"electric","support":"wall_mounted"}},
{"type":"Feature","geometry":{"type":"Point","coordinates":[1.903338,47.90361]},"properties":{"artwork_type":"sculpture","description":"sculpture monumentale. Œuvre des sculpteurs Belmondo, Gili, Janiot et Poisson. Décor traité en bas-reliefs représentent la renaissance d’Orléans.","image":"https://anabf.org/pierredangle/media/pages/magazine/le-patrimoine-de-la-reconstruction-a-orleans-un-chantier-exprimental-en-devenir/6bda70200b-1592069666/capture-decran-2016-09-10-a-20.19.11.png","location":"wall","material":"stone","name":"Renaissance d’Orléans (Est)","panoramax":"628135a6-6af6-4400-b918-c71a99fe2eba","source":"https://anabf.org/pierredangle/magazine/le-patrimoine-de-la-reconstruction-a-orleans-un-chantier-exprimental-en-devenir","start_date":"1944","tourism":"artwork"}},
{"type":"Feature","geometry":{"type":"Point","coordinates":[1.907141,47.901728]},"properties":{"height":"5","highway":"street_lamp","lamp_mount":"wall","lamp_type":"electric","support":"wall_mounted"}},
{"type":"Feature","geometry":{"type":"Point","coordinates":[1.907367,47.901745]},"properties":{"height":"5","highway":"street_lamp","lamp_mount":"wall","lamp_type":"electric","support":"wall_mounted"}},
{"type":"Feature","geometry":{"type":"Point","coordinates":[1.903047,47.903576]},"properties":{"artist_name":"Marcel Gili","artwork_type":"sculpture","description":"sculpture monumentale. Œuvre des sculpteurs Belmondo, Gili, Janiot et Poisson. Décor traité en bas-reliefs représentent la renaissance d’Orléans.","image":"https://anabf.org/pierredangle/media/pages/magazine/le-patrimoine-de-la-reconstruction-a-orleans-un-chantier-exprimental-en-devenir/6bda70200b-1592069666/capture-decran-2016-09-10-a-20.19.11.png","location":"wall","material":"stone","name":"Renaissance d’Orléans (Ouest)","panoramax":"f5b3ba56-18ee-41a4-bde5-e8b4132796a3","source":"https://anabf.org/pierredangle/magazine/le-patrimoine-de-la-reconstruction-a-orleans-un-chantier-exprimental-en-devenir;https://www.orleans-metropole.fr/fileadmin/orleans/MEDIA/kiosque/ville_art_histoire/vdh_focus-architecture.pdf","start_date":"1947","tourism":"artwork"}},
{"type":"Feature","geometry":{"type":"Point","coordinates":[1.905007,47.9013792]},"properties":{"height":"5","highway":"street_lamp","lamp_mount":"wall","lamp_type":"electric","support":"wall_mounted"}},
{"type":"Feature","geometry":{"type":"Point","coordinates":[1.9074558,47.8994736]},"properties":{"addr:city":"Orléans","addr:housenumber":"29","addr:postcode":"45000","addr:street":"Rue du Poirier","description":"Taillandier: forgeron qui fabrique des outils tranchants.","name":"Taillanderie Alexis","shop":"gift","source":"cadastre-dgi-fr source : Direction Générale des Impôts - Cadastre. Mise à jour : 2011","start_date":"1882","tourism":"attraction","website":"https://sortir.orleans-metropole.fr/evenement/11529550/taillanderie-alexis_670"}},
{"type":"Feature","geometry":{"type":"Point","coordinates":[1.9013623,47.9075946]},"properties":{"historic":"memorial","material":"stone","memorial":"stele"}},
{"type":"Feature","geometry":{"type":"Point","coordinates":[1.9094748,47.9013099]},"properties":{"natural":"tree"}},
{"type":"Feature","geometry":{"type":"Point","coordinates":[1.9095705,47.9013182]},"properties":{"natural":"tree"}},
{"type":"Feature","geometry":{"type":"Point","coordinates":[1.9096661,47.9013265]},"properties":{"natural":"tree"}},
{"type":"Feature","geometry":{"type":"Point","coordinates":[1.9097618,47.9013349]},"properties":{"natural":"tree"}},
{"type":"Feature","geometry":{"type":"Point","coordinates":[1.9098575,47.9013432]},"properties":{"natural":"tree"}},
{"type":"Feature","geometry":{"type":"Point","coordinates":[1.9099532,47.9013515]},"properties":{"natural":"tree"}},
{"type":"Feature","geometry":{"type":"Point","coordinates":[1.9095579,47.9014061]},"properties":{"natural":"tree"}},
{"type":"Feature","geometry":{"type":"Point","coordinates":[1.9096563,47.9014136]},"properties":{"natural":"tree"}},
{"type":"Feature","geometry":{"type":"Point","coordinates":[1.9097547,47.901421]},"properties":{"natural":"tree"}},
{"type":"Feature","geometry":{"type":"Point","coordinates":[1.9098532,47.9014285]},"properties":{"natural":"tree"}},
{"type":"Feature","geometry":{"type":"Point","coordinates":[1.9099516,47.901436]},"properties":{"natural":"tree"}},
{"type":"Feature","geometry":{"type":"Point","coordinates":[1.91005,47.9014435]},"properties":{"natural":"tree"}},
{"type":"Feature","geometry":{"type":"Point","coordinates":[1.9101485,47.9014509]},"properties":{"natural":"tree"}},
{"type":"Feature","geometry":{"type":"Point","coordinates":[1.909646,47.9015046]},"properties":{"natural":"tree"}},
{"type":"Feature","geometry":{"type":"Point","coordinates":[1.9097434,47.9015122]},"properties":{"natural":"tree"}},
{"type":"Feature","geometry":{"type":"Point","coordinates":[1.9098407,47.9015199]},"properties":{"natural":"tree"}},
{"type":"Feature","geometry":{"type":"Point","coordinates":[1.9099381,47.9015276]},"properties":{"natural":"tree"}},
{"type":"Feature","geometry":{"type":"Point","coordinates":[1.9100354,47.9015353]},"properties":{"natural":"tree"}},
{"type":"Feature","geometry":{"type":"Point","coordinates":[1.9101328,47.901543]},"properties":{"natural":"tree"}},
{"type":"Feature","geometry":{"type":"Point","coordinates":[1.9095954,47.9021887]},"properties":{"leaf_type":"broadleaved","natural":"tree"}},
{"type":"Feature","geometry":{"type":"Point","coordinates":[1.9096953,47.9021966]},"properties":{"leaf_type":"broadleaved","natural":"tree"}},
{"type":"Feature","geometry":{"type":"Point","coordinates":[1.9097943,47.9022021]},"properties":{"leaf_type":"broadleaved","natural":"tree"}},
{"type":"Feature","geometry":{"type":"Point","coordinates":[1.9098903,47.9022081]},"properties":{"leaf_type":"broadleaved","natural":"tree"}},
{"type":"Feature","geometry":{"type":"Point","coordinates":[1.909301,47.9022269]},"properties":{"natural":"tree"}},
{"type":"Feature","geometry":{"type":"Point","coordinates":[1.9093953,47.9022292]},"properties":{"leaf_type":"broadleaved","natural":"tree"}},
{"type":"Feature","geometry":{"type":"Point","coordinates":[1.9095067,47.9022432]},"properties":{"leaf_type":"broadleaved","natural":"tree"}},
{"type":"Feature","geometry":{"type":"Point","coordinates":[1.9095827,47.9022493]},"properties":{"leaf_type":"broadleaved","natural":"tree"}},
{"type":"Feature","geometry":{"type":"Point","coordinates":[1.9098075,47.9022631]},"properties":{"leaf_type":"broadleaved","natural":"tree"}},
{"type":"Feature","geometry":{"type":"Point","coordinates":[1.9098903,47.90227]},"properties":{"leaf_type":"broadleaved","natural":"tree"}},
{"type":"Feature","geometry":{"type":"Point","coordinates":[1.9092776,47.9023207]},"properties":{"natural":"tree"}},
{"type":"Feature","geometry":{"type":"Point","coordinates":[1.9094794,47.9023236]},"properties":{"leaf_type":"broadleaved","natural":"tree"}},
{"type":"Feature","geometry":{"type":"Point","coordinates":[1.9095806,47.9023338]},"properties":{"leaf_type":"broadleaved","natural":"tree"}},
{"type":"Feature","geometry":{"type":"Point","coordinates":[1.9091077,47.9023516]},"properties":{"natural":"tree"}},
{"type":"Feature","geometry":{"type":"Point","coordinates":[1.9096846,47.9023473]},"properties":{"leaf_type":"broadleaved","natural":"tree"}},
{"type":"Feature","geometry":{"type":"Point","coordinates":[1.9097696,47.9023503]},"properties":{"leaf_type":"broadleaved","natural":"tree"}},
{"type":"Feature","geometry":{"type":"Point","coordinates":[1.9091514,47.9030468]},"properties":{"natural":"tree"}},
{"type":"Feature","geometry":{"type":"Point","coordinates":[1.9094195,47.9030972]},"properties":{"natural":"tree"}},
{"type":"Feature","geometry":{"type":"Point","coordinates":[1.907461,47.9028172]},"properties":{"description":"Arbre aux Quarante Écus","diameter":"3.71","height":"26","natural":"tree","species":"Ginkgo Biloba"}},
{"type":"Feature","geometry":{"type":"Point","coordinates":[1.9078892,47.9029016]},"properties":{"description":"Érable Sycomore","natural":"tree"}},
{"type":"Feature","geometry":{"type":"Point","coordinates":[1.9077398,47.9029086]},"properties":{"height":"20","leaf_type":"broadleaved","natural":"tree"}},
{"type":"Feature","geometry":{"type":"Point","coordinates":[1.9082922,47.9030029]},"properties":{"height":"20","leaf_cycle":"evergreen","leaf_type":"needleleaved","natural":"tree"}},
{"type":"Feature","geometry":{"type":"Point","coordinates":[1.9093336,47.9035609]},"properties":{"natural":"tree"}},
{"type":"Feature","geometry":{"type":"Point","coordinates":[1.9092373,47.9035621]},"properties":{"natural":"tree"}},
{"type":"Feature","geometry":{"type":"Point","coordinates":[1.9051471,47.9056639]},"properties":{"addr:city":"Orléans","addr:housenumber":"64","addr:postcode":"45000","addr:street":"Rue Alsace Lorraine","amenity":"cafe","award:accueilvelo":"2024","contact:email":"hoteldelabeille@wanadoo.fr","contact:facebook":"https://www.facebook.com/hoteldelabeille","contact:instagram":"https://www.instagram.com/hoteldelabeille","description":"Hôtel de l'Abeille et Salon de thé","email":"contact@hotel-abeille.com","name":"Hôtel de l'Abeille","opening_hours":"Mo-Su 10:30-19:00","phone":"+33 238535487","phone:mobile":"+33607980075","stars":"3","tourism":"hotel","website":"https://hotel-abeille.com/","website:menu":"https://hotel-abeille.com/services/","wheelchair":"no"}},
{"type":"Feature","geometry":{"type":"Point","coordinates":[1.9063161,47.8999637]},"properties":{"natural":"tree","source":"survey"}},
{"type":"Feature","geometry":{"type":"Point","coordinates":[1.9063445,47.9000218]},"properties":{"natural":"tree","source":"survey"}},
{"type":"Feature","geometry":{"type":"Point","coordinates":[1.9084633,47.9002789]},"properties":{"artist_name":"Daniel Leclercq","artwork_type":"statue","image":"https://i.pinimg.com/736x/75/98/65/759865fd66699f7063210a382072f228.jpg","image:2":"https://panoramax-storage-public-fast.s3.gra.perf.cloud.ovh.net/main-pictures/d3/5d/76/17/1403-461c-b06b-04371268b6e1.jpg","material":"bronze","name":"Statue de Jean Calvin","source":"cadastre-dgi-fr source : Direction Générale des Impôts - Cadastre. Mise à jour : 2012","start_date":"2009","tourism":"artwork"}},
{"type":"Feature","geometry":{"type":"Point","coordinates":[1.9091307,47.9001746]},"properties":{"artist_name":"MifaMosa","artwork_type":"mosaic","contact:facebook":"https://www.facebook.com/MifaMosa/","contact:instagram":"https://www.instagram.com/p/BkAUZR2nx9b/","image":"https://www.tourisme-orleansmetropole.com/assets/uploads/elementor/thumbs/orleans-metropole.rec.faire-savoir.com-orleans-et-le-street-art-street-art-orleans-mifamosa-p93189t6dcmbgt88ogu0hi94aom2xsnkqep3nigp8s.jpg","inscription":"C'est par oú ?","mapillary":"580589730012408","name":"Rue Parisie","ref":"80","start_date":"2018-06-08","tourism":"artwork"}},
{"type":"Feature","geometry":{"type":"Point","coordinates":[1.9101004,47.8601217]},"properties":{"historic":"wayside_cross"}},
{"type":"Feature","geometry":{"type":"Point","coordinates":[1.9018067,47.8851749]},"properties":{"barrier":"cycle_barrier","bicycle":"no","cycle_barrier":"triple","cycle_barrier:installation":"fixed","kissing_gate":"yes","wheelchair":"limited"}},
{"type":"Feature","geometry":{"type":"Point","coordinates":[1.9021952,47.9004827]},"properties":{"access":"yes","image":"https://panoramax.openstreetmap.fr/images/32/aa/80/90/6268-4127-a648-a7842c404dda.jpg","leisure":"playground","panoramax":"32aa8090-6268-4127-a648-a7842c404dda","playground":"slide"}},
{"type":"Feature","geometry":{"type":"Point","coordinates":[1.9002804,47.8946496]},"properties":{"access":"yes","leisure":"playground"}},
{"type":"Feature","geometry":{"type":"Point","coordinates":[1.8890803,47.8699406]},"properties":{"source":"fr.ign.bdortho"}},
{"type":"Feature","geometry":{"type":"Point","coordinates":[1.878091,47.8697474]},"properties":{"access":"yes","leisure":"playground","min_age":"1","name":"Aire de Jeux de la plaine des Martinets"}},
{"type":"Feature","geometry":{"type":"Point","coordinates":[1.8754034,47.870102]},"properties":{"access":"yes","leisure":"playground","max_age":"12","min_age":"6","name":"Château"}},
{"type":"Feature","geometry":{"type":"Point","coordinates":[1.9074037,47.9030061]},"properties":{"barrier":"gate","maxwidth:physical":"1","source":"cadastre-dgi-fr source : Direction Générale des Impôts - Cadastre. Mise à jour : 2012"}},
{"type":"Feature","geometry":{"type":"Point","coordinates":[1.9047895,47.9060527]},"properties":{"addr:city":"Orléans","addr:country":"FR","addr:housenumber":"37 ter","addr:postcode":"45000","addr:street":"Rue de la République","brand":"Best Western","brand:wikidata":"Q830334","brand:wikipedia":"fr:Best Western","email":"reception@bw-orleans.fr","image":"https://panoramax.openstreetmap.fr/images/90/0f/ae/73/45eb-4c16-bcae-ca5bc317ba78.jpg/photos/1024/28861426.jpg","internet_access":"wlan","internet_access:fee":"no","name":"Best Western Hôtel d'arc","phone":"+33 238531094","smoking":"no","stars":"4","tourism":"hotel","website":"https://www.bestwestern.fr/fr/hotel-Orleans-Best-Western-Hotel-d-Arc-93629","wheelchair":"no"}},
{"type":"Feature","geometry":{"type":"Point","coordinates":[1.9154016,47.8946461]},"properties":{"leisure":"slipway"}},
{"type":"Feature","geometry":{"type":"Point","coordinates":[1.9027546,47.9008551]},"properties":{"entrance":"main"}},
{"type":"Feature","geometry":{"type":"Point","coordinates":[1.9056395,47.8997468]},"properties":{"addr:housenumber":"6","addr:postcode":"45000","addr:street":"Rue Ducerceau","entrance":"main"}},
{"type":"Feature","geometry":{"type":"Point","coordinates":[1.903432,47.9004775]},"properties":{"check_date:opening_hours":"2024-11-03","fee":"yes","museum":"person","name":"Centre Charles Péguy","opening_hours:signed":"no","phone":"+33 2 38 79 25 60","ref:FR:museofile":"M0287","source":"Ministère de la Culture - Muséofile - 09/2019","tourism":"museum","website":"https://www.orleans-metropole.fr/histoire-patrimoine/lieux-celebres/hotel-euverte-hatte","wheelchair":"no"}},
{"type":"Feature","geometry":{"type":"Point","coordinates":[1.9039083,47.9002578]},"properties":{"artist_name":"Paul Belmondo","artwork_type":"statue","image":"http://petit-patrimoine.com/photos_pp/photo_pp_final/thumbs/sem_2009_1/45234_10_photo2_g.jpg","material":"stone","name":"La Baigneuse","tourism":"artwork"}},
{"type":"Feature","geometry":{"type":"Point","coordinates":[1.9084824,47.9001398]},"properties":{"denotation":"urban","height":"8","leaf_type":"broadleaved","natural":"tree"}},
{"type":"Feature","geometry":{"type":"Point","coordinates":[1.9084773,47.9002004]},"properties":{"denotation":"urban","height":"8","leaf_type":"broadleaved","natural":"tree"}},
{"type":"Feature","geometry":{"type":"Point","coordinates":[1.9084687,47.9002515]},"properties":{"denotation":"urban","height":"8","leaf_type":"broadleaved","natural":"tree"}},
{"type":"Feature","geometry":{"type":"Point","coordinates":[1.9100563,47.9027711]},"properties":{"natural":"tree"}},
{"type":"Feature","geometry":{"type":"Point","coordinates":[1.9040677,47.9023008]},"properties":{"historic":"archaeological_site","level":"-1","name":"Ancienne porte Bannier","wheelchair":"yes"}},
{"type":"Feature","geometry":{"type":"Point","coordinates":[1.9028016,47.870687]},"properties":{"artwork_type":"installation","image":"http://www.olivet.fr/sites/default/files/gallery/Horloge%20fleurie%20-%20%C2%A9%20ville%20d%20Olivet%20et%20Jean%20Puyo.jpg","name":"Horloge Fleurie","tourism":"artwork"}},
{"type":"Feature","geometry":{"type":"Point","coordinates":[1.9054445,47.8667413]},"properties":{"historic":"monument"}},
{"type":"Feature","geometry":{"type":"Point","coordinates":[1.8973516,47.9059807]},"properties":{"addr:city":"Orléans","addr:housename":"Appart City","addr:housenumber":"4","addr:postcode":"45000","addr:street":"Rue de Lahire","brand":"Appart'City","brand:wikidata":"Q101850226","image":"https://www.appartcity.com/uploads/media/image_hotel/0001/23/image_hotel_big/22011_218272300.jpg","internet_access":"wlan","name":"Appart City Hotel","operator":"Appart","phone":"+33277815450","stars":"3","tourism":"hotel","website":"https://www.appartcity.com/fr/destinations/centre/orleans/orleans.html"}},
{"type":"Feature","geometry":{"type":"Point","coordinates":[1.891356,47.894107]},"properties":{"leisure":"pitch","name":"Boulodrome","sport":"boules","surface":"gravel"}},
{"type":"Feature","geometry":{"type":"Point","coordinates":[1.8973587,47.8657844]},"properties":{"barrier":"gate"}},
{"type":"Feature","geometry":{"type":"Point","coordinates":[1.8782527,47.865615]},"properties":{"natural":"tree"}},
{"type":"Feature","geometry":{"type":"Point","coordinates":[1.8782232,47.8655394]},"properties":{"natural":"tree"}},
{"type":"Feature","geometry":{"type":"Point","coordinates":[1.8781933,47.8654746]},"properties":{"natural":"tree"}},
{"type":"Feature","geometry":{"type":"Point","coordinates":[1.8781772,47.8654063]},"properties":{"natural":"tree"}},
{"type":"Feature","geometry":{"type":"Point","coordinates":[1.9037972,47.9068515]},"properties":{"artist_name":"Joel Shapiron","artwork_type":"sculpture","image":"https://2.bp.blogspot.com/-uTSyANAcUDk/UiH5RrodvrI/AAAAAAAAHOM/hr8nMoiqV9E/s1600/IMG_6415.JPG","material":"metal","name":"Deux maisons","source":"https://www.larep.fr/orleans-45000/actualites/une-oeuvre-d-art-qui-divise-toujours-les-orleanais_1718001/","tourism":"artwork","wheelchair":"yes"}},
{"type":"Feature","geometry":{"type":"Point","coordinates":[1.905108,47.9061344]},"properties":{"addr:city":"Orléans","addr:housenumber":"40","addr:postcode":"45000","addr:street":"Rue de la République","brand":"Campanile","brand:wikidata":"Q2412064","brand:wikipedia":"fr:Campanile (chaîne d'hôtels)","check_date":"2024-03-10","image":"https://media.iceportal.com/79897/photos/67333165_XXL.jpg","internet_access":"yes","name":"Campanile Hôtel","payment:cash":"yes","payment:credit_cards":"yes","payment:debit_cards":"yes","phone":"+33 2 38532464","stars":"3","tourism":"hotel","website":"https://orleans-centre-gare.campanile.com/fr-fr/","wheelchair":"yes"}},
{"type":"Feature","geometry":{"type":"Point","coordinates":[1.9058754,47.8948942]},"properties":{"historic":"wayside_cross","name":"Bataille du fort des Tourelles - 1429","openplaques:id":"54283"}},
{"type":"Feature","geometry":{"type":"Point","coordinates":[1.9058427,47.8955751]},"properties":{"historic":"ruins","name":"Pont médiéval"}},
{"type":"Feature","geometry":{"type":"Point","coordinates":[1.7962522,47.8635584]},"properties":{"access":"permissive","barrier":"swing_gate","bicycle":"yes","foot":"yes","source":"cadastre-dgi-fr source : Direction Générale des Impôts - Cadastre. Mise à jour : 2014","swing_gate:type":"single"}},
{"type":"Feature","geometry":{"type":"Point","coordinates":[1.9089786,47.9023367]},"properties":{"artist_name":"André Bordes","artwork_type":"statue","image":"https://upload.wikimedia.org/wikipedia/commons/thumb/7/71/IFRA10081320_la_Beauce_d%27Andr%C3%A9_Bordes_rue_Paul_Belmondo.jpg/900px-IFRA10081320_la_Beauce_d%27Andr%C3%A9_Bordes_rue_Paul_Belmondo.jpg?20220206155549","image:2":"https://panoramax-storage-public-fast.s3.gra.perf.cloud.ovh.net/main-pictures/1e/bb/89/9b/48cf-4674-8c76-48ec8a8a7be5.jpg","material":"bronze","name":"La Beauce","start_date":"1983","tourism":"artwork"}},
{"type":"Feature","geometry":{"type":"Point","coordinates":[1.9091336,47.9011645]},"properties":{"artist:wikipedia":"https://fr.wikipedia.org/wiki/Hubert_Yencesse","artist_name":"Hubert Yencesse","artwork_type":"statue","mapillary":"163615562523756","material":"bronze","name":"La Loire","start_date":"1980","tourism":"artwork","wheelchair":"yes"}},
{"type":"Feature","geometry":{"type":"Point","coordinates":[1.908151,47.8988565]},"properties":{"access":"yes","leisure":"playground"}},
{"type":"Feature","geometry":{"type":"Point","coordinates":[1.9081948,47.9026275]},"properties":{"artist_name":"Marie d'Orléans","artwork_type":"sculpture","image":"https://upload.wikimedia.org/wikipedia/commons/thumb/7/75/H%C3%B4tel-Groslot-Orl%C3%A9ans-Jeanne-dArc_XPommeret.jpg/802px-H%C3%B4tel-Groslot-Orl%C3%A9ans-Jeanne-dArc_XPommeret.jpg?20110226184029","name":"Jeanne d'Arc en prière","tourism":"artwork","wheelchair":"yes"}},
{"type":"Feature","geometry":{"type":"Point","coordinates":[1.9078855,47.9031057]},"properties":{"barrier":"gate","maxwidth:physical":"1"}},
{"type":"Feature","geometry":{"type":"Point","coordinates":[1.9075168,47.9028019]},"properties":{"check_date":"2024-04-14","name":"Ginkgo Biloba","natural":"tree"}},
{"type":"Feature","geometry":{"type":"Point","coordinates":[1.907584,47.9028849]},"properties":{"height":"20","leaf_type":"broadleaved","name":"Arbre aux mouchoirs","natural":"tree","species":"Davidia involucrata","species:fr":"Arbre aux mouchoirs"}},
{"type":"Feature","geometry":{"type":"Point","coordinates":[1.9021115,47.9062625]},"properties":{"natural":"tree","species":"Ginko Biloba"}},
{"type":"Feature","geometry":{"type":"Point","coordinates":[1.9044139,47.9015208]},"properties":{"addr:city":"Orléans","addr:housenumber":"32","addr:postcode":"45000","addr:street":"Rue Jeanne d'Arc","image":"https://panoramax.openstreetmap.fr/images/04/b5/54/a5/8cf0-48d3-b452-c0aa1151826c.jpg","name":"L'Art Ancien","opening_hours":"Tu-Sa 10:00-12:00,14:00-19:00","ref:FR:SIRET":"44296162900015","source:image":"https://panoramax.openstreetmap.fr/#focus=pic&map=19.73/47.9014825/1.9043493&pic=04b554a5-8cf0-48d3-b452-c0aa1151826c&speed=250&xyz=331.90/2.74/20","tourism":"gallery","website":"http://www.artancien.fr/"}},
{"type":"Feature","geometry":{"type":"Point","coordinates":[1.9087528,47.9061264]},"properties":{"addr:city":"Orléans","addr:housenumber":"52","addr:postcode":"45000","addr:street":"Boulevard Alexandre Martin","award:accueilvelo":"2021-2024","contact:email":"contact@hotel-st-martin.fr","contact:website":"https://www.hotel-st-martin.fr/contact","image":"https://panoramax-storage-public-fast.s3.gra.perf.cloud.ovh.net/main-pictures/cf/63/ad/1a/3aab-4949-8d9f-f5faf51de506.jpg","name":"Hôtel Saint-Martin","phone":"+33 238530228","stars":"3","tourism":"hotel","website":"https://www.hotel-st-martin.fr/","wheelchair":"no"}},
{"type":"Feature","geometry":{"type":"Point","coordinates":[1.7964518,47.8635186]},"properties":{"barrier":"swing_gate","bicycle":"yes","foot":"yes","swing_gate:type":"single"}},
{"type":"Feature","geometry":{"type":"Point","coordinates":[1.9092749,47.9030828]},"properties":{"natural":"tree"}},
{"type":"Feature","geometry":{"type":"Point","coordinates":[1.9031318,47.8993147]},"properties":{"addr:city":"Orléans","addr:housenumber":"14","addr:postcode":"45000","addr:street":"Place du Vieux Marché","award:accueilvelo":"2024","contact:email":"reservation@hotel-marguerite.fr","contact:facebook":"https://www.facebook.com/people/H%C3%B4tel-Marguerite-Orl%C3%A9ans/100091150686754/","contact:instagram":"https://www.instagram.com/hotel_marguerite_orleans/","contact:phone":"+33 2 38 53 74 32","contact:website":"https://www.hotel-marguerite.fr","image":"https://panoramax-storage-public-fast.s3.gra.perf.cloud.ovh.net/main-pictures/a4/a0/25/0b/4fa9-4849-81fd-07207a214235.jpg","name":"Hôtel Marguerite","ref:FR:NAF":"55.10Z","ref:FR:SIRET":"90813048700022","rooms":"26","stars":"3","tourism":"hotel"}},
{"type":"Feature","geometry":{"type":"Point","coordinates":[1.9045326,47.9063487]},"properties":{"addr:city":"Orléans","addr:housenumber":"1","addr:postcode":"45000","addr:street":"Boulevard de Verdun","contact:facebook":"https://www.facebook.com/HotelArchange/","email":"HotelArchange@wanadoo.fr","internet_access":"wlan","name":"L'Archange","phone":"+33 2 38 54 42 42","ref:FR:SIRET":"83983860400016","stars":"2","tourism":"hotel"}},
{"type":"Feature","geometry":{"type":"Point","coordinates":[1.9048175,47.9033724]},"properties":{"addr:city":"Orléans","addr:housenumber":"6","addr:postcode":"45000","addr:street":"Rue Adolphe Crespin","animal_boarding":"dog","award:accueilvelo":"2024","bar":"yes","contact:email":"hotel.orleans@wanadoo.fr","contact:facebook":"https://www.facebook.com/lhoteldorleans","contact:instagram":"https://www.instagram.com/hoteldorleans","contact:website":"https://www.hoteldorleans.com/fr/contact","internet_access":"wlan","internet_access:fee":"no","name":"Hôtel d'Orléans","opening_hours":"24/7","phone":"+33 2 38 53 35 34⁠","stars":"3","tourism":"hotel","website":"https://www.hoteldorleans.com/fr","wheelchair":"yes"}},
{"type":"Feature","geometry":{"type":"Point","coordinates":[1.9089448,47.9035518]},"properties":{"addr:city":"Orléans","addr:housenumber":"4","addr:postcode":"45000","addr:street":"Rue Théophile Chollet","check_date:opening_hours":"2024-11-03","name":"Art Guichard","opening_hours:signed":"no","tourism":"gallery","website":"https://www.galerie-artguichard.com/","wheelchair":"no"}},
{"type":"Feature","geometry":{"type":"Point","coordinates":[1.8984866,47.9063885]},"properties":{"addr:city":"Orléans","addr:housenumber":"31","addr:postcode":"45000","addr:street":"Boulevard Rocheplatte","leisure":"sports_centre","name":"24 H Fitness"}},
{"type":"Feature","geometry":{"type":"Point","coordinates":[1.9007022,47.9066352]},"properties":{"addr:city":"Orléans","addr:housenumber":"24","addr:postcode":"45000","addr:street":"Boulevard Rocheplatte","leisure":"escape_game","name":"Escape Yourself","phone":"+323 246910637","website":"https://www.escapeyourselforleans.fr/"}},
{"type":"Feature","geometry":{"type":"Point","coordinates":[1.9009428,47.9083801]},"properties":{"addr:city":"Orléans","addr:housenumber":"13","addr:postcode":"45000","addr:street":"Rue du Faubourg Bannier","amenity":"restaurant","contact:facebook":"https://fr-fr.facebook.com/people/Hotel-restaurant-le-bannier/100030060801806/","description":"Hôtel - Restaurant","internet_access":"yes","internet_access:fee":"yes","name":"Le Bannier","opening_hours":"Mo-Fr 07:00-21:00; Sa 07:00-15:30","phone":"+33 238 53 25 86","ref:FR:SIRET":"48486213100014","smoking":"no","stars":"2","tourism":"hotel","wheelchair":"yes"}},
{"type":"Feature","geometry":{"type":"Point","coordinates":[1.90078,47.9088383]},"properties":{"addr:city":"Orléans","addr:housenumber":"29","addr:postcode":"45000","addr:street":"Rue du Faubourg Bannier","amenity":"bar","check_date:opening_hours":"2024-11-19","name":"Hôtel de Paris","opening_hours:signed":"no","phone":"+33 2 38 83 95 86","ref:FR:SIRET":"50527259100023","tourism":"hotel"}},
{"type":"Feature","geometry":{"type":"Point","coordinates":[1.9014047,47.9089412]},"properties":{"addr:city":"Orléans","addr:housenumber":"23","addr:postcode":"45000","addr:street":"Rue de Patay","dance:teaching":"yes","leisure":"dance","name":"Geraldine H","website":"https://www.geraldine-h.com/"}},
{"type":"Feature","geometry":{"type":"Point","coordinates":[1.9037494,47.9084656]},"properties":{"addr:city":"Orléans","addr:housenumber":"17","addr:postcode":"45000","addr:street":"Avenue de Paris","alt_name":"ibis Orleans Centre Gare","award:accueilvelo":"2024","bar":"yes","brand":"Ibis","brand:wikidata":"Q920166","brand:wikipedia":"fr:Ibis (chaîne d'hôtels)","email":"H0862@accor.com","internet_access":"wlan","name":"Ibis Hôtel","payment:american_express":"yes","payment:cash":"yes","payment:credit_cards":"yes","payment:mastercard":"yes","payment:visa":"yes","phone":"+33 238624040","ref:FR:SIRET":"40326772700143","stars":"3","tourism":"hotel","website":"https://all.accor.com/hotel/0862/index.fr.shtml","wheelchair":"yes"}},
{"type":"Feature","geometry":{"type":"Point","coordinates":[1.9071493,47.8999988]},"properties":{"addr:city":"Orléans","addr:housenumber":"268","addr:postcode":"45000","addr:street":"Rue de Bourgogne","image":"https://panoramax-storage-public-fast.s3.gra.perf.cloud.ovh.net/main-pictures/f8/47/2e/c8/21b6-4863-9bf9-44281d163dd4.jpg","name":"Le Beau Temps","phone":"+336 77 60 85 66","ref:FR:SIRET":"95341041200019","tourism":"gallery"}},
{"type":"Feature","geometry":{"type":"Point","coordinates":[1.8931225,47.9028739]},"properties":{"leisure":"ice_rink"}},
{"type":"Feature","geometry":{"type":"Point","coordinates":[1.892841,47.8662248]},"properties":{"historic":"wayside_cross","name":"Croix de la Vallée"}},
{"type":"Feature","geometry":{"type":"Point","coordinates":[1.877357,47.867649]},"properties":{"historic":"wayside_cross","name":"Croix de la mothe"}},
{"type":"Feature","geometry":{"type":"Point","coordinates":[1.9026997,47.9042404]},"properties":{"addr:city":"Orléans","addr:housenumber":"1","addr:postcode":"45000","addr:street":"Rue de la Lionne","image":"http://www.orleansmetropolis.com/photo/etablissement/299/le-grand-hotel.jpg","name":"Grand Hôtel","phone":"+33 2 38 53 19 79","tourism":"hotel"}},
{"type":"Feature","geometry":{"type":"Point","coordinates":[1.9048618,47.873747]},"properties":{"historic":"wayside_cross","source":"survey"}},
{"type":"Feature","geometry":{"type":"Point","coordinates":[1.9052452,47.8882047]},"properties":{"historic":"wayside_cross","source":"Bing + survey"}},
{"type":"Feature","geometry":{"type":"Point","coordinates":[1.901438,47.8661358]},"properties":{"historic":"memorial","source":"survey"}},
{"type":"Feature","geometry":{"type":"Point","coordinates":[1.876537,47.8873433]},"properties":{"historic":"wayside_cross"}},
{"type":"Feature","geometry":{"type":"Point","coordinates":[1.9053571,47.8896644]},"properties":{"historic":"memorial","image":"https://www.memorialgenweb.org/photos/45/45-1735.jpg","memorial":"war_memorial","name":"Mémorial Orléans Domrémy","ref:FR:MemorialGenWeb":"1735","source":"Bing/survey","start_date":"1924"}},
{"type":"Feature","geometry":{"type":"Point","coordinates":[1.9058582,47.8942518]},"properties":{"historic":"wayside_cross","name":"Croix de la pucelle"}},
{"type":"Feature","geometry":{"type":"Point","coordinates":[1.9062194,47.8946906]},"properties":{"historic":"memorial","memorial":"statue","name":"Fort des Tourelle"}},
{"type":"Feature","geometry":{"type":"Point","coordinates":[1.9122671,47.9083686]},"properties":{"barrier":"gate","foot":"yes","source":"Bing"}},
{"type":"Feature","geometry":{"type":"Point","coordinates":[1.9105575,47.9074756]},"properties":{"barrier":"gate","foot":"yes","source":"Bing"}},
{"type":"Feature","geometry":{"type":"Point","coordinates":[1.9128173,47.907299]},"properties":{"barrier":"gate","foot":"yes","source":"Bing"}},
{"type":"Feature","geometry":{"type":"Point","coordinates":[1.9113408,47.9061986]},"properties":{"barrier":"gate","foot":"yes","maxwidth:physical":"1","source":"Bing"}},
{"type":"Feature","geometry":{"type":"Point","coordinates":[1.8920294,47.9013028]},"properties":{"historic":"wayside_cross"}},
{"type":"Feature","geometry":{"type":"Point","coordinates":[1.8693309,47.8851294]},"properties":{"historic":"wayside_cross"}},
{"type":"Feature","geometry":{"type":"Point","coordinates":[1.9015462,47.8840927]},"properties":{"access":"yes","leisure":"playground"}},
{"type":"Feature","geometry":{"type":"Point","coordinates":[1.8899696,47.9094563]},"properties":{"leaf_type":"broadleaved","natural":"tree","source":"Bing"}},
{"type":"Feature","geometry":{"type":"Point","coordinates":[1.8867459,47.9082182]},"properties":{"height":"4","natural":"tree","source":"Permis de construire","start_date":"2017"}},
{"type":"Feature","geometry":{"type":"Point","coordinates":[1.8864019,47.90834]},"properties":{"height":"4","natural":"tree","source":"Permis de construire","start_date":"2017"}},
{"type":"Feature","geometry":{"type":"Point","coordinates":[1.8863282,47.9083755]},"properties":{"height":"4","natural":"tree","source":"Permis de construire","start_date":"2017"}},
{"type":"Feature","geometry":{"type":"Point","coordinates":[1.8863275,47.9085562]},"properties":{"height":"4","natural":"tree","source":"Permis de construire","start_date":"2017"}},
{"type":"Feature","geometry":{"type":"Point","coordinates":[1.8866179,47.9085787]},"properties":{"height":"4","natural":"tree","source":"Permis de construire","start_date":"2017"}},
{"type":"Feature","geometry":{"type":"Point","coordinates":[1.8865354,47.9086263]},"properties":{"height":"4","natural":"tree","source":"Permis de construire","start_date":"2017"}},
{"type":"Feature","geometry":{"type":"Point","coordinates":[1.8863268,47.9086488]},"properties":{"height":"4","natural":"tree","source":"Permis de construire","start_date":"2017"}},
{"type":"Feature","geometry":{"type":"Point","coordinates":[1.8864375,47.9086694]},"properties":{"height":"4","natural":"tree","source":"Permis de construire","start_date":"2017"}},
{"type":"Feature","geometry":{"type":"Point","coordinates":[1.8872375,47.9087535]},"properties":{"height":"8","natural":"tree","source":"Permis de construire","start_date":"2017"}},
{"type":"Feature","geometry":{"type":"Point","coordinates":[1.8871798,47.9087679]},"properties":{"height":"4","natural":"tree","source":"Permis de construire","start_date":"2017"}},
{"type":"Feature","geometry":{"type":"Point","coordinates":[1.8872455,47.9087976]},"properties":{"height":"4","natural":"tree","source":"Permis de construire","start_date":"2017"}},
{"type":"Feature","geometry":{"type":"Point","coordinates":[1.8870658,47.9088007]},"properties":{"height":"4","natural":"tree","source":"Permis de construire","start_date":"2017"}},
{"type":"Feature","geometry":{"type":"Point","coordinates":[1.8864174,47.9088056]},"properties":{"height":"4","natural":"tree","source":"Permis de construire","start_date":"2017"}},
{"type":"Feature","geometry":{"type":"Point","coordinates":[1.8870926,47.9088304]},"properties":{"height":"4","natural":"tree","source":"Permis de construire","start_date":"2017"}},
{"type":"Feature","geometry":{"type":"Point","coordinates":[1.887043,47.9088403]},"properties":{"height":"4","natural":"tree","source":"Permis de construire","start_date":"2017"}},
{"type":"Feature","geometry":{"type":"Point","coordinates":[1.8857261,47.909207]},"properties":{"height":"4","natural":"tree","source":"Permis de construire","start_date":"2017"}},
{"type":"Feature","geometry":{"type":"Point","coordinates":[1.8871952,47.9088663]},"properties":{"height":"4","natural":"tree","source":"Permis de construire","start_date":"2017"}},
{"type":"Feature","geometry":{"type":"Point","coordinates":[1.8871496,47.9089]},"properties":{"height":"8","natural":"tree","source":"Permis de construire","start_date":"2017"}},
{"type":"Feature","geometry":{"type":"Point","coordinates":[1.8864851,47.9089427]},"properties":{"height":"4","natural":"tree","source":"Permis de construire","start_date":"2017"}},
{"type":"Feature","geometry":{"type":"Point","coordinates":[1.8865461,47.9090493]},"properties":{"height":"4","natural":"tree","source":"Permis de construire","start_date":"2017"}},
{"type":"Feature","geometry":{"type":"Point","coordinates":[1.8893154,47.9083364]},"properties":{"leaf_type":"broadleaved","natural":"tree","source":"Bing"}},
{"type":"Feature","geometry":{"type":"Point","coordinates":[1.8870618,47.9096339]},"properties":{"natural":"tree","source":"Bing"}},
{"type":"Feature","geometry":{"type":"Point","coordinates":[1.8872491,47.9097433]},"properties":{"natural":"tree","source":"Bing"}},
{"type":"Feature","geometry":{"type":"Point","coordinates":[1.8870886,47.9097016]},"properties":{"natural":"tree","source":"Bing"}},
{"type":"Feature","geometry":{"type":"Point","coordinates":[1.8859804,47.9098763]},"properties":{"natural":"tree","source":"Bing"}},
{"type":"Feature","geometry":{"type":"Point","coordinates":[1.9095985,47.8784581]},"properties":{"natural":"tree"}},
{"type":"Feature","geometry":{"type":"Point","coordinates":[1.9094988,47.8784838]},"properties":{"natural":"tree"}},
{"type":"Feature","geometry":{"type":"Point","coordinates":[1.9093908,47.8785024]},"properties":{"natural":"tree"}},
{"type":"Feature","geometry":{"type":"Point","coordinates":[1.9093483,47.8785313]},"properties":{"natural":"tree"}},
{"type":"Feature","geometry":{"type":"Point","coordinates":[1.9097061,47.8785337]},"properties":{"natural":"tree"}},
{"type":"Feature","geometry":{"type":"Point","coordinates":[1.9092687,47.8785515]},"properties":{"natural":"tree"}},
{"type":"Feature","geometry":{"type":"Point","coordinates":[1.9093153,47.8785558]},"properties":{"natural":"tree"}},
{"type":"Feature","geometry":{"type":"Point","coordinates":[1.9096284,47.8785895]},"properties":{"natural":"tree"}},
{"type":"Feature","geometry":{"type":"Point","coordinates":[1.9095566,47.8786421]},"properties":{"natural":"tree"}},
{"type":"Feature","geometry":{"type":"Point","coordinates":[1.9094657,47.878712]},"properties":{"natural":"tree"}},
{"type":"Feature","geometry":{"type":"Point","coordinates":[1.9093931,47.8787646]},"properties":{"natural":"tree"}},
{"type":"Feature","geometry":{"type":"Point","coordinates":[1.9097812,47.8769266]},"properties":{"natural":"tree"}},
{"type":"Feature","geometry":{"type":"Point","coordinates":[1.9097503,47.8769663]},"properties":{"natural":"tree"}},
{"type":"Feature","geometry":{"type":"Point","coordinates":[1.909691,47.8769857]},"properties":{"natural":"tree"}},
{"type":"Feature","geometry":{"type":"Point","coordinates":[1.9096317,47.8769971]},"properties":{"natural":"tree"}},
{"type":"Feature","geometry":{"type":"Point","coordinates":[1.9096744,47.8771433]},"properties":{"natural":"tree"}},
{"type":"Feature","geometry":{"type":"Point","coordinates":[1.9093935,47.8771746]},"properties":{"natural":"tree"}},
{"type":"Feature","geometry":{"type":"Point","coordinates":[1.9090935,47.8772198]},"properties":{"natural":"tree"}},
{"type":"Feature","geometry":{"type":"Point","coordinates":[1.9097112,47.8772156]},"properties":{"natural":"tree"}},
{"type":"Feature","geometry":{"type":"Point","coordinates":[1.9093895,47.8772362]},"properties":{"natural":"tree"}},
{"type":"Feature","geometry":{"type":"Point","coordinates":[1.9094488,47.8772711]},"properties":{"natural":"tree"}},
{"type":"Feature","geometry":{"type":"Point","coordinates":[1.9097841,47.8773635]},"properties":{"natural":"tree"}},
{"type":"Feature","geometry":{"type":"Point","coordinates":[1.9098129,47.8774163]},"properties":{"natural":"tree"}},
{"type":"Feature","geometry":{"type":"Point","coordinates":[1.9098348,47.8774626]},"properties":{"natural":"tree"}},
{"type":"Feature","geometry":{"type":"Point","coordinates":[1.9098595,47.877516]},"properties":{"natural":"tree"}},
{"type":"Feature","geometry":{"type":"Point","coordinates":[1.9098917,47.8775787]},"properties":{"natural":"tree"}},
{"type":"Feature","geometry":{"type":"Point","coordinates":[1.9098307,47.8775918]},"properties":{"natural":"tree"}},
{"type":"Feature","geometry":{"type":"Point","coordinates":[1.9098445,47.8776419]},"properties":{"natural":"tree"}},
{"type":"Feature","geometry":{"type":"Point","coordinates":[1.9097417,47.8776688]},"properties":{"natural":"tree"}},
{"type":"Feature","geometry":{"type":"Point","coordinates":[1.8529951,47.8975731]},"properties":{"addr:city":"La Chapelle-Saint-Mesmin","addr:housenumber":"6","addr:postcode":"45380","addr:street":"Rue de la Chistera","leisure":"sports_centre","name":"Keep Cool","sport":"fitness"}},
{"type":"Feature","geometry":{"type":"Point","coordinates":[1.8785894,47.8696801]},"properties":{"tourism":"picnic_site"}},
{"type":"Feature","geometry":{"type":"Point","coordinates":[1.8790196,47.8698748]},"properties":{"access":"yes","leisure":"playground","name":"Tobogan"}},
{"type":"Feature","geometry":{"type":"Point","coordinates":[1.9059094,47.9013418]},"properties":{"natural":"tree"}},
{"type":"Feature","geometry":{"type":"Point","coordinates":[1.9060231,47.9013494]},"properties":{"natural":"tree"}},
{"type":"Feature","geometry":{"type":"Point","coordinates":[1.9060152,47.9014216]},"properties":{"natural":"tree"}},
{"type":"Feature","geometry":{"type":"Point","coordinates":[1.9059064,47.9014276]},"properties":{"natural":"tree"}},
{"type":"Feature","geometry":{"type":"Point","coordinates":[1.9055263,47.9027839]},"properties":{"natural":"tree"}},
{"type":"Feature","geometry":{"type":"Point","coordinates":[1.9056456,47.9027956]},"properties":{"natural":"tree"}},
{"type":"Feature","geometry":{"type":"Point","coordinates":[1.9051241,47.9027642]},"properties":{"natural":"tree"}},
{"type":"Feature","geometry":{"type":"Point","coordinates":[1.9055358,47.9027441]},"properties":{"natural":"tree"}},
{"type":"Feature","geometry":{"type":"Point","coordinates":[1.9053824,47.9027775]},"properties":{"natural":"tree"}},
{"type":"Feature","geometry":{"type":"Point","coordinates":[1.9052553,47.9027654]},"properties":{"natural":"tree"}},
{"type":"Feature","geometry":{"type":"Point","coordinates":[1.9038697,47.8749961]},"properties":{"historic":"memorial","inscription":"L'eau est montée jusqu'ici,  elle peut repasser par là.","material":"steel","memorial":"plaque","source":"Survey/GPS;survey;streetlevel imagery"}},
{"type":"Feature","geometry":{"type":"Point","coordinates":[1.8929171,47.8663281]},"properties":{"historic":"memorial","image":"https://www.memorialgenweb.org/photos/45/45-5113-1.jpg","inscription":"Aux enfants d'Olivet morts pour la France \" - \" Gloire à notre France éternelle\" \"Gloire à ceux qui sont morts pour elle\"","material":"stone","memorial":"war_memorial","name":"Mémorial Olivet église","ref:FR:MemorialGenWeb":"5113","source":"survey","start_date":"1921"}},
{"type":"Feature","geometry":{"type":"Point","coordinates":[1.9034568,47.8704527]},"properties":{"historic":"memorial","source":"survey"}},
{"type":"Feature","geometry":{"type":"Point","coordinates":[1.9002755,47.9008546]},"properties":{"description":"Légumes et herbes gratuits, à partager et entretenir.","leisure":"garden","name":"Jardichat : Incroyables commestibles"}},
{"type":"Feature","geometry":{"type":"Point","coordinates":[1.8830838,47.8607883]},"properties":{"leisure":"playground"}},
{"type":"Feature","geometry":{"type":"Point","coordinates":[1.9063342,47.8996339]},"properties":{"addr:housenumber":"3","addr:postcode":"45000","addr:street":"Rue de la Cholerie","information":"yes","name":"Centre Régional Information Jeunesse (CRIJ)","name:fr":"Centre Régional Information Jeunesse (CRIJ)","opening_hours":"Mo-Fr 09:00-13:00, 14:00-18:00","phone":"02 38 78 91 78","tourism":"information","website":"https://crijinfo.fr/"}},
{"type":"Feature","geometry":{"type":"Point","coordinates":[1.8978243,47.8924293]},"properties":{"denotation":"natural_monument","description":"Arbre remarquable","height":"15","image":"https://panoramax-storage-public-fast.s3.gra.perf.cloud.ovh.net/main-pictures/e6/49/92/57/8807-41c1-9c56-6835fe22710c.jpg","image:2":"https://panoramax-storage-public-fast.s3.gra.perf.cloud.ovh.net/main-pictures/a2/68/6b/86/8de7-46d6-be97-745e66554a6c.jpg","image:3":"https://panoramax-storage-public-fast.s3.gra.perf.cloud.ovh.net/main-pictures/01/42/c7/90/b35a-47ab-a67e-bada9e8c8aa9.jpg","leaf_cycle":"deciduous","leaf_type":"broadleaved","name":"Arbre au quarante écus","name:la":"Ginkgo biloba","natural":"tree","source":"https://www.orleans.fr/que-faire-a-orleans/patrimoine-tourisme/jardin-des-plantes;http://petitjoellem.free.fr/arbres/arbres.html","tourism":"attraction"}},
{"type":"Feature","geometry":{"type":"Point","coordinates":[1.8887365,47.8928796]},"properties":{"description":"conifère","natural":"tree"}},
{"type":"Feature","geometry":{"type":"Point","coordinates":[1.8955202,47.8923557]},"properties":{"genus":"Albizia","natural":"tree"}},
{"type":"Feature","geometry":{"type":"Point","coordinates":[1.9073812,47.8895741]},"properties":{"access":"yes","leisure":"playground"}},
{"type":"Feature","geometry":{"type":"Point","coordinates":[1.8760674,47.8977302]},"properties":{"leaf_cycle":"evergreen","leaf_type":"needleleaved","natural":"tree"}},
{"type":"Feature","geometry":{"type":"Point","coordinates":[1.9003428,47.8652552]},"properties":{"denotation":"natural_monument","name":"Cèdre du Couasnon","natural":"tree","tourism":"yes"}},
{"type":"Feature","geometry":{"type":"Point","coordinates":[1.9013885,47.88123]},"properties":{"height":"6","leaf_type":"broadleaved","natural":"tree"}},
{"type":"Feature","geometry":{"type":"Point","coordinates":[1.901302,47.8807695]},"properties":{"height":"6","leaf_type":"broadleaved","natural":"tree"}},
{"type":"Feature","geometry":{"type":"Point","coordinates":[1.9013435,47.8809979]},"properties":{"height":"6","leaf_type":"broadleaved","natural":"tree"}},
{"type":"Feature","geometry":{"type":"Point","coordinates":[1.9014502,47.8808999]},"properties":{"height":"6","leaf_type":"broadleaved","natural":"tree"}},
{"type":"Feature","geometry":{"type":"Point","coordinates":[1.9014944,47.8808967]},"properties":{"height":"6","leaf_type":"broadleaved","natural":"tree"}},
{"type":"Feature","geometry":{"type":"Point","coordinates":[1.9016097,47.8810429]},"properties":{"height":"6","leaf_type":"broadleaved","natural":"tree"}},
{"type":"Feature","geometry":{"type":"Point","coordinates":[1.9015615,47.8810443]},"properties":{"height":"6","leaf_type":"broadleaved","natural":"tree"}},
{"type":"Feature","geometry":{"type":"Point","coordinates":[1.9017237,47.8810312]},"properties":{"height":"6","leaf_type":"broadleaved","natural":"tree"}},
{"type":"Feature","geometry":{"type":"Point","coordinates":[1.901774,47.8809107]},"properties":{"height":"6","leaf_type":"broadleaved","natural":"tree"}},
{"type":"Feature","geometry":{"type":"Point","coordinates":[1.9020342,47.8808833]},"properties":{"height":"6","leaf_type":"broadleaved","natural":"tree"}},
{"type":"Feature","geometry":{"type":"Point","coordinates":[1.901947,47.8808936]},"properties":{"height":"6","leaf_type":"broadleaved","natural":"tree"}},
{"type":"Feature","geometry":{"type":"Point","coordinates":[1.9018592,47.8809017]},"properties":{"height":"6","leaf_type":"broadleaved","natural":"tree"}},
{"type":"Feature","geometry":{"type":"Point","coordinates":[1.9016983,47.8808563]},"properties":{"height":"6","leaf_type":"broadleaved","natural":"tree"}},
{"type":"Feature","geometry":{"type":"Point","coordinates":[1.9017593,47.8808513]},"properties":{"height":"6","leaf_type":"broadleaved","natural":"tree"}},
{"type":"Feature","geometry":{"type":"Point","coordinates":[1.9019906,47.8806305]},"properties":{"height":"6","leaf_type":"broadleaved","natural":"tree"}},
{"type":"Feature","geometry":{"type":"Point","coordinates":[1.9018605,47.8806382]},"properties":{"height":"6","leaf_type":"broadleaved","natural":"tree"}},
{"type":"Feature","geometry":{"type":"Point","coordinates":[1.9017103,47.8806481]},"properties":{"height":"6","leaf_type":"broadleaved","natural":"tree"}},
{"type":"Feature","geometry":{"type":"Point","coordinates":[1.9015829,47.8806566]},"properties":{"height":"6","leaf_type":"broadleaved","natural":"tree"}},
{"type":"Feature","geometry":{"type":"Point","coordinates":[1.9014133,47.8807196]},"properties":{"height":"6","leaf_type":"broadleaved","natural":"tree"}},
{"type":"Feature","geometry":{"type":"Point","coordinates":[1.9014797,47.8806633]},"properties":{"height":"6","leaf_type":"broadleaved","natural":"tree"}},
{"type":"Feature","geometry":{"type":"Point","coordinates":[1.9013569,47.8805442]},"properties":{"height":"6","leaf_type":"broadleaved","natural":"tree"}},
{"type":"Feature","geometry":{"type":"Point","coordinates":[1.9013476,47.8804947]},"properties":{"height":"6","leaf_type":"broadleaved","natural":"tree"}},
{"type":"Feature","geometry":{"type":"Point","coordinates":[1.9013382,47.8804479]},"properties":{"height":"6","leaf_type":"broadleaved","natural":"tree"}},
{"type":"Feature","geometry":{"type":"Point","coordinates":[1.9013281,47.8803985]},"properties":{"height":"6","leaf_type":"broadleaved","natural":"tree"}},
{"type":"Feature","geometry":{"type":"Point","coordinates":[1.9013194,47.8803508]},"properties":{"height":"6","leaf_type":"broadleaved","natural":"tree"}},
{"type":"Feature","geometry":{"type":"Point","coordinates":[1.9012839,47.8803045]},"properties":{"height":"6","leaf_type":"broadleaved","natural":"tree"}},
{"type":"Feature","geometry":{"type":"Point","coordinates":[1.9011511,47.8803148]},"properties":{"height":"6","leaf_type":"broadleaved","natural":"tree"}},
{"type":"Feature","geometry":{"type":"Point","coordinates":[1.9010284,47.8803256]},"properties":{"height":"6","leaf_type":"broadleaved","natural":"tree"}},
{"type":"Feature","geometry":{"type":"Point","coordinates":[1.9009023,47.8803346]},"properties":{"height":"6","leaf_type":"broadleaved","natural":"tree"}},
{"type":"Feature","geometry":{"type":"Point","coordinates":[1.9007803,47.8803431]},"properties":{"height":"6","leaf_type":"broadleaved","natural":"tree"}},
{"type":"Feature","geometry":{"type":"Point","coordinates":[1.9006556,47.8803535]},"properties":{"height":"6","leaf_type":"broadleaved","natural":"tree"}},
{"type":"Feature","geometry":{"type":"Point","coordinates":[1.9006348,47.8803724]},"properties":{"height":"6","leaf_type":"broadleaved","natural":"tree"}},
{"type":"Feature","geometry":{"type":"Point","coordinates":[1.9006488,47.8804497]},"properties":{"height":"6","leaf_type":"broadleaved","natural":"tree"}},
{"type":"Feature","geometry":{"type":"Point","coordinates":[1.9006609,47.8805163]},"properties":{"height":"6","leaf_type":"broadleaved","natural":"tree"}},
{"type":"Feature","geometry":{"type":"Point","coordinates":[1.9006951,47.8805347]},"properties":{"height":"6","leaf_type":"broadleaved","natural":"tree"}},
{"type":"Feature","geometry":{"type":"Point","coordinates":[1.9006904,47.88068]},"properties":{"height":"6","leaf_type":"broadleaved","natural":"tree"}},
{"type":"Feature","geometry":{"type":"Point","coordinates":[1.9006629,47.880653]},"properties":{"height":"6","leaf_type":"broadleaved","natural":"tree"}},
{"type":"Feature","geometry":{"type":"Point","coordinates":[1.9006723,47.8806283]},"properties":{"height":"6","leaf_type":"broadleaved","natural":"tree"}},
{"type":"Feature","geometry":{"type":"Point","coordinates":[1.900673,47.8805828]},"properties":{"height":"6","leaf_type":"broadleaved","natural":"tree"}},
{"type":"Feature","geometry":{"type":"Point","coordinates":[1.9008353,47.8805653]},"properties":{"height":"6","leaf_type":"broadleaved","natural":"tree"}},
{"type":"Feature","geometry":{"type":"Point","coordinates":[1.900966,47.8805419]},"properties":{"height":"6","leaf_type":"broadleaved","natural":"tree"}},
{"type":"Feature","geometry":{"type":"Point","coordinates":[1.9009828,47.8805563]},"properties":{"height":"6","leaf_type":"broadleaved","natural":"tree"}},
{"type":"Feature","geometry":{"type":"Point","coordinates":[1.9010016,47.8806593]},"properties":{"height":"6","leaf_type":"broadleaved","natural":"tree"}},
{"type":"Feature","geometry":{"type":"Point","coordinates":[1.9008534,47.8806588]},"properties":{"height":"6","leaf_type":"broadleaved","natural":"tree"}},
{"type":"Feature","geometry":{"type":"Point","coordinates":[1.9060113,47.8946826]},"properties":{"artist_name":"Edme-François-Étienne Gois","artwork_type":"statue","image":"https://upload.wikimedia.org/wikipedia/commons/thumb/0/0a/Statue_de_Jeanne_d%27Arc_%281%29.JPG/800px-Statue_de_Jeanne_d%27Arc_%281%29.JPG?20100419045025","name":"Jeanne d'arc guerrière","tourism":"artwork","wikidata":"Q55164592"}},
{"type":"Feature","geometry":{"type":"Point","coordinates":[1.865117,47.9061079]},"properties":{"leisure":"sports_centre","name":"Dojo Bernard Choulot","sport":"gymnastics"}},
{"type":"Feature","geometry":{"type":"Point","coordinates":[1.9065659,47.898181]},"properties":{"addr:city":"Orléans","addr:housenumber":"6","addr:postcode":"45000","addr:street":"Rue au Lin","image":"https://panoramax-storage-public-fast.s3.gra.perf.cloud.ovh.net/main-pictures/46/05/aa/1e/f8d9-4040-9ab8-dad5a4a5416c.jpg","leisure":"sports_centre","name":"Lancer de Hache Orléans","sport":"axe_throwing","website":"https://www.lancerdehacheorleans.fr/"}},
{"type":"Feature","geometry":{"type":"Point","coordinates":[1.8527182,47.8959378]},"properties":{"addr:city":"La Chapelle-Saint-Mesmin","addr:housenumber":"20","addr:postcode":"45380","addr:street":"Rue de la Chistera","award:accueilvelo":"2024","brand":"Kyriad","brand:wikidata":"Q11751808","contact:email":"orleans.ouest@kyriaddirect.fr","contact:facebook":"https://www.facebook.com/KyriadDirectOrleansOuest/","internet_access":"wlan","name":"Hôtel Kyriad Orléans Ouest","phone":"+332 38 70 61 61","rooms":"58","tourism":"hotel","website":"https://direct-la-chapelle-saint-mesmin.kyriad.com/fr-fr/"}},
{"type":"Feature","geometry":{"type":"Point","coordinates":[1.8936208,47.897643]},"properties":{"leisure":"slipway"}},
{"type":"Feature","geometry":{"type":"Point","coordinates":[1.8975265,47.8919451]},"properties":{"artwork_type":"statue","image":"https://panoramax-storage-public-fast.s3.gra.perf.cloud.ovh.net/main-pictures/e9/fa/32/5f/6e7b-4ec8-af05-1e993dda0834.jpg","manufacturer":"Fonderie Jean-Jacques Ducel","material":"cast_iron","tourism":"artwork"}},
{"type":"Feature","geometry":{"type":"Point","coordinates":[1.9043037,47.8969756]},"properties":{"addr:city":"Orléans","addr:postcode":"45000","addr:street":"Pont George V","image":"https://www.larep.fr/photoSRC/VVNUJ1paUTgIBhVOCRAHHQ4zRSkXaldfVR5dW1sXVA49/pont1_4435165.jpeg","mapillary":"1004684213648382","name":"Pont George V","name:ru":"мост Георга 5","tourism":"attraction","website":"https://www.orleans-metropole.fr/histoire-patrimoine/lieux-celebres/pont-george-v","wikidata":"Q99319","wikipedia":"fr:Pont George-V"}},
{"type":"Feature","geometry":{"type":"Point","coordinates":[1.9008912,47.9014496]},"properties":{"artwork_type":"mural","contact:facebook":"https://www.facebook.com/lemurorleans/","description":"Un mur dédié uniquement aux street artistes venus des quatre coins de la France.","image":"https://www.tourisme-orleansmetropole.com/assets/uploads/2023/08/street-art-mur-orleans-aout-2023-destination-orleans-val-de-loire.jpg.webp","location":"wall","name":"Le MUR Orléans","tourism":"artwork"}},
{"type":"Feature","geometry":{"type":"Point","coordinates":[1.8902961,47.9063772]},"properties":{"natural":"tree"}},
{"type":"Feature","geometry":{"type":"Point","coordinates":[1.8904365,47.9065644]},"properties":{"natural":"tree"}},
{"type":"Feature","geometry":{"type":"Point","coordinates":[1.8903314,47.9066887]},"properties":{"natural":"tree"}},
{"type":"Feature","geometry":{"type":"Point","coordinates":[1.8906504,47.9069545]},"properties":{"natural":"tree"}},
{"type":"Feature","geometry":{"type":"Point","coordinates":[1.89047,47.9068546]},"properties":{"natural":"tree"}},
{"type":"Feature","geometry":{"type":"Point","coordinates":[1.8906331,47.9068568]},"properties":{"natural":"tree"}},
{"type":"Feature","geometry":{"type":"Point","coordinates":[1.8905645,47.9069814]},"properties":{"natural":"tree"}},
{"type":"Feature","geometry":{"type":"Point","coordinates":[1.8907425,47.9070108]},"properties":{"natural":"tree"}},
{"type":"Feature","geometry":{"type":"Point","coordinates":[1.8906928,47.9071419]},"properties":{"natural":"tree"}},
{"type":"Feature","geometry":{"type":"Point","coordinates":[1.8908099,47.9073144]},"properties":{"natural":"tree"}},
{"type":"Feature","geometry":{"type":"Point","coordinates":[1.8909082,47.907247]},"properties":{"natural":"tree"}},
{"type":"Feature","geometry":{"type":"Point","coordinates":[1.8908883,47.9074336]},"properties":{"natural":"tree"}},
{"type":"Feature","geometry":{"type":"Point","coordinates":[1.8909943,47.9073595]},"properties":{"natural":"tree"}},
{"type":"Feature","geometry":{"type":"Point","coordinates":[1.891023,47.9076305]},"properties":{"natural":"tree"}},
{"type":"Feature","geometry":{"type":"Point","coordinates":[1.891192,47.9076476]},"properties":{"natural":"tree"}},
{"type":"Feature","geometry":{"type":"Point","coordinates":[1.8911545,47.9078127]},"properties":{"natural":"tree"}},
{"type":"Feature","geometry":{"type":"Point","coordinates":[1.8913025,47.9078127]},"properties":{"natural":"tree"}},
{"type":"Feature","geometry":{"type":"Point","coordinates":[1.8912727,47.9079733]},"properties":{"natural":"tree"}},
{"type":"Feature","geometry":{"type":"Point","coordinates":[1.8914637,47.9080392]},"properties":{"natural":"tree"}},
{"type":"Feature","geometry":{"type":"Point","coordinates":[1.8913721,47.9081162]},"properties":{"natural":"tree"}},
{"type":"Feature","geometry":{"type":"Point","coordinates":[1.8915919,47.9082154]},"properties":{"natural":"tree"}},
{"type":"Feature","geometry":{"type":"Point","coordinates":[1.8915046,47.9083095]},"properties":{"natural":"tree"}},
{"type":"Feature","geometry":{"type":"Point","coordinates":[1.8917653,47.9084672]},"properties":{"natural":"tree"}},
{"type":"Feature","geometry":{"type":"Point","coordinates":[1.8915651,47.9084663]},"properties":{"natural":"tree"}},
{"type":"Feature","geometry":{"type":"Point","coordinates":[1.8917123,47.9083872]},"properties":{"natural":"tree"}},
{"type":"Feature","geometry":{"type":"Point","coordinates":[1.8922049,47.909098]},"properties":{"natural":"tree"}},
{"type":"Feature","geometry":{"type":"Point","coordinates":[1.8923131,47.909249]},"properties":{"natural":"tree"}},
{"type":"Feature","geometry":{"type":"Point","coordinates":[1.8921499,47.9092732]},"properties":{"natural":"tree"}},
{"type":"Feature","geometry":{"type":"Point","coordinates":[1.8922464,47.9093894]},"properties":{"natural":"tree"}},
{"type":"Feature","geometry":{"type":"Point","coordinates":[1.8924103,47.9093882]},"properties":{"natural":"tree"}},
{"type":"Feature","geometry":{"type":"Point","coordinates":[1.892336,47.9095252]},"properties":{"natural":"tree"}},
{"type":"Feature","geometry":{"type":"Point","coordinates":[1.8924604,47.9097101]},"properties":{"natural":"tree"}},
{"type":"Feature","geometry":{"type":"Point","coordinates":[1.8926831,47.9097821]},"properties":{"natural":"tree"}},
{"type":"Feature","geometry":{"type":"Point","coordinates":[1.8925823,47.9098785]},"properties":{"natural":"tree"}},
{"type":"Feature","geometry":{"type":"Point","coordinates":[1.8927085,47.9100508]},"properties":{"natural":"tree"}},
{"type":"Feature","geometry":{"type":"Point","coordinates":[1.8928002,47.9099649]},"properties":{"natural":"tree"}},
{"type":"Feature","geometry":{"type":"Point","coordinates":[1.8928996,47.9101063]},"properties":{"natural":"tree"}},
{"type":"Feature","geometry":{"type":"Point","coordinates":[1.9063299,47.8990109]},"properties":{"leaf_type":"broadleaved","natural":"tree"}},
{"type":"Feature","geometry":{"type":"Point","coordinates":[1.9063117,47.8989371]},"properties":{"leaf_type":"broadleaved","natural":"tree"}},
{"type":"Feature","geometry":{"type":"Point","coordinates":[1.9063026,47.8988597]},"properties":{"leaf_type":"broadleaved","natural":"tree"}},
{"type":"Feature","geometry":{"type":"Point","coordinates":[1.9062895,47.8987622]},"properties":{"leaf_type":"broadleaved","natural":"tree"}},
{"type":"Feature","geometry":{"type":"Point","coordinates":[1.9062789,47.8986895]},"properties":{"leaf_type":"broadleaved","natural":"tree"}},
{"type":"Feature","geometry":{"type":"Point","coordinates":[1.9062674,47.8986055]},"properties":{"leaf_type":"broadleaved","natural":"tree"}},
{"type":"Feature","geometry":{"type":"Point","coordinates":[1.9063998,47.8985985]},"properties":{"leaf_type":"broadleaved","natural":"tree"}},
{"type":"Feature","geometry":{"type":"Point","coordinates":[1.9064616,47.8991722]},"properties":{"leaf_type":"broadleaved","natural":"tree"}},
{"type":"Feature","geometry":{"type":"Point","coordinates":[1.9064654,47.8992641]},"properties":{"leaf_type":"broadleaved","natural":"tree"}},
{"type":"Feature","geometry":{"type":"Point","coordinates":[1.9064819,47.8993568]},"properties":{"leaf_type":"broadleaved","natural":"tree"}},
{"type":"Feature","geometry":{"type":"Point","coordinates":[1.9038088,47.8980212]},"properties":{"natural":"tree"}},
{"type":"Feature","geometry":{"type":"Point","coordinates":[1.903695,47.8980323]},"properties":{"natural":"tree"}},
{"type":"Feature","geometry":{"type":"Point","coordinates":[1.9034653,47.8980441]},"properties":{"natural":"tree"}},
{"type":"Feature","geometry":{"type":"Point","coordinates":[1.9065304,47.9064253]},"properties":{"natural":"tree"}},
{"type":"Feature","geometry":{"type":"Point","coordinates":[1.906636,47.9064108]},"properties":{"natural":"tree"}},
{"type":"Feature","geometry":{"type":"Point","coordinates":[1.9067348,47.9063911]},"properties":{"natural":"tree"}},
{"type":"Feature","geometry":{"type":"Point","coordinates":[1.906837,47.9063713]},"properties":{"natural":"tree"}},
{"type":"Feature","geometry":{"type":"Point","coordinates":[1.9065991,47.906216]},"properties":{"natural":"tree"}},
{"type":"Feature","geometry":{"type":"Point","coordinates":[1.9064577,47.9061299]},"properties":{"natural":"tree"}},
{"type":"Feature","geometry":{"type":"Point","coordinates":[1.9024972,47.9072445]},"properties":{"natural":"tree"}},
{"type":"Feature","geometry":{"type":"Point","coordinates":[1.9023551,47.9072454]},"properties":{"natural":"tree"}},
{"type":"Feature","geometry":{"type":"Point","coordinates":[1.902284,47.9073218]},"properties":{"natural":"tree"}},
{"type":"Feature","geometry":{"type":"Point","coordinates":[1.9021003,47.9073344]},"properties":{"natural":"tree"}},
{"type":"Feature","geometry":{"type":"Point","coordinates":[1.9041844,47.9067211]},"properties":{"natural":"tree"}},
{"type":"Feature","geometry":{"type":"Point","coordinates":[1.9047356,47.8945676]},"properties":{"leaf_type":"broadleaved","natural":"tree"}},
{"type":"Feature","geometry":{"type":"Point","coordinates":[1.9043083,47.8945405]},"properties":{"leaf_type":"broadleaved","natural":"tree"}},
{"type":"Feature","geometry":{"type":"Point","coordinates":[1.93075,47.9002038]},"properties":{"amenity":"ferry_terminal","ferry":"yes","mapillary":"218045223161277","name":"Cabinet Vert","network":"Tao","note":"BatOloire","opening_hours":"We 11:50-17:50; Sa-Su 11:50-17:50","public_transport":"stop_position","website":"https://baladebateauorleans.com/batoloire/"}},
{"type":"Feature","geometry":{"type":"Point","coordinates":[1.9058453,47.8958517]},"properties":{"leaf_type":"broadleaved","natural":"tree"}},
{"type":"Feature","geometry":{"type":"Point","coordinates":[1.9056662,47.8958583]},"properties":{"leaf_type":"broadleaved","natural":"tree"}},
{"type":"Feature","geometry":{"type":"Point","coordinates":[1.9054643,47.8958932]},"properties":{"leaf_type":"broadleaved","natural":"tree"}},
{"type":"Feature","geometry":{"type":"Point","coordinates":[1.9052917,47.8959085]},"properties":{"leaf_type":"broadleaved","natural":"tree"}},
{"type":"Feature","geometry":{"type":"Point","coordinates":[1.9062001,47.8965323]},"properties":{"leaf_type":"broadleaved","natural":"tree"}},
{"type":"Feature","geometry":{"type":"Point","coordinates":[1.9065283,47.8965786]},"properties":{"leaf_type":"broadleaved","natural":"tree"}},
{"type":"Feature","geometry":{"type":"Point","coordinates":[1.9076369,47.8965582]},"properties":{"leaf_type":"broadleaved","natural":"tree"}},
{"type":"Feature","geometry":{"type":"Point","coordinates":[1.9072508,47.8965712]},"properties":{"leaf_type":"broadleaved","natural":"tree"}},
{"type":"Feature","geometry":{"type":"Point","coordinates":[1.9071102,47.8964806]},"properties":{"leaf_type":"broadleaved","natural":"tree"}},
{"type":"Feature","geometry":{"type":"Point","coordinates":[1.9067324,47.8965157]},"properties":{"leaf_type":"broadleaved","natural":"tree"}},
{"type":"Feature","geometry":{"type":"Point","coordinates":[1.9079016,47.8966377]},"properties":{"leaf_type":"broadleaved","natural":"tree"}},
{"type":"Feature","geometry":{"type":"Point","coordinates":[1.9081746,47.8966008]},"properties":{"leaf_type":"broadleaved","natural":"tree"}},
{"type":"Feature","geometry":{"type":"Point","coordinates":[1.9084448,47.896536]},"properties":{"leaf_type":"broadleaved","natural":"tree"}},
{"type":"Feature","geometry":{"type":"Point","coordinates":[1.9094983,47.8962957]},"properties":{"leaf_type":"broadleaved","natural":"tree"}},
{"type":"Feature","geometry":{"type":"Point","coordinates":[1.9092914,47.8962661]},"properties":{"leaf_type":"broadleaved","natural":"tree"}},
{"type":"Feature","geometry":{"type":"Point","coordinates":[1.9096803,47.8962957]},"properties":{"leaf_type":"broadleaved","natural":"tree"}},
{"type":"Feature","geometry":{"type":"Point","coordinates":[1.9086682,47.8961163]},"properties":{"leaf_type":"broadleaved","natural":"tree"}},
{"type":"Feature","geometry":{"type":"Point","coordinates":[1.9089164,47.8961496]},"properties":{"leaf_type":"broadleaved","natural":"tree"}},
{"type":"Feature","geometry":{"type":"Point","coordinates":[1.9090377,47.8963086]},"properties":{"leaf_type":"broadleaved","natural":"tree"}},
{"type":"Feature","geometry":{"type":"Point","coordinates":[1.9099147,47.8963512]},"properties":{"leaf_type":"broadleaved","natural":"tree"}},
{"type":"Feature","geometry":{"type":"Point","coordinates":[1.9088419,47.8965111]},"properties":{"leaf_type":"broadleaved","natural":"tree"}},
{"type":"Feature","geometry":{"type":"Point","coordinates":[1.9087427,47.8964528]},"properties":{"leaf_type":"broadleaved","natural":"tree"}},
{"type":"Feature","geometry":{"type":"Point","coordinates":[1.9082532,47.8965684]},"properties":{"leaf_type":"broadleaved","natural":"tree"}},
{"type":"Feature","geometry":{"type":"Point","coordinates":[1.9090102,47.8965139]},"properties":{"leaf_type":"broadleaved","natural":"tree"}},
{"type":"Feature","geometry":{"type":"Point","coordinates":[1.9089771,47.8964704]},"properties":{"leaf_type":"broadleaved","natural":"tree"}},
{"type":"Feature","geometry":{"type":"Point","coordinates":[1.9086475,47.8966313]},"properties":{"leaf_type":"broadleaved","natural":"tree"}},
{"type":"Feature","geometry":{"type":"Point","coordinates":[1.9085276,47.8966525]},"properties":{"leaf_type":"broadleaved","natural":"tree"}},
{"type":"Feature","geometry":{"type":"Point","coordinates":[1.9082959,47.8966571]},"properties":{"leaf_type":"broadleaved","natural":"tree"}},
{"type":"Feature","geometry":{"type":"Point","coordinates":[1.9081539,47.8966867]},"properties":{"leaf_type":"broadleaved","natural":"tree"}},
{"type":"Feature","geometry":{"type":"Point","coordinates":[1.9080284,47.896684]},"properties":{"leaf_type":"broadleaved","natural":"tree"}},
{"type":"Feature","geometry":{"type":"Point","coordinates":[1.9078161,47.8965425]},"properties":{"leaf_type":"broadleaved","natural":"tree"}},
{"type":"Feature","geometry":{"type":"Point","coordinates":[1.9074549,47.8966285]},"properties":{"leaf_type":"broadleaved","natural":"tree"}},
{"type":"Feature","geometry":{"type":"Point","coordinates":[1.9072825,47.8964778]},"properties":{"leaf_type":"broadleaved","natural":"tree"}},
{"type":"Feature","geometry":{"type":"Point","coordinates":[1.9068179,47.8965813]},"properties":{"leaf_type":"broadleaved","natural":"tree"}},
{"type":"Feature","geometry":{"type":"Point","coordinates":[1.9063063,47.896536]},"properties":{"leaf_type":"broadleaved","natural":"tree"}},
{"type":"Feature","geometry":{"type":"Point","coordinates":[1.9058816,47.8964917]},"properties":{"leaf_type":"broadleaved","natural":"tree"}},
{"type":"Feature","geometry":{"type":"Point","coordinates":[1.9056417,47.8965952]},"properties":{"leaf_type":"broadleaved","natural":"tree"}},
{"type":"Feature","geometry":{"type":"Point","coordinates":[1.9054845,47.8965601]},"properties":{"leaf_type":"broadleaved","natural":"tree"}},
{"type":"Feature","geometry":{"type":"Point","coordinates":[1.9053439,47.8965425]},"properties":{"leaf_type":"broadleaved","natural":"tree"}},
{"type":"Feature","geometry":{"type":"Point","coordinates":[1.9050861,47.8965157]},"properties":{"leaf_type":"broadleaved","natural":"tree"}},
{"type":"Feature","geometry":{"type":"Point","coordinates":[1.9048586,47.8965231]},"properties":{"leaf_type":"broadleaved","natural":"tree"}},
{"type":"Feature","geometry":{"type":"Point","coordinates":[1.8915957,47.9087881]},"properties":{"natural":"tree"}},
{"type":"Feature","geometry":{"type":"Point","coordinates":[1.8914028,47.9088737]},"properties":{"natural":"tree"}},
{"type":"Feature","geometry":{"type":"Point","coordinates":[1.8911434,47.909015]},"properties":{"natural":"tree"}},
{"type":"Feature","geometry":{"type":"Point","coordinates":[1.8910151,47.9090647]},"properties":{"natural":"tree"}},
{"type":"Feature","geometry":{"type":"Point","coordinates":[1.8902383,47.9062421]},"properties":{"natural":"tree"}},
{"type":"Feature","geometry":{"type":"Point","coordinates":[1.9013199,47.9076649]},"properties":{"height":"20","leaf_cycle":"evergreen","leaf_type":"needleleaved","natural":"tree"}},
{"type":"Feature","geometry":{"type":"Point","coordinates":[1.9011096,47.9078406]},"properties":{"natural":"tree"}},
{"type":"Feature","geometry":{"type":"Point","coordinates":[1.9013718,47.9078579]},"properties":{"natural":"tree"}},
{"type":"Feature","geometry":{"type":"Point","coordinates":[1.9013023,47.9079196]},"properties":{"natural":"tree"}},
{"type":"Feature","geometry":{"type":"Point","coordinates":[1.9018155,47.9077199]},"properties":{"height":"20","leaf_cycle":"evergreen","leaf_type":"needleleaved","natural":"tree"}},
{"type":"Feature","geometry":{"type":"Point","coordinates":[1.9017694,47.9076576]},"properties":{"height":"15","leaf_type":"broadleaved","natural":"tree"}},
{"type":"Feature","geometry":{"type":"Point","coordinates":[1.9018247,47.9076391]},"properties":{"height":"15","leaf_type":"broadleaved","natural":"tree"}},
{"type":"Feature","geometry":{"type":"Point","coordinates":[1.9019611,47.9076122]},"properties":{"natural":"tree"}},
{"type":"Feature","geometry":{"type":"Point","coordinates":[1.9009638,47.9072005]},"properties":{"natural":"tree"}},
{"type":"Feature","geometry":{"type":"Point","coordinates":[1.9008564,47.9071567]},"properties":{"natural":"tree"}},
{"type":"Feature","geometry":{"type":"Point","coordinates":[1.9007444,47.9071364]},"properties":{"natural":"tree"}},
{"type":"Feature","geometry":{"type":"Point","coordinates":[1.9006253,47.9071027]},"properties":{"natural":"tree"}},
{"type":"Feature","geometry":{"type":"Point","coordinates":[1.9005132,47.9070706]},"properties":{"natural":"tree"}},
{"type":"Feature","geometry":{"type":"Point","coordinates":[1.9007595,47.9069196]},"properties":{"natural":"tree"}},
{"type":"Feature","geometry":{"type":"Point","coordinates":[1.8828463,47.9096441]},"properties":{"natural":"tree"}},
{"type":"Feature","geometry":{"type":"Point","coordinates":[1.88273,47.9096318]},"properties":{"natural":"tree"}},
{"type":"Feature","geometry":{"type":"Point","coordinates":[1.8826847,47.9095662]},"properties":{"natural":"tree"}},
{"type":"Feature","geometry":{"type":"Point","coordinates":[1.8827428,47.9095705]},"properties":{"natural":"tree"}},
{"type":"Feature","geometry":{"type":"Point","coordinates":[1.8828371,47.9095866]},"properties":{"natural":"tree"}},
{"type":"Feature","geometry":{"type":"Point","coordinates":[1.8827867,47.9097472]},"properties":{"natural":"tree"}},
{"type":"Feature","geometry":{"type":"Point","coordinates":[1.8808166,47.9089022]},"properties":{"natural":"tree"}},
{"type":"Feature","geometry":{"type":"Point","coordinates":[1.8806543,47.9089632]},"properties":{"natural":"tree"}},
{"type":"Feature","geometry":{"type":"Point","coordinates":[1.8773632,47.9063686]},"properties":{"natural":"tree"}},
{"type":"Feature","geometry":{"type":"Point","coordinates":[1.8774831,47.9063788]},"properties":{"natural":"tree"}},
{"type":"Feature","geometry":{"type":"Point","coordinates":[1.8781654,47.9065838]},"properties":{"natural":"tree"}},
{"type":"Feature","geometry":{"type":"Point","coordinates":[1.8782158,47.9065692]},"properties":{"natural":"tree"}},
{"type":"Feature","geometry":{"type":"Point","coordinates":[1.8781348,47.90655]},"properties":{"natural":"tree"}},
{"type":"Feature","geometry":{"type":"Point","coordinates":[1.8781852,47.9065374]},"properties":{"natural":"tree"}},
{"type":"Feature","geometry":{"type":"Point","coordinates":[1.8785381,47.9063884]},"properties":{"natural":"tree"}},
{"type":"Feature","geometry":{"type":"Point","coordinates":[1.8777219,47.9063911]},"properties":{"natural":"tree"}},
{"type":"Feature","geometry":{"type":"Point","coordinates":[1.8776461,47.9063865]},"properties":{"natural":"tree"}},
{"type":"Feature","geometry":{"type":"Point","coordinates":[1.8778432,47.9064013]},"properties":{"natural":"tree"}},
{"type":"Feature","geometry":{"type":"Point","coordinates":[1.8782734,47.9063662]},"properties":{"natural":"tree"}},
{"type":"Feature","geometry":{"type":"Point","coordinates":[1.8781982,47.9067148]},"properties":{"natural":"tree"}},
{"type":"Feature","geometry":{"type":"Point","coordinates":[1.8712444,47.9065558]},"properties":{"natural":"tree"}},
{"type":"Feature","geometry":{"type":"Point","coordinates":[1.8712979,47.9063336]},"properties":{"natural":"tree"}},
{"type":"Feature","geometry":{"type":"Point","coordinates":[1.8695441,47.9068355]},"properties":{"natural":"tree"}},
{"type":"Feature","geometry":{"type":"Point","coordinates":[1.8696305,47.9066633]},"properties":{"natural":"tree"}},
{"type":"Feature","geometry":{"type":"Point","coordinates":[1.8698022,47.9062107]},"properties":{"natural":"tree"}},
{"type":"Feature","geometry":{"type":"Point","coordinates":[1.869944,47.9062259]},"properties":{"natural":"tree"}},
{"type":"Feature","geometry":{"type":"Point","coordinates":[1.8709022,47.9063172]},"properties":{"natural":"tree"}},
{"type":"Feature","geometry":{"type":"Point","coordinates":[1.870752,47.9062497]},"properties":{"natural":"tree"}},
{"type":"Feature","geometry":{"type":"Point","coordinates":[1.8708243,47.906301]},"properties":{"natural":"tree"}},
{"type":"Feature","geometry":{"type":"Point","coordinates":[1.8694818,47.9060872]},"properties":{"natural":"tree"}},
{"type":"Feature","geometry":{"type":"Point","coordinates":[1.8693344,47.9061224]},"properties":{"natural":"tree"}},
{"type":"Feature","geometry":{"type":"Point","coordinates":[1.8692408,47.906129]},"properties":{"natural":"tree"}},
{"type":"Feature","geometry":{"type":"Point","coordinates":[1.8688865,47.9061024]},"properties":{"natural":"tree"}},
{"type":"Feature","geometry":{"type":"Point","coordinates":[1.8688538,47.9060473]},"properties":{"natural":"tree"}},
{"type":"Feature","geometry":{"type":"Point","coordinates":[1.8688014,47.9059884]},"properties":{"natural":"tree"}},
{"type":"Feature","geometry":{"type":"Point","coordinates":[1.8705504,47.9058141]},"properties":{"natural":"tree"}},
{"type":"Feature","geometry":{"type":"Point","coordinates":[1.8701804,47.9059319]},"properties":{"natural":"tree"}},
{"type":"Feature","geometry":{"type":"Point","coordinates":[1.8704724,47.9059613]},"properties":{"natural":"tree"}},
{"type":"Feature","geometry":{"type":"Point","coordinates":[1.8705036,47.9058901]},"properties":{"natural":"tree"}},
{"type":"Feature","geometry":{"type":"Point","coordinates":[1.8713485,47.9055869]},"properties":{"natural":"tree"}},
{"type":"Feature","geometry":{"type":"Point","coordinates":[1.8713868,47.9054948]},"properties":{"natural":"tree"}},
{"type":"Feature","geometry":{"type":"Point","coordinates":[1.8714449,47.9054282]},"properties":{"natural":"tree"}},
{"type":"Feature","geometry":{"type":"Point","coordinates":[1.8714917,47.9053152]},"properties":{"natural":"tree"}},
{"type":"Feature","geometry":{"type":"Point","coordinates":[1.8715314,47.9052477]},"properties":{"natural":"tree"}},
{"type":"Feature","geometry":{"type":"Point","coordinates":[1.8715583,47.9051916]},"properties":{"natural":"tree"}},
{"type":"Feature","geometry":{"type":"Point","coordinates":[1.8715824,47.9051346]},"properties":{"natural":"tree"}},
{"type":"Feature","geometry":{"type":"Point","coordinates":[1.8712663,47.9057732]},"properties":{"natural":"tree"}},
{"type":"Feature","geometry":{"type":"Point","coordinates":[1.8712181,47.9058568]},"properties":{"natural":"tree"}},
{"type":"Feature","geometry":{"type":"Point","coordinates":[1.8715183,47.9077404]},"properties":{"natural":"tree"}},
{"type":"Feature","geometry":{"type":"Point","coordinates":[1.8711168,47.9077635]},"properties":{"natural":"tree"}},
{"type":"Feature","geometry":{"type":"Point","coordinates":[1.8712081,47.9068973]},"properties":{"natural":"tree"}},
{"type":"Feature","geometry":{"type":"Point","coordinates":[1.9024839,47.8764428]},"properties":{"natural":"tree"}},
{"type":"Feature","geometry":{"type":"Point","coordinates":[1.9020496,47.8765409]},"properties":{"natural":"tree"}},
{"type":"Feature","geometry":{"type":"Point","coordinates":[1.9021254,47.8762273]},"properties":{"natural":"tree"}},
{"type":"Feature","geometry":{"type":"Point","coordinates":[1.902215,47.8762162]},"properties":{"natural":"tree"}},
{"type":"Feature","geometry":{"type":"Point","coordinates":[1.9020799,47.8761635]},"properties":{"natural":"tree"}},
{"type":"Feature","geometry":{"type":"Point","coordinates":[1.8717029,47.9079723]},"properties":{"natural":"tree"}},
{"type":"Feature","geometry":{"type":"Point","coordinates":[1.8715063,47.9080701]},"properties":{"natural":"tree"}},
{"type":"Feature","geometry":{"type":"Point","coordinates":[1.8718818,47.9080878]},"properties":{"natural":"tree"}},
{"type":"Feature","geometry":{"type":"Point","coordinates":[1.8718641,47.9083025]},"properties":{"natural":"tree"}},
{"type":"Feature","geometry":{"type":"Point","coordinates":[1.8718845,47.9077447]},"properties":{"natural":"tree"}},
{"type":"Feature","geometry":{"type":"Point","coordinates":[1.871821,47.9077428]},"properties":{"natural":"tree"}},
{"type":"Feature","geometry":{"type":"Point","coordinates":[1.8717662,47.9077279]},"properties":{"natural":"tree"}},
{"type":"Feature","geometry":{"type":"Point","coordinates":[1.904613,47.902736]},"properties":{"leaf_type":"broadleaved","natural":"tree"}},
{"type":"Feature","geometry":{"type":"Point","coordinates":[1.9056543,47.9027569]},"properties":{"natural":"tree"}},
{"type":"Feature","geometry":{"type":"Point","coordinates":[1.9090666,47.8982419]},"properties":{"leaf_type":"broadleaved","natural":"tree"}},
{"type":"Feature","geometry":{"type":"Point","coordinates":[1.9029504,47.900003]},"properties":{"natural":"tree"}},
{"type":"Feature","geometry":{"type":"Point","coordinates":[1.9027477,47.9003095]},"properties":{"natural":"tree"}},
{"type":"Feature","geometry":{"type":"Point","coordinates":[1.9025319,47.9001944]},"properties":{"natural":"tree"}},
{"type":"Feature","geometry":{"type":"Point","coordinates":[1.9026788,47.8999897]},"properties":{"natural":"tree"}},
{"type":"Feature","geometry":{"type":"Point","coordinates":[1.9024589,47.899968]},"properties":{"natural":"tree"}},
{"type":"Feature","geometry":{"type":"Point","coordinates":[1.9029826,47.9009805]},"properties":{"natural":"tree"}},
{"type":"Feature","geometry":{"type":"Point","coordinates":[1.901868,47.9012274]},"properties":{"natural":"tree"}},
{"type":"Feature","geometry":{"type":"Point","coordinates":[1.9020171,47.9011389]},"properties":{"natural":"tree"}},
{"type":"Feature","geometry":{"type":"Point","coordinates":[1.9028937,47.9015219]},"properties":{"natural":"tree"}},
{"type":"Feature","geometry":{"type":"Point","coordinates":[1.90288,47.9015832]},"properties":{"natural":"tree"}},
{"type":"Feature","geometry":{"type":"Point","coordinates":[1.9027132,47.9012173]},"properties":{"natural":"tree"}},
{"type":"Feature","geometry":{"type":"Point","coordinates":[1.9026316,47.9011679]},"properties":{"natural":"tree"}},
{"type":"Feature","geometry":{"type":"Point","coordinates":[1.9025629,47.9011257]},"properties":{"natural":"tree"}},
{"type":"Feature","geometry":{"type":"Point","coordinates":[1.9027117,47.9011389]},"properties":{"natural":"tree"}},
{"type":"Feature","geometry":{"type":"Point","coordinates":[1.9027331,47.9010319]},"properties":{"natural":"tree"}},
{"type":"Feature","geometry":{"type":"Point","coordinates":[1.9027427,47.900974]},"properties":{"natural":"tree"}},
{"type":"Feature","geometry":{"type":"Point","coordinates":[1.9029036,47.9014385]},"properties":{"natural":"tree"}},
{"type":"Feature","geometry":{"type":"Point","coordinates":[1.9033993,47.9017546]},"properties":{"natural":"tree"}},
{"type":"Feature","geometry":{"type":"Point","coordinates":[1.9018595,47.901415]},"properties":{"natural":"tree"}},
{"type":"Feature","geometry":{"type":"Point","coordinates":[1.9019758,47.9013686]},"properties":{"natural":"tree"}},
{"type":"Feature","geometry":{"type":"Point","coordinates":[1.9020518,47.9013254]},"properties":{"natural":"tree"}},
{"type":"Feature","geometry":{"type":"Point","coordinates":[1.9022364,47.9013202]},"properties":{"natural":"tree"}},
{"type":"Feature","geometry":{"type":"Point","coordinates":[1.9020231,47.9014295]},"properties":{"natural":"tree"}},
{"type":"Feature","geometry":{"type":"Point","coordinates":[1.9022169,47.9014491]},"properties":{"natural":"tree"}},
{"type":"Feature","geometry":{"type":"Point","coordinates":[1.9023961,47.9014577]},"properties":{"natural":"tree"}},
{"type":"Feature","geometry":{"type":"Point","coordinates":[1.902106,47.9014416]},"properties":{"natural":"tree"}},
{"type":"Feature","geometry":{"type":"Point","coordinates":[1.9029677,47.9010807]},"properties":{"natural":"tree"}},
{"type":"Feature","geometry":{"type":"Point","coordinates":[1.9022569,47.9011848]},"properties":{"natural":"tree"}},
{"type":"Feature","geometry":{"type":"Point","coordinates":[1.9025808,47.9010454]},"properties":{"natural":"tree"}},
{"type":"Feature","geometry":{"type":"Point","coordinates":[1.9023629,47.9011933]},"properties":{"natural":"tree"}},
{"type":"Feature","geometry":{"type":"Point","coordinates":[1.9024903,47.901154]},"properties":{"natural":"tree"}},
{"type":"Feature","geometry":{"type":"Point","coordinates":[1.9025058,47.901083]},"properties":{"natural":"tree"}},
{"type":"Feature","geometry":{"type":"Point","coordinates":[1.9026491,47.9010896]},"properties":{"natural":"tree"}},
{"type":"Feature","geometry":{"type":"Point","coordinates":[1.9012127,47.8649555]},"properties":{"natural":"tree"}},
{"type":"Feature","geometry":{"type":"Point","coordinates":[1.901609,47.864918]},"properties":{"natural":"tree"}},
{"type":"Feature","geometry":{"type":"Point","coordinates":[1.9012676,47.8650878]},"properties":{"natural":"tree"}},
{"type":"Feature","geometry":{"type":"Point","coordinates":[1.9013539,47.8650811]},"properties":{"natural":"tree"}},
{"type":"Feature","geometry":{"type":"Point","coordinates":[1.9014492,47.8650698]},"properties":{"natural":"tree"}},
{"type":"Feature","geometry":{"type":"Point","coordinates":[1.9012547,47.8650259]},"properties":{"natural":"tree"}},
{"type":"Feature","geometry":{"type":"Point","coordinates":[1.9013351,47.8650192]},"properties":{"natural":"tree"}},
{"type":"Feature","geometry":{"type":"Point","coordinates":[1.9014313,47.8650119]},"properties":{"natural":"tree"}},
{"type":"Feature","geometry":{"type":"Point","coordinates":[1.9015227,47.8649972]},"properties":{"natural":"tree"}},
{"type":"Feature","geometry":{"type":"Point","coordinates":[1.9015048,47.8649347]},"properties":{"natural":"tree"}},
{"type":"Feature","geometry":{"type":"Point","coordinates":[1.901374,47.8651409]},"properties":{"natural":"tree"}},
{"type":"Feature","geometry":{"type":"Point","coordinates":[1.901281,47.8651482]},"properties":{"natural":"tree"}},
{"type":"Feature","geometry":{"type":"Point","coordinates":[1.9012961,47.8652126]},"properties":{"natural":"tree"}},
{"type":"Feature","geometry":{"type":"Point","coordinates":[1.9016185,47.86523]},"properties":{"natural":"tree"}},
{"type":"Feature","geometry":{"type":"Point","coordinates":[1.9019845,47.8646367]},"properties":{"natural":"tree"}},
{"type":"Feature","geometry":{"type":"Point","coordinates":[1.9020271,47.864681]},"properties":{"natural":"tree"}},
{"type":"Feature","geometry":{"type":"Point","coordinates":[1.9020642,47.8647205]},"properties":{"natural":"tree"}},
{"type":"Feature","geometry":{"type":"Point","coordinates":[1.9020996,47.8647582]},"properties":{"natural":"tree"}},
{"type":"Feature","geometry":{"type":"Point","coordinates":[1.9021367,47.8647996]},"properties":{"natural":"tree"}},
{"type":"Feature","geometry":{"type":"Point","coordinates":[1.9022699,47.8648342]},"properties":{"natural":"tree"}},
{"type":"Feature","geometry":{"type":"Point","coordinates":[1.9023324,47.8648281]},"properties":{"natural":"tree"}},
{"type":"Feature","geometry":{"type":"Point","coordinates":[1.9024013,47.864819]},"properties":{"natural":"tree"}},
{"type":"Feature","geometry":{"type":"Point","coordinates":[1.9025326,47.8648002]},"properties":{"natural":"tree"}},
{"type":"Feature","geometry":{"type":"Point","coordinates":[1.9026006,47.8647953]},"properties":{"natural":"tree"}},
{"type":"Feature","geometry":{"type":"Point","coordinates":[1.9027048,47.8647771]},"properties":{"natural":"tree"}},
{"type":"Feature","geometry":{"type":"Point","coordinates":[1.90277,47.8647716]},"properties":{"natural":"tree"}},
{"type":"Feature","geometry":{"type":"Point","coordinates":[1.9028606,47.8647588]},"properties":{"natural":"tree"}},
{"type":"Feature","geometry":{"type":"Point","coordinates":[1.9030011,47.8647424]},"properties":{"natural":"tree"}},
{"type":"Feature","geometry":{"type":"Point","coordinates":[1.903137,47.8647242]},"properties":{"natural":"tree"}},
{"type":"Feature","geometry":{"type":"Point","coordinates":[1.9032067,47.8647145]},"properties":{"natural":"tree"}},
{"type":"Feature","geometry":{"type":"Point","coordinates":[1.9032783,47.8647078]},"properties":{"natural":"tree"}},
{"type":"Feature","geometry":{"type":"Point","coordinates":[1.903349,47.8646987]},"properties":{"natural":"tree"}},
{"type":"Feature","geometry":{"type":"Point","coordinates":[1.9034043,47.8646962]},"properties":{"natural":"tree"}},
{"type":"Feature","geometry":{"type":"Point","coordinates":[1.9034568,47.8646865]},"properties":{"natural":"tree"}},
{"type":"Feature","geometry":{"type":"Point","coordinates":[1.9035429,47.8646719]},"properties":{"natural":"tree"}},
{"type":"Feature","geometry":{"type":"Point","coordinates":[1.9036108,47.8646634]},"properties":{"natural":"tree"}},
{"type":"Feature","geometry":{"type":"Point","coordinates":[1.9035982,47.8647418]},"properties":{"natural":"tree"}},
{"type":"Feature","geometry":{"type":"Point","coordinates":[1.9035202,47.8647534]},"properties":{"natural":"tree"}},
{"type":"Feature","geometry":{"type":"Point","coordinates":[1.9034505,47.8647601]},"properties":{"natural":"tree"}},
{"type":"Feature","geometry":{"type":"Point","coordinates":[1.9033907,47.8647698]},"properties":{"natural":"tree"}},
{"type":"Feature","geometry":{"type":"Point","coordinates":[1.9033218,47.8647765]},"properties":{"natural":"tree"}},
{"type":"Feature","geometry":{"type":"Point","coordinates":[1.9031913,47.8647886]},"properties":{"natural":"tree"}},
{"type":"Feature","geometry":{"type":"Point","coordinates":[1.9028815,47.8648324]},"properties":{"natural":"tree"}},
{"type":"Feature","geometry":{"type":"Point","coordinates":[1.902713,47.8648537]},"properties":{"natural":"tree"}},
{"type":"Feature","geometry":{"type":"Point","coordinates":[1.9028724,47.864895]},"properties":{"natural":"tree"}},
{"type":"Feature","geometry":{"type":"Point","coordinates":[1.9026142,47.864926]},"properties":{"natural":"tree"}},
{"type":"Feature","geometry":{"type":"Point","coordinates":[1.9025118,47.8648816]},"properties":{"natural":"tree"}},
{"type":"Feature","geometry":{"type":"Point","coordinates":[1.9019537,47.8648032]},"properties":{"natural":"tree"}},
{"type":"Feature","geometry":{"type":"Point","coordinates":[1.9019945,47.86485]},"properties":{"natural":"tree"}},
{"type":"Feature","geometry":{"type":"Point","coordinates":[1.9027806,47.866063]},"properties":{"natural":"tree"}},
{"type":"Feature","geometry":{"type":"Point","coordinates":[1.9027657,47.8660179]},"properties":{"natural":"tree"}},
{"type":"Feature","geometry":{"type":"Point","coordinates":[1.9027516,47.8659757]},"properties":{"natural":"tree"}},
{"type":"Feature","geometry":{"type":"Point","coordinates":[1.9027389,47.8659288]},"properties":{"natural":"tree"}},
{"type":"Feature","geometry":{"type":"Point","coordinates":[1.902717,47.8658676]},"properties":{"natural":"tree"}},
{"type":"Feature","geometry":{"type":"Point","coordinates":[1.9027035,47.8658226]},"properties":{"natural":"tree"}},
{"type":"Feature","geometry":{"type":"Point","coordinates":[1.9026915,47.8657799]},"properties":{"natural":"tree"}},
{"type":"Feature","geometry":{"type":"Point","coordinates":[1.902676,47.8657363]},"properties":{"natural":"tree"}},
{"type":"Feature","geometry":{"type":"Point","coordinates":[1.902664,47.8656889]},"properties":{"natural":"tree"}},
{"type":"Feature","geometry":{"type":"Point","coordinates":[1.9026491,47.8656481]},"properties":{"natural":"tree"}},
{"type":"Feature","geometry":{"type":"Point","coordinates":[1.9026378,47.8656088]},"properties":{"natural":"tree"}},
{"type":"Feature","geometry":{"type":"Point","coordinates":[1.9026145,47.8655434]},"properties":{"natural":"tree"}},
{"type":"Feature","geometry":{"type":"Point","coordinates":[1.9025855,47.8654524]},"properties":{"natural":"tree"}},
{"type":"Feature","geometry":{"type":"Point","coordinates":[1.9026088,47.8653234]},"properties":{"natural":"tree"}},
{"type":"Feature","geometry":{"type":"Point","coordinates":[1.9026626,47.8653827]},"properties":{"natural":"tree"}},
{"type":"Feature","geometry":{"type":"Point","coordinates":[1.9025403,47.865239]},"properties":{"natural":"tree"}},
{"type":"Feature","geometry":{"type":"Point","coordinates":[1.9024958,47.8651636]},"properties":{"natural":"tree"}},
{"type":"Feature","geometry":{"type":"Point","coordinates":[1.9024689,47.8651418]},"properties":{"natural":"tree"}},
{"type":"Feature","geometry":{"type":"Point","coordinates":[1.9023976,47.8650811]},"properties":{"natural":"tree"}},
{"type":"Feature","geometry":{"type":"Point","coordinates":[1.9023438,47.8650181]},"properties":{"natural":"tree"}},
{"type":"Feature","geometry":{"type":"Point","coordinates":[1.9022711,47.8650717]},"properties":{"natural":"tree"}},
{"type":"Feature","geometry":{"type":"Point","coordinates":[1.902247,47.8650371]},"properties":{"natural":"tree"}},
{"type":"Feature","geometry":{"type":"Point","coordinates":[1.902435,47.8655239]},"properties":{"natural":"tree"}},
{"type":"Feature","geometry":{"type":"Point","coordinates":[1.9023686,47.8655315]},"properties":{"natural":"tree"}},
{"type":"Feature","geometry":{"type":"Point","coordinates":[1.9023043,47.8655429]},"properties":{"natural":"tree"}},
{"type":"Feature","geometry":{"type":"Point","coordinates":[1.9024873,47.8656832]},"properties":{"natural":"tree"}},
{"type":"Feature","geometry":{"type":"Point","coordinates":[1.9024265,47.8656937]},"properties":{"natural":"tree"}},
{"type":"Feature","geometry":{"type":"Point","coordinates":[1.9025382,47.8658383]},"properties":{"natural":"tree"}},
{"type":"Feature","geometry":{"type":"Point","coordinates":[1.9024696,47.8658511]},"properties":{"natural":"tree"}},
{"type":"Feature","geometry":{"type":"Point","coordinates":[1.9025806,47.865971]},"properties":{"natural":"tree"}},
{"type":"Feature","geometry":{"type":"Point","coordinates":[1.9025078,47.8659843]},"properties":{"natural":"tree"}},
{"type":"Feature","geometry":{"type":"Point","coordinates":[1.9024456,47.8659961]},"properties":{"natural":"tree"}},
{"type":"Feature","geometry":{"type":"Point","coordinates":[1.9023905,47.8660103]},"properties":{"natural":"tree"}},
{"type":"Feature","geometry":{"type":"Point","coordinates":[1.9026251,47.8661056]},"properties":{"natural":"tree"}},
{"type":"Feature","geometry":{"type":"Point","coordinates":[1.9025587,47.866118]},"properties":{"natural":"tree"}},
{"type":"Feature","geometry":{"type":"Point","coordinates":[1.9024944,47.866127]},"properties":{"natural":"tree"}},
{"type":"Feature","geometry":{"type":"Point","coordinates":[1.9028018,47.8662464]},"properties":{"natural":"tree"}},
{"type":"Feature","geometry":{"type":"Point","coordinates":[1.9028041,47.8663734]},"properties":{"natural":"tree"}},
{"type":"Feature","geometry":{"type":"Point","coordinates":[1.9028297,47.8664265]},"properties":{"natural":"tree"}},
{"type":"Feature","geometry":{"type":"Point","coordinates":[1.9027473,47.8664233]},"properties":{"natural":"tree"}},
{"type":"Feature","geometry":{"type":"Point","coordinates":[1.9028617,47.8665425]},"properties":{"natural":"tree"}},
{"type":"Feature","geometry":{"type":"Point","coordinates":[1.9028681,47.8664861]},"properties":{"natural":"tree"}},
{"type":"Feature","geometry":{"type":"Point","coordinates":[1.9027713,47.8664603]},"properties":{"natural":"tree"}},
{"type":"Feature","geometry":{"type":"Point","coordinates":[1.9027769,47.8665017]},"properties":{"natural":"tree"}},
{"type":"Feature","geometry":{"type":"Point","coordinates":[1.9027625,47.8665478]},"properties":{"natural":"tree"}},
{"type":"Feature","geometry":{"type":"Point","coordinates":[1.9026392,47.8664603]},"properties":{"natural":"tree"}},
{"type":"Feature","geometry":{"type":"Point","coordinates":[1.9025592,47.8664582]},"properties":{"natural":"tree"}},
{"type":"Feature","geometry":{"type":"Point","coordinates":[1.9029973,47.8666831]},"properties":{"natural":"tree"}},
{"type":"Feature","geometry":{"type":"Point","coordinates":[1.9029176,47.8667307]},"properties":{"natural":"tree"}},
{"type":"Feature","geometry":{"type":"Point","coordinates":[1.9033162,47.8666351]},"properties":{"natural":"tree"}},
{"type":"Feature","geometry":{"type":"Point","coordinates":[1.9019922,47.8666681]},"properties":{"natural":"tree"}},
{"type":"Feature","geometry":{"type":"Point","coordinates":[1.9031975,47.8661623]},"properties":{"natural":"tree"}},
{"type":"Feature","geometry":{"type":"Point","coordinates":[1.9034745,47.8661284]},"properties":{"natural":"tree"}},
{"type":"Feature","geometry":{"type":"Point","coordinates":[1.9036294,47.8660654]},"properties":{"natural":"tree"}},
{"type":"Feature","geometry":{"type":"Point","coordinates":[1.9039765,47.8661793]},"properties":{"natural":"tree"}},
{"type":"Feature","geometry":{"type":"Point","coordinates":[1.903412,47.8659275]},"properties":{"natural":"tree"}},
{"type":"Feature","geometry":{"type":"Point","coordinates":[1.9038171,47.8659795]},"properties":{"natural":"tree"}},
{"type":"Feature","geometry":{"type":"Point","coordinates":[1.9036041,47.8659095]},"properties":{"natural":"tree"}},
{"type":"Feature","geometry":{"type":"Point","coordinates":[1.903692,47.8658696]},"properties":{"natural":"tree"}},
{"type":"Feature","geometry":{"type":"Point","coordinates":[1.9034924,47.8658496]},"properties":{"natural":"tree"}},
{"type":"Feature","geometry":{"type":"Point","coordinates":[1.9038499,47.8658626]},"properties":{"natural":"tree"}},
{"type":"Feature","geometry":{"type":"Point","coordinates":[1.9037009,47.8659455]},"properties":{"natural":"tree"}},
{"type":"Feature","geometry":{"type":"Point","coordinates":[1.9037605,47.8660644]},"properties":{"natural":"tree"}},
{"type":"Feature","geometry":{"type":"Point","coordinates":[1.903476,47.8656907]},"properties":{"natural":"tree"}},
{"type":"Feature","geometry":{"type":"Point","coordinates":[1.9035997,47.8657307]},"properties":{"natural":"tree"}},
{"type":"Feature","geometry":{"type":"Point","coordinates":[1.903765,47.8657057]},"properties":{"natural":"tree"}},
{"type":"Feature","geometry":{"type":"Point","coordinates":[1.9043578,47.8659185]},"properties":{"natural":"tree"}},
{"type":"Feature","geometry":{"type":"Point","coordinates":[1.9042297,47.8658636]},"properties":{"natural":"tree"}},
{"type":"Feature","geometry":{"type":"Point","coordinates":[1.9041359,47.8661214]},"properties":{"natural":"tree"}},
{"type":"Feature","geometry":{"type":"Point","coordinates":[1.9036503,47.8661953]},"properties":{"natural":"tree"}},
{"type":"Feature","geometry":{"type":"Point","coordinates":[1.9040688,47.8662862]},"properties":{"natural":"tree"}},
{"type":"Feature","geometry":{"type":"Point","coordinates":[1.9041344,47.8662033]},"properties":{"natural":"tree"}},
{"type":"Feature","geometry":{"type":"Point","coordinates":[1.9035028,47.8664821]},"properties":{"natural":"tree"}},
{"type":"Feature","geometry":{"type":"Point","coordinates":[1.9036756,47.8664611]},"properties":{"natural":"tree"}},
{"type":"Feature","geometry":{"type":"Point","coordinates":[1.9037426,47.8664401]},"properties":{"natural":"tree"}},
{"type":"Feature","geometry":{"type":"Point","coordinates":[1.903835,47.8664391]},"properties":{"natural":"tree"}},
{"type":"Feature","geometry":{"type":"Point","coordinates":[1.903911,47.866582]},"properties":{"natural":"tree"}},
{"type":"Feature","geometry":{"type":"Point","coordinates":[1.9038067,47.8663852]},"properties":{"natural":"tree"}},
{"type":"Feature","geometry":{"type":"Point","coordinates":[1.9079192,47.8654448]},"properties":{"natural":"tree"}},
{"type":"Feature","geometry":{"type":"Point","coordinates":[1.9081155,47.8653746]},"properties":{"natural":"tree"}},
{"type":"Feature","geometry":{"type":"Point","coordinates":[1.9036282,47.8674553]},"properties":{"natural":"tree"}},
{"type":"Feature","geometry":{"type":"Point","coordinates":[1.903518,47.8674703]},"properties":{"natural":"tree"}},
{"type":"Feature","geometry":{"type":"Point","coordinates":[1.9034182,47.8674823]},"properties":{"natural":"tree"}},