{"type":"FeatureCollection","features":[
{"type":"Feature","geometry":{"type":"Point","coordinates":[7.3496063,47.7561356]},"properties":{"crossing":"uncontrolled","crossing:island":"yes","crossing:markings":"zebra","highway":"crossing","kerb":"flush","tactile_paving":"no"}},
{"type":"Feature","geometry":{"type":"Point","coordinates":[7.3295423,47.735933]},"properties":{"seamark:type":"gate","waterway":"lock_gate"}},
{"type":"Feature","geometry":{"type":"Point","coordinates":[7.3282416,47.7352301]},"properties":{"fee":"yes","leisure":"marina","name":"Halte Nautique de Mulhouse34","seamark:harbour:category":"marina_no_facilities","seamark:type":"harbour"}},
{"type":"Feature","geometry":{"type":"Point","coordinates":[7.3495562,47.7561556]},"properties":{"bicycle":"designated","crossing":"uncontrolled","crossing:island":"yes","highway":"crossing","tactile_paving":"no"}},
{"type":"Feature","geometry":{"type":"Point","coordinates":[7.2853797,47.7362602]},"properties":{"brand":"Campanile","brand:wikidata":"Q2412064","brand:wikipedia":"fr:Campanile (chaîne d'hôtels)","name":"Campanile Morschwiller-le-Bas","tourism":"hotel"}},
{"type":"Feature","geometry":{"type":"Point","coordinates":[7.3385368,47.7473534]},"properties":{"historic":"memorial","memorial":"statue","name":"Colonne Lambert","note":"writen on memorial : Lon 7°20'0'' est, lat 47°45'0'' nord, alt 240m"}},
{"type":"Feature","geometry":{"type":"Point","coordinates":[7.3384212,47.7457898]},"properties":{"contact:phone":"+33 3 89 33 78 11","contact:website":"http://www.musees-mulhouse.fr/musee-des-beaux-arts","name":"Musée des Beaux-Arts de Mulhouse","official_name":"Musée des Beaux-Arts","ref:FR:museofile":"M0033","source":"Ministère de la Culture - Muséofile - 09/2019","tourism":"museum","wikidata":"Q3330211"}},
{"type":"Feature","geometry":{"type":"Point","coordinates":[7.295155,47.7490528]},"properties":{"air_conditioning":"yes","check_date":"2023-07-11","contact:city":"Mulhouse","contact:housenumber":"55","contact:phone":"+33 3 89 32 48 50","contact:postcode":"68200","contact:street":"Rue du Pâturage","contact:website":"https://www.musee-electropolis.fr","fee":"yes","museum":"technology","name":"Musée Electropolis","opening_hours":"Tu-Su 10:00-19:00","operator":"EDF","phone":"+33 3 89 32 48 50","ref:FR:museofile":"M0039","source":"Ministère de la Culture - Muséofile - 09/2019","tourism":"museum","website":"https://www.musee-electropolis.fr","wheelchair":"yes","wikidata":"Q3329134","wikipedia":"fr:Musée Electropolis"}},
{"type":"Feature","geometry":{"type":"Point","coordinates":[7.3169879,47.7658942]},"properties":{"historic":"memorial","source":"cadastre-dgi-fr source : Direction Générale des Impôts - Cadastre ; mise à jour : 2009"}},
{"type":"Feature","geometry":{"type":"Point","coordinates":[7.2624196,47.7847594]},"properties":{"historic":"memorial"}},
{"type":"Feature","geometry":{"type":"Point","coordinates":[7.3242443,47.7345802]},"properties":{"barrier":"lift_gate"}},
{"type":"Feature","geometry":{"type":"Point","coordinates":[7.3582821,47.8184155]},"properties":{"historic":"wayside_cross"}},
{"type":"Feature","geometry":{"type":"Point","coordinates":[7.358411,47.8228098]},"properties":{"historic":"monument"}},
{"type":"Feature","geometry":{"type":"Point","coordinates":[7.3330915,47.7471615]},"properties":{"barrier":"gate"}},
{"type":"Feature","geometry":{"type":"Point","coordinates":[7.3392115,47.7464238]},"properties":{"artwork_type":"statue","name":"Guillaume Tell","tourism":"artwork"}},
{"type":"Feature","geometry":{"type":"Point","coordinates":[7.2540906,47.8239308]},"properties":{"leisure":"playground"}},
{"type":"Feature","geometry":{"type":"Point","coordinates":[7.2500189,47.8252848]},"properties":{"historic":"wayside_cross"}},
{"type":"Feature","geometry":{"type":"Point","coordinates":[7.2758199,47.8403613]},"properties":{"description":"Chapelle : Croix : Centre - Point vu en place en 2004","ele":"240.9","man_made":"survey_point","note":"Ne pas déplacer ce point, cf. - Do not move this node, see - http://wiki.openstreetmap.org/wiki/WikiProject_France/Repères_Géodésiques#Permanence_des_rep.C3.A8res","ref":"6832101 - 1","source":"©IGN 2010 dans le cadre de la cartographie réglementaire","url":"http://geodesie.ign.fr/fiches/index.php?module=e&action=fichepdf&source=carte&sit_no=6832101"}},
{"type":"Feature","geometry":{"type":"Point","coordinates":[7.2602178,47.8494406]},"properties":{"historic":"wayside_cross","name":"Croix de Mission","source":"cadastre-dgi-fr source : Direction Générale des Impôts - Cadastre. Mise à jour : 2010"}},
{"type":"Feature","geometry":{"type":"Point","coordinates":[7.3528722,47.7365729]},"properties":{"barrier":"gate"}},
{"type":"Feature","geometry":{"type":"Point","coordinates":[7.338168,47.751643]},"properties":{"name":"Bristol","stars":"3","tourism":"hotel"}},
{"type":"Feature","geometry":{"type":"Point","coordinates":[7.2848519,47.7393902]},"properties":{"email":"mulhouse@enzo-hotels.com","fax":"+33 3 68 38 34 97","internet_access":"yes","name":"Enzo Hôtel","phone":"+33 3 89 59 84 30","tourism":"hotel","website":"https://www.enzo-hotels.com/","wheelchair":"yes"}},
{"type":"Feature","geometry":{"type":"Point","coordinates":[7.3299945,47.7361793]},"properties":{"seamark:type":"gate","waterway":"lock_gate"}},
{"type":"Feature","geometry":{"type":"Point","coordinates":[7.322182,47.7291791]},"properties":{"seamark:type":"gate","waterway":"lock_gate"}},
{"type":"Feature","geometry":{"type":"Point","coordinates":[7.3572278,47.7509018]},"properties":{"seamark:type":"gate","waterway":"lock_gate"}},
{"type":"Feature","geometry":{"type":"Point","coordinates":[7.3577394,47.7511763]},"properties":{"seamark:type":"gate","waterway":"lock_gate"}},
{"type":"Feature","geometry":{"type":"Point","coordinates":[7.2858636,47.7365299]},"properties":{"brand":"Première Classe","brand:wikidata":"Q5964551","brand:wikipedia":"fr:Première Classe (chaîne d'hôtels)","name":"Première Classe Morschwiller-le-Bas","tourism":"hotel"}},
{"type":"Feature","geometry":{"type":"Point","coordinates":[7.3340983,47.7476628]},"properties":{"artist_name":"Fabio Rieti","artwork_type":"mural","name":"Les Mulhousiens","tourism":"artwork"}},
{"type":"Feature","geometry":{"type":"Point","coordinates":[7.250304,47.8255975]},"properties":{"information":"map","map_size":"city","map_type":"scheme","tourism":"information"}},
{"type":"Feature","geometry":{"type":"Point","coordinates":[7.2942819,47.7493851]},"properties":{"fireplace":"no","tourism":"picnic_site"}},
{"type":"Feature","geometry":{"type":"Point","coordinates":[7.2903247,47.7358295]},"properties":{"brand":"Holiday Inn","brand:wikidata":"Q2717882","brand:wikipedia":"en:Holiday Inn","name":"Holiday Inn Mulhouse","tourism":"hotel"}},
{"type":"Feature","geometry":{"type":"Point","coordinates":[7.3202305,47.7680047]},"properties":{"addr:housenumber":"5","source":"Direction Générale des Finances Publiques - Cadastre. Mise à jour : 2011"}},
{"type":"Feature","geometry":{"type":"Point","coordinates":[7.325384,47.7766557]},"properties":{"addr:housenumber":"12","source":"Direction Générale des Finances Publiques - Cadastre. Mise à jour : 2011"}},
{"type":"Feature","geometry":{"type":"Point","coordinates":[7.3377274,47.7910957]},"properties":{"addr:housenumber":"19","source":"Direction Générale des Finances Publiques - cadastre. Mise à jour : 2014"}},
{"type":"Feature","geometry":{"type":"Point","coordinates":[7.3282967,47.7869949]},"properties":{"addr:housenumber":"32","source":"Direction Générale des Finances Publiques - cadastre. Mise à jour : 2014"}},
{"type":"Feature","geometry":{"type":"Point","coordinates":[7.3141192,47.7784289]},"properties":{"addr:housenumber":"9","source":"Direction Générale des Finances Publiques - cadastre. Mise à jour : 2014"}},
{"type":"Feature","geometry":{"type":"Point","coordinates":[7.3204756,47.7354239]},"properties":{"entrance":"yes"}},
{"type":"Feature","geometry":{"type":"Point","coordinates":[7.3176554,47.7886834]},"properties":{"addr:housenumber":"155 b","source":"Direction Générale des Finances Publiques - cadastre. Mise à jour : 2014"}},
{"type":"Feature","geometry":{"type":"Point","coordinates":[7.3170879,47.7932625]},"properties":{"brand":"Basic-Fit","brand:wikidata":"Q40165577","brand:wikipedia":"nl:Basic-Fit","contact:city":"Kingersheim","contact:country":"FR","contact:housenumber":"90","contact:phone":"+33 3 66 33 33 44","contact:postcode":"68260","contact:street":"Rue de Guebwiller","leisure":"fitness_centre","name":"Basic-Fit","opening_hours":"Mo-Su 06:00-22:30"}},
{"type":"Feature","geometry":{"type":"Point","coordinates":[7.2995613,47.772557]},"properties":{"historic":"wayside_cross","name":"Calvaire","source":"Direction Générale des Finances Publiques - Cadastre. Mise à jour : 2011"}},
{"type":"Feature","geometry":{"type":"Point","coordinates":[7.3311179,47.8244428]},"properties":{"board_type":"nature","information":"board","name":"Le milieu humide","tourism":"information"}},
{"type":"Feature","geometry":{"type":"Point","coordinates":[7.3310763,47.8235583]},"properties":{"board_type":"nature","information":"board","name":"Promenade Joseph Vogt","tourism":"information"}},
{"type":"Feature","geometry":{"type":"Point","coordinates":[7.2924369,47.7591493]},"properties":{"brand":"Kyriad","brand:wikidata":"Q11751808","check_date":"2024-11-01","name":"Kyriad","tourism":"hotel"}},
{"type":"Feature","geometry":{"type":"Point","coordinates":[7.3105584,47.79088]},"properties":{"addr:housenumber":"13","source":"Direction Générale des Finances Publiques - cadastre. Mise à jour : 2014"}},
{"type":"Feature","geometry":{"type":"Point","coordinates":[7.309369,47.7915572]},"properties":{"addr:housenumber":"3","source":"Direction Générale des Finances Publiques - cadastre. Mise à jour : 2014"}},
{"type":"Feature","geometry":{"type":"Point","coordinates":[7.3173096,47.7558425]},"properties":{"addr:housenumber":"50","source":"Direction Générale des Finances Publiques - Cadastre. Mise à jour : 2011"}},
{"type":"Feature","geometry":{"type":"Point","coordinates":[7.2580097,47.7865671]},"properties":{"historic":"monument","name":"Rond point de la carotte"}},
{"type":"Feature","geometry":{"type":"Point","coordinates":[7.3372392,47.8222435]},"properties":{"addr:housenumber":"10 a","source":"Direction Générale des Finances Publiques - cadastre. Mise à jour : 2014"}},
{"type":"Feature","geometry":{"type":"Point","coordinates":[7.2711146,47.7348683]},"properties":{"addr:housenumber":"8","source":"Direction Générale des Finances Publiques - cadastre. Mise à jour : 2012"}},
{"type":"Feature","geometry":{"type":"Point","coordinates":[7.3411712,47.7424944]},"properties":{"capacity":"34","draft":"2","drinking_water":"yes","fee":"yes","leisure":"marina","name":"Port de Plaisance de Mulhouse","name:de":"Sportboothafen Mulhouse","operator":"Pro Bateaux","power_supply":"yes","seamark:harbour:category":"marina","seamark:type":"harbour","toilets":"yes"}},
{"type":"Feature","geometry":{"type":"Point","coordinates":[7.3453399,47.7399166]},"properties":{"addr:housenumber":"1B","source":"Direction Générale des Finances Publiques - cadastre. Mise à jour : 2011"}},
{"type":"Feature","geometry":{"type":"Point","coordinates":[7.3499128,47.7400509]},"properties":{"addr:housenumber":"48","source":"Direction Générale des Finances Publiques - cadastre. Mise à jour : 2011"}},
{"type":"Feature","geometry":{"type":"Point","coordinates":[7.3175865,47.7386185]},"properties":{"contact:city":"Mulhouse","contact:housenumber":"37","contact:postcode":"68200","contact:street":"Rue de l'Illberg","contact:website":"https://www.hifrance.org/auberge-de-jeunesse/mulhouse.html","internet_access":"wlan","name":"Auberge de jeunesse Mulhouse","tourism":"hostel","wheelchair":"yes"}},
{"type":"Feature","geometry":{"type":"Point","coordinates":[7.3192811,47.7358233]},"properties":{"barrier":"entrance","bicycle":"yes","foot":"yes"}},
{"type":"Feature","geometry":{"type":"Point","coordinates":[7.3072831,47.7422759]},"properties":{"email":"contact@squash3000.com","leisure":"sports_centre","name":"Squash 3000","phone":"+33 3 89 59 26 63","source":"cadastre-dgi-fr source : Direction Générale des Impôts - Cadastre. Mise à jour : 2012","sport":"squash;tennis;badminton;fitness","website":"https://www.squash3000.com/"}},
{"type":"Feature","geometry":{"type":"Point","coordinates":[7.3199513,47.7354318]},"properties":{"entrance":"yes"}},
{"type":"Feature","geometry":{"type":"Point","coordinates":[7.335408,47.74126]},"properties":{"entrance":"yes"}},
{"type":"Feature","geometry":{"type":"Point","coordinates":[7.3367057,47.7414162]},"properties":{"entrance":"yes"}},
{"type":"Feature","geometry":{"type":"Point","coordinates":[7.3363628,47.7414469]},"properties":{"name":"Hêtres pourpres","natural":"tree"}},
{"type":"Feature","geometry":{"type":"Point","coordinates":[7.3366987,47.7414954]},"properties":{"name":"Marronnier","natural":"tree"}},
{"type":"Feature","geometry":{"type":"Point","coordinates":[7.3582003,47.7369106]},"properties":{"barrier":"gate","bicycle":"yes","entrance":"yes","foot":"yes"}},
{"type":"Feature","geometry":{"type":"Point","coordinates":[7.3266484,47.7464944]},"properties":{"barrier":"gate"}},
{"type":"Feature","geometry":{"type":"Point","coordinates":[7.3258662,47.7457902]},"properties":{"entrance":"yes"}},
{"type":"Feature","geometry":{"type":"Point","coordinates":[7.3120254,47.7468124]},"properties":{"addr:housenumber":"3","source":"Direction Générale des Finances Publiques - Cadastre. Mise à jour : 2011"}},
{"type":"Feature","geometry":{"type":"Point","coordinates":[7.3360963,47.7411012]},"properties":{"entrance":"yes"}},
{"type":"Feature","geometry":{"type":"Point","coordinates":[7.3391235,47.7448716]},"properties":{"check_date":"2024-11-24","name":"Hôtel du Parc","stars":"5","tourism":"hotel"}},
{"type":"Feature","geometry":{"type":"Point","coordinates":[7.3177746,47.7339486]},"properties":{"entrance":"yes"}},
{"type":"Feature","geometry":{"type":"Point","coordinates":[7.3204545,47.7356678]},"properties":{"entrance":"yes"}},
{"type":"Feature","geometry":{"type":"Point","coordinates":[7.3360033,47.7387754]},"properties":{"addr:city":"Mulhouse","addr:housenumber":"8c","addr:postcode":"68100","addr:street":"Quai d'Oran","email":"contact@club-cityzen.fr","fee":"yes","leisure":"sauna","name":"City Zen Club libertin","opening_hours":"14:00-21:00; Th-Sa 14:00-23:00","phone":"+33 9 83 73 71 74","website":"https://www.club-cityzen.fr/"}},
{"type":"Feature","geometry":{"type":"Point","coordinates":[7.3192331,47.7349862]},"properties":{"barrier":"gate"}},
{"type":"Feature","geometry":{"type":"Point","coordinates":[7.3206649,47.7354537]},"properties":{"addr:housenumber":"49","entrance":"yes","source":"Mulhouse Alsace Agglomération - 09/2013"}},
{"type":"Feature","geometry":{"type":"Point","coordinates":[7.3193035,47.7390744]},"properties":{"entrance":"yes"}},
{"type":"Feature","geometry":{"type":"Point","coordinates":[7.3271752,47.7346327]},"properties":{"leisure":"slipway","seamark:small_craft_facility:category":"slipway","seamark:type":"small_craft_facility"}},
{"type":"Feature","geometry":{"type":"Point","coordinates":[7.3318958,47.7391549]},"properties":{"contact:city":"Mulhouse","contact:email":"kunsthalle@mulhouse.fr","contact:housenumber":"16","contact:phone":"+33369776647","contact:postcode":"68093","contact:street":"Rue de la Fonderie","contact:website":"http://kunsthallemulhouse.com/","name":"La Kunsthalle - Centre d'art contemporain","opening_hours":"Tu 10:00-18:00; We,Fr 12:00-18:00; Th 12:00-20:00; Sa,Su 14:00-18:00; Mar 25,Mar 27,May 01 off","tourism":"museum"}},
{"type":"Feature","geometry":{"type":"Point","coordinates":[7.316055,47.7390458]},"properties":{"addr:housenumber":"2","source":"cadastre-dgi-fr source : Direction Générale des Impôts - Cadastre. Mise à jour : 2013"}},
{"type":"Feature","geometry":{"type":"Point","coordinates":[7.3392546,47.7465763]},"properties":{"contact:city":"Mulhouse","contact:housenumber":"2","contact:phone":"+33 3 89 33 78 17","contact:postcode":"68100","contact:street":"Place de la Réunion","contact:website":"http://www.musees-mulhouse.fr/musee-historique/","fee":"no","mapillary":"507018507134400","museum":"history","name":"Musée Historique de Mulhouse","official_name":"Musée Historique","opening_hours":"Mo-Su 13:00-18:30; Tu off","operator":"Ville de Mulhouse","operator:type":"public","ref:FR:museofile":"M0034","source":"Ministère de la Culture - Muséofile - 09/2019","tourism":"museum","wheelchair":"limited","wikidata":"Q15818388"}},
{"type":"Feature","geometry":{"type":"Point","coordinates":[7.3348674,47.7508007]},"properties":{"leisure":"sports_centre","name":"Piscine Pierre et Marie Curie","name:etymology:wikidata":"Q37463;Q7186","sport":"swimming"}},
{"type":"Feature","geometry":{"type":"Point","coordinates":[7.3493385,47.771789]},"properties":{"leisure":"pitch","name":"Cercle Bouliste d'Illzach","source":"Mulhouse Alsace Agglomération 2013","sport":"boules"}},
{"type":"Feature","geometry":{"type":"Point","coordinates":[7.3341448,47.7742931]},"properties":{"leisure":"pitch","name":"La Boule 2000","source":"Mulhouse Alsace Agglomération 2013","sport":"boules"}},
{"type":"Feature","geometry":{"type":"Point","coordinates":[7.2756628,47.7843173]},"properties":{"leisure":"pitch","name":"Pétanque Club Richwiller","source":"Mulhouse Alsace Agglomération 2013","sport":"boules"}},
{"type":"Feature","geometry":{"type":"Point","coordinates":[7.2728871,47.8266322]},"properties":{"addr:city":"Staffelfelden","addr:housenumber":"21","addr:postcode":"68850","addr:street":"Rue de l'Eau qui Court","boules":"petanque","leisure":"pitch","name":"Pétanque Club Staffelfelden","source":"Mulhouse Alsace Agglomération 2013","sport":"boules"}},
{"type":"Feature","geometry":{"type":"Point","coordinates":[7.3069748,47.7479928]},"properties":{"leisure":"pitch","name":"Union Bouliste Mulhousienne","source":"Mulhouse Alsace Agglomération 2013","sport":"boules"}},
{"type":"Feature","geometry":{"type":"Point","coordinates":[7.3520934,47.7360675]},"properties":{"attraction":"animal","name":"Lemurs","name:de":"Lemuren","tourism":"attraction"}},
{"type":"Feature","geometry":{"type":"Point","coordinates":[7.3519631,47.7361826]},"properties":{"attraction":"animal","name":"Lemurs","name:de":"Lemuren","tourism":"attraction"}},
{"type":"Feature","geometry":{"type":"Point","coordinates":[7.3520851,47.7357682]},"properties":{"attraction":"animal","name":"Flamants Roses","name:de":"Rosa Flamigos","tourism":"attraction"}},
{"type":"Feature","geometry":{"type":"Point","coordinates":[7.3455162,47.7366684]},"properties":{"barrier":"entrance"}},
{"type":"Feature","geometry":{"type":"Point","coordinates":[7.3580543,47.7715939]},"properties":{"addr:housenumber":"8"}},
{"type":"Feature","geometry":{"type":"Point","coordinates":[7.3580491,47.7792789]},"properties":{"addr:housenumber":"81","addr:street":"Rue des Vosges","leisure":"park","name":"Les Jardins du Temps","website":"https://www.jardins-du-temps.fr/"}},
{"type":"Feature","geometry":{"type":"Point","coordinates":[7.3524947,47.7772229]},"properties":{"addr:housenumber":"10"}},
{"type":"Feature","geometry":{"type":"Point","coordinates":[7.3508652,47.7768753]},"properties":{"addr:housenumber":"6"}},
{"type":"Feature","geometry":{"type":"Point","coordinates":[7.3303403,47.8167471]},"properties":{"addr:housenumber":"96","source":"Direction Générale des Finances Publiques - cadastre. Mise à jour : 2014"}},
{"type":"Feature","geometry":{"type":"Point","coordinates":[7.3269205,47.8111952]},"properties":{"addr:housenumber":"4","source":"Direction Générale des Finances Publiques - cadastre. Mise à jour : 2014"}},
{"type":"Feature","geometry":{"type":"Point","coordinates":[7.3076227,47.809865]},"properties":{"addr:housenumber":"2","source":"Direction Générale des Finances Publiques - cadastre. Mise à jour : 2014"}},
{"type":"Feature","geometry":{"type":"Point","coordinates":[7.3260975,47.7860103]},"properties":{"addr:housenumber":"40","source":"Direction Générale des Finances Publiques - cadastre. Mise à jour : 2014"}},
{"type":"Feature","geometry":{"type":"Point","coordinates":[7.2792157,47.7593707]},"properties":{"circumference":"7,7","genus":"Platanus","height":"20","leaf_type":"broadleaved","natural":"tree","start_date":"~1750"}},
{"type":"Feature","geometry":{"type":"Point","coordinates":[7.3405201,47.7620031]},"properties":{"addr:housenumber":"94","source":"Mulhouse Alsace Agglomération - 09/2013"}},
{"type":"Feature","geometry":{"type":"Point","coordinates":[7.3441903,47.759177]},"properties":{"addr:city":"Mulhouse","addr:housenumber":"10","addr:postcode":"68100","addr:street":"Rue Marcel Maire","source":"Mulhouse Alsace Agglomération - 09/2013"}},
{"type":"Feature","geometry":{"type":"Point","coordinates":[7.3443875,47.7590293]},"properties":{"addr:city":"Mulhouse","addr:housenumber":"12","addr:postcode":"68100","addr:street":"Rue Marcel Maire","source":"Mulhouse Alsace Agglomération - 09/2013"}},
{"type":"Feature","geometry":{"type":"Point","coordinates":[7.3445926,47.7588823]},"properties":{"addr:city":"Mulhouse","addr:housenumber":"14","addr:postcode":"68100","addr:street":"Rue Marcel Maire","source":"Mulhouse Alsace Agglomération - 09/2013"}},
{"type":"Feature","geometry":{"type":"Point","coordinates":[7.3438066,47.759056]},"properties":{"addr:city":"Mulhouse","addr:housenumber":"6","addr:postcode":"68100","addr:street":"Rue Marcel Maire","source":"Mulhouse Alsace Agglomération - 09/2013"}},
{"type":"Feature","geometry":{"type":"Point","coordinates":[7.3440192,47.759191]},"properties":{"addr:city":"Mulhouse","addr:housenumber":"8","addr:postcode":"68100","addr:street":"Rue Marcel Maire","source":"Mulhouse Alsace Agglomération - 09/2013"}},
{"type":"Feature","geometry":{"type":"Point","coordinates":[7.3454642,47.7581416]},"properties":{"addr:city":"Mulhouse","addr:housenumber":"45","addr:postcode":"68100","addr:street":"Rue Paul Meyer","source":"Mulhouse Alsace Agglomération - 09/2013"}},
{"type":"Feature","geometry":{"type":"Point","coordinates":[7.3463652,47.7566499]},"properties":{"addr:housenumber":"1","source":"Mulhouse Alsace Agglomération - 09/2013"}},
{"type":"Feature","geometry":{"type":"Point","coordinates":[7.3461931,47.7567522]},"properties":{"addr:housenumber":"3","source":"Mulhouse Alsace Agglomération - 09/2013"}},
{"type":"Feature","geometry":{"type":"Point","coordinates":[7.3462841,47.7570329]},"properties":{"addr:housenumber":"4","source":"Mulhouse Alsace Agglomération - 09/2013"}},
{"type":"Feature","geometry":{"type":"Point","coordinates":[7.346111,47.7571365]},"properties":{"addr:housenumber":"6","source":"Mulhouse Alsace Agglomération - 09/2013"}},
{"type":"Feature","geometry":{"type":"Point","coordinates":[7.3459393,47.7572393]},"properties":{"addr:housenumber":"8","source":"Mulhouse Alsace Agglomération - 09/2013"}},
{"type":"Feature","geometry":{"type":"Point","coordinates":[7.3519694,47.7547442]},"properties":{"addr:housenumber":"43","source":"Mulhouse Alsace Agglomération - 09/2013"}},
{"type":"Feature","geometry":{"type":"Point","coordinates":[7.3585105,47.7584346]},"properties":{"addr:housenumber":"4","source":"Mulhouse Alsace Agglomération - 09/2013"}},
{"type":"Feature","geometry":{"type":"Point","coordinates":[7.3588214,47.7582924]},"properties":{"addr:housenumber":"5","source":"Mulhouse Alsace Agglomération - 09/2013"}},
{"type":"Feature","geometry":{"type":"Point","coordinates":[7.3585125,47.7582698]},"properties":{"addr:housenumber":"6","source":"Mulhouse Alsace Agglomération - 09/2013"}},
{"type":"Feature","geometry":{"type":"Point","coordinates":[7.3588157,47.7581573]},"properties":{"addr:housenumber":"7","source":"Mulhouse Alsace Agglomération - 09/2013"}},
{"type":"Feature","geometry":{"type":"Point","coordinates":[7.3450848,47.7449636]},"properties":{"addr:housenumber":"3","source":"Mulhouse Alsace Agglomération - 09/2013"}},
{"type":"Feature","geometry":{"type":"Point","coordinates":[7.3385362,47.7507717]},"properties":{"addr:housenumber":"6","source":"Mulhouse Alsace Agglomération - 09/2013"}},
{"type":"Feature","geometry":{"type":"Point","coordinates":[7.3282478,47.7537345]},"properties":{"addr:housenumber":"50","source":"Mulhouse Alsace Agglomération - 09/2013"}},
{"type":"Feature","geometry":{"type":"Point","coordinates":[7.3387945,47.7434229]},"properties":{"addr:housenumber":"14","source":"Mulhouse Alsace Agglomération - 09/2013"}},
{"type":"Feature","geometry":{"type":"Point","coordinates":[7.3303311,47.7448098]},"properties":{"contact:city":"Mulhouse","contact:housenumber":"33","contact:postcode":"68100","contact:street":"Grand' Rue","contact:website":"https://club-vosgien-mulhouse.fr/","name":"Club Vosgien","name:fr":"Club Vosgien de Mulhouse et Crètes","source":"Mulhouse Alsace Agglomération - 09/2013","tourism":"information"}},
{"type":"Feature","geometry":{"type":"Point","coordinates":[7.3317261,47.7457482]},"properties":{"addr:housenumber":"19 bis","source":"Mulhouse Alsace Agglomération - 09/2013"}},
{"type":"Feature","geometry":{"type":"Point","coordinates":[7.3419015,47.7436321]},"properties":{"addr:housenumber":"4","source":"Mulhouse Alsace Agglomération - 09/2013"}},
{"type":"Feature","geometry":{"type":"Point","coordinates":[7.322999,47.7471843]},"properties":{"crossing:markings":"zebra","highway":"crossing"}},
{"type":"Feature","geometry":{"type":"Point","coordinates":[7.3412913,47.7622653]},"properties":{"historic":"tomb","name":"Émile Muller"}},
{"type":"Feature","geometry":{"type":"Point","coordinates":[7.3448924,47.7635553]},"properties":{"historic":"tomb","name":"Jean Dollfus"}},
{"type":"Feature","geometry":{"type":"Point","coordinates":[7.3442897,47.7641077]},"properties":{"historic":"tomb","name":"Jean Hofer"}},
{"type":"Feature","geometry":{"type":"Point","coordinates":[7.3400586,47.762745]},"properties":{"historic":"tomb","name":"Auguste KLUG"}},
{"type":"Feature","geometry":{"type":"Point","coordinates":[7.3426679,47.7640019]},"properties":{"historic":"tomb","name":"Auguste Wicky"}},
{"type":"Feature","geometry":{"type":"Point","coordinates":[7.342742,47.7622925]},"properties":{"historic":"tomb","name":"Henri Leopold BOCK"}},
{"type":"Feature","geometry":{"type":"Point","coordinates":[7.3439739,47.7622528]},"properties":{"historic":"tomb","name":"Jacques Koechlin"}},
{"type":"Feature","geometry":{"type":"Point","coordinates":[7.3428314,47.7625359]},"properties":{"historic":"tomb","name":"Jean Dollfus"}},
{"type":"Feature","geometry":{"type":"Point","coordinates":[7.3434619,47.7616745]},"properties":{"historic":"tomb","name":"Jean MIEG"}},
{"type":"Feature","geometry":{"type":"Point","coordinates":[7.3425512,47.7640365]},"properties":{"historic":"tomb","name":"Jean Wagner"}},
{"type":"Feature","geometry":{"type":"Point","coordinates":[7.3424164,47.7638695]},"properties":{"historic":"tomb","name":"Joseph Klifa"}},
{"type":"Feature","geometry":{"type":"Point","coordinates":[7.3435482,47.7616386]},"properties":{"historic":"tomb","name":"Joseph Koechlin"}},
{"type":"Feature","geometry":{"type":"Point","coordinates":[7.3405556,47.7632828]},"properties":{"historic":"tomb","name":"Lucien Gander"}},
{"type":"Feature","geometry":{"type":"Point","coordinates":[7.3025262,47.7691451]},"properties":{"leisure":"playground"}},
{"type":"Feature","geometry":{"type":"Point","coordinates":[7.3055149,47.7747183]},"properties":{"leisure":"pitch","sport":"basketball"}},
{"type":"Feature","geometry":{"type":"Point","coordinates":[7.3203058,47.7357919]},"properties":{"addr:city":"Mulhouse","addr:housenumber":"47","addr:postcode":"68200","addr:street":"Boulevard Charles Stoessel","source":"Mulhouse Alsace Agglomération - 09/2013"}},
{"type":"Feature","geometry":{"type":"Point","coordinates":[7.3198756,47.7354601]},"properties":{"addr:city":"Mulhouse","addr:housenumber":"51","addr:postcode":"68200","addr:street":"Boulevard Charles Stoessel","source":"Mulhouse Alsace Agglomération - 09/2013"}},
{"type":"Feature","geometry":{"type":"Point","coordinates":[7.3202083,47.7353378]},"properties":{"addr:city":"Mulhouse","addr:housenumber":"53","addr:postcode":"68200","addr:street":"Boulevard Charles Stoessel","source":"Mulhouse Alsace Agglomération - 09/2013"}},
{"type":"Feature","geometry":{"type":"Point","coordinates":[7.3187471,47.7383787]},"properties":{"addr:housenumber":"16","source":"Mulhouse Alsace Agglomération - 09/2013"}},
{"type":"Feature","geometry":{"type":"Point","coordinates":[7.3343678,47.7404943]},"properties":{"addr:housenumber":"10","source":"Mulhouse Alsace Agglomération - 09/2013"}},
{"type":"Feature","geometry":{"type":"Point","coordinates":[7.3246383,47.7348945]},"properties":{"addr:housenumber":"12","source":"Mulhouse Alsace Agglomération - 09/2013"}},
{"type":"Feature","geometry":{"type":"Point","coordinates":[7.3257054,47.7356027]},"properties":{"addr:housenumber":"18","source":"Mulhouse Alsace Agglomération - 09/2013"}},
{"type":"Feature","geometry":{"type":"Point","coordinates":[7.3084876,47.746937]},"properties":{"addr:housenumber":"8","source":"Mulhouse Alsace Agglomération - 09/2013"}},
{"type":"Feature","geometry":{"type":"Point","coordinates":[7.3081105,47.7473367]},"properties":{"addr:housenumber":"45","source":"Mulhouse Alsace Agglomération - 09/2013"}},
{"type":"Feature","geometry":{"type":"Point","coordinates":[7.305918,47.7745328]},"properties":{"entrance":"main"}},
{"type":"Feature","geometry":{"type":"Point","coordinates":[7.3514069,47.760764]},"properties":{"contact:city":"Mulhouse","contact:housenumber":"175","contact:phone":"+33 3 89 66 31 60","contact:postcode":"68100","contact:street":"Avenue Robert Schuman","contact:website":"https://www.lasergame-evolution.com/fr/mulhouse/","name":"Lasergame Évolution","source":"local knowledge","tourism":"theme_park"}},
{"type":"Feature","geometry":{"type":"Point","coordinates":[7.3571551,47.7675845]},"properties":{"hiking":"yes","information":"map","map_size":"site","map_type":"topo","tourism":"information"}},
{"type":"Feature","geometry":{"type":"Point","coordinates":[7.3560823,47.7716441]},"properties":{"hiking":"yes","information":"map","map_size":"site","map_type":"topo","tourism":"information"}},
{"type":"Feature","geometry":{"type":"Point","coordinates":[7.3490433,47.7567856]},"properties":{"brand":"Appart'City","brand:wikidata":"Q101850226","name":"Appart'City Mulhouse","tourism":"hotel","wheelchair":"limited"}},
{"type":"Feature","geometry":{"type":"Point","coordinates":[7.3337084,47.7515799]},"properties":{"amenity":"post_box","artist_name":"C215","artwork_type":"graffiti","collection_times":"Mo-Sa 09:00","mapillary":"305653884447295","operator":"La Poste","operator:wikidata":"Q373724","ref":"A1M7O1","tourism":"artwork"}},
{"type":"Feature","geometry":{"type":"Point","coordinates":[7.334713,47.7486219]},"properties":{"information":"map","map_size":"city","map_type":"scheme","tourism":"information"}},
{"type":"Feature","geometry":{"type":"Point","coordinates":[7.3449527,47.7446461]},"properties":{"artwork_type":"sculpture","tourism":"artwork"}},
{"type":"Feature","geometry":{"type":"Point","coordinates":[7.3161282,47.744728]},"properties":{"barrier":"kissing_gate"}},
{"type":"Feature","geometry":{"type":"Point","coordinates":[7.3169675,47.7456662]},"properties":{"barrier":"kissing_gate"}},
{"type":"Feature","geometry":{"type":"Point","coordinates":[7.3497794,47.754818]},"properties":{"brand":"Ibis","brand:wikidata":"Q920166","brand:wikipedia":"fr:Ibis (chaîne d'hôtels)","name":"Ibis Mulhouse Centre Filature","tourism":"hotel"}},
{"type":"Feature","geometry":{"type":"Point","coordinates":[7.3377041,47.752551]},"properties":{"air_conditioning":"yes","brand":"B&B Hotels","brand:wikidata":"Q794939","brand:wikipedia":"fr:B&B Hotels","check_date":"2024-08-21","contact:city":"Mulhouse","contact:country":"FR","contact:housenumber":"38","contact:phone":"+33 8 92 70 22 15","contact:postcode":"68100","contact:street":"Avenue de colmar","contact:website":"https://www.hotel-bb.com/fr/-/hotelByName.htm?id=4518","name":"B&B Hôtel","tourism":"hotel"}},
{"type":"Feature","geometry":{"type":"Point","coordinates":[7.3299956,47.7587659]},"properties":{"natural":"tree"}},
{"type":"Feature","geometry":{"type":"Point","coordinates":[7.3296643,47.7589503]},"properties":{"natural":"tree"}},
{"type":"Feature","geometry":{"type":"Point","coordinates":[7.3297306,47.7590528]},"properties":{"natural":"tree"}},
{"type":"Feature","geometry":{"type":"Point","coordinates":[7.3298662,47.7590248]},"properties":{"natural":"tree"}},
{"type":"Feature","geometry":{"type":"Point","coordinates":[7.3299817,47.7590031]},"properties":{"natural":"tree"}},
{"type":"Feature","geometry":{"type":"Point","coordinates":[7.3300849,47.7589989]},"properties":{"natural":"tree"}},
{"type":"Feature","geometry":{"type":"Point","coordinates":[7.3303406,47.7586593]},"properties":{"natural":"tree"}},
{"type":"Feature","geometry":{"type":"Point","coordinates":[7.330735,47.7585474]},"properties":{"natural":"tree"}},
{"type":"Feature","geometry":{"type":"Point","coordinates":[7.330906,47.7585806]},"properties":{"natural":"tree"}},
{"type":"Feature","geometry":{"type":"Point","coordinates":[7.3311396,47.7587329]},"properties":{"natural":"tree"}},
{"type":"Feature","geometry":{"type":"Point","coordinates":[7.3316275,47.7591917]},"properties":{"natural":"tree"}},
{"type":"Feature","geometry":{"type":"Point","coordinates":[7.331572,47.7591278]},"properties":{"natural":"tree"}},
{"type":"Feature","geometry":{"type":"Point","coordinates":[7.331508,47.7590694]},"properties":{"natural":"tree"}},
{"type":"Feature","geometry":{"type":"Point","coordinates":[7.3314465,47.7590132]},"properties":{"natural":"tree"}},
{"type":"Feature","geometry":{"type":"Point","coordinates":[7.3313822,47.7589545]},"properties":{"natural":"tree"}},
{"type":"Feature","geometry":{"type":"Point","coordinates":[7.3315716,47.7593527]},"properties":{"natural":"tree"}},
{"type":"Feature","geometry":{"type":"Point","coordinates":[7.3318299,47.7593963]},"properties":{"natural":"tree"}},
{"type":"Feature","geometry":{"type":"Point","coordinates":[7.331977,47.7595485]},"properties":{"natural":"tree"}},
{"type":"Feature","geometry":{"type":"Point","coordinates":[7.3320447,47.7596121]},"properties":{"natural":"tree"}},
{"type":"Feature","geometry":{"type":"Point","coordinates":[7.3321101,47.759671]},"properties":{"natural":"tree"}},
{"type":"Feature","geometry":{"type":"Point","coordinates":[7.3321673,47.7597235]},"properties":{"natural":"tree"}},
{"type":"Feature","geometry":{"type":"Point","coordinates":[7.3322642,47.759791]},"properties":{"natural":"tree"}},
{"type":"Feature","geometry":{"type":"Point","coordinates":[7.3398732,47.7433843]},"properties":{"access":"private","amenity":"parking_entrance","parking":"underground"}},
{"type":"Feature","geometry":{"type":"Point","coordinates":[7.3389742,47.7435091]},"properties":{"barrier":"gate","bicycle":"yes","entrance":"yes","foot":"yes","motorcar":"yes","motorcycle":"yes"}},
{"type":"Feature","geometry":{"type":"Point","coordinates":[7.3276737,47.7861703]},"properties":{"leisure":"pitch","sport":"boules"}},
{"type":"Feature","geometry":{"type":"Point","coordinates":[7.3263006,47.7865604]},"properties":{"check_date":"2023-10-22","leisure":"pitch","sport":"table_tennis"}},
{"type":"Feature","geometry":{"type":"Point","coordinates":[7.3260104,47.787117]},"properties":{"leisure":"pitch","sport":"basketball"}},
{"type":"Feature","geometry":{"type":"Point","coordinates":[7.2662853,47.8207713]},"properties":{"natural":"tree"}},
{"type":"Feature","geometry":{"type":"Point","coordinates":[7.266343,47.8209082]},"properties":{"natural":"tree"}},
{"type":"Feature","geometry":{"type":"Point","coordinates":[7.2943646,47.7495275]},"properties":{"historic":"locomotive","source":"bing; survey"}},
{"type":"Feature","geometry":{"type":"Point","coordinates":[7.3601322,47.7380834]},"properties":{"barrier":"gate","entrance":"yes"}},
{"type":"Feature","geometry":{"type":"Point","coordinates":[7.3592685,47.736315]},"properties":{"artwork_type":"statue","direction":"45","mapillary":"995366501228562","material":"stone","tourism":"artwork"}},
{"type":"Feature","geometry":{"type":"Point","coordinates":[7.3399424,47.7444605]},"properties":{"natural":"tree"}},
{"type":"Feature","geometry":{"type":"Point","coordinates":[7.3399852,47.7444841]},"properties":{"natural":"tree"}},
{"type":"Feature","geometry":{"type":"Point","coordinates":[7.3400288,47.744505]},"properties":{"natural":"tree"}},
{"type":"Feature","geometry":{"type":"Point","coordinates":[7.340074,47.7445338]},"properties":{"natural":"tree"}},
{"type":"Feature","geometry":{"type":"Point","coordinates":[7.339397,47.7449346]},"properties":{"natural":"tree"}},
{"type":"Feature","geometry":{"type":"Point","coordinates":[7.3395648,47.7432481]},"properties":{"natural":"tree"}},
{"type":"Feature","geometry":{"type":"Point","coordinates":[7.3396044,47.7432826]},"properties":{"natural":"tree"}},
{"type":"Feature","geometry":{"type":"Point","coordinates":[7.3395043,47.7432928]},"properties":{"natural":"tree"}},
{"type":"Feature","geometry":{"type":"Point","coordinates":[7.3396592,47.7433086]},"properties":{"natural":"tree"}},
{"type":"Feature","geometry":{"type":"Point","coordinates":[7.3397257,47.7433354]},"properties":{"natural":"tree"}},
{"type":"Feature","geometry":{"type":"Point","coordinates":[7.3394082,47.7433269]},"properties":{"natural":"tree"}},
{"type":"Feature","geometry":{"type":"Point","coordinates":[7.3393402,47.7433568]},"properties":{"natural":"tree"}},
{"type":"Feature","geometry":{"type":"Point","coordinates":[7.3392644,47.7433709]},"properties":{"natural":"tree"}},
{"type":"Feature","geometry":{"type":"Point","coordinates":[7.3394976,47.7433953]},"properties":{"natural":"tree"}},
{"type":"Feature","geometry":{"type":"Point","coordinates":[7.3392372,47.7434541]},"properties":{"natural":"tree"}},
{"type":"Feature","geometry":{"type":"Point","coordinates":[7.339073,47.7434501]},"properties":{"natural":"tree"}},
{"type":"Feature","geometry":{"type":"Point","coordinates":[7.3390716,47.7434659]},"properties":{"natural":"tree"}},
{"type":"Feature","geometry":{"type":"Point","coordinates":[7.339045,47.7434865]},"properties":{"natural":"tree"}},
{"type":"Feature","geometry":{"type":"Point","coordinates":[7.3399054,47.743452]},"properties":{"barrier":"gate","bicycle":"yes","foot":"yes","motorcar":"yes","motorcycle":"yes"}},
{"type":"Feature","geometry":{"type":"Point","coordinates":[7.3394012,47.7432903]},"properties":{"natural":"tree"}},
{"type":"Feature","geometry":{"type":"Point","coordinates":[7.3391583,47.7434089]},"properties":{"natural":"tree"}},
{"type":"Feature","geometry":{"type":"Point","coordinates":[7.3390203,47.7434659]},"properties":{"natural":"tree"}},
{"type":"Feature","geometry":{"type":"Point","coordinates":[7.3446798,47.744891]},"properties":{"entrance":"yes"}},
{"type":"Feature","geometry":{"type":"Point","coordinates":[7.3160192,47.7450258]},"properties":{"fixme":"Vérifier l'existence de cette table de ping-pong.","leisure":"pitch","sport":"table_tennis"}},
{"type":"Feature","geometry":{"type":"Point","coordinates":[7.3171524,47.7443326]},"properties":{"barrier":"gate","entrance":"yes"}},
{"type":"Feature","geometry":{"type":"Point","coordinates":[7.3177089,47.7445042]},"properties":{"barrier":"gate","entrance":"yes"}},
{"type":"Feature","geometry":{"type":"Point","coordinates":[7.3181914,47.7452473]},"properties":{"barrier":"gate","entrance":"yes"}},
{"type":"Feature","geometry":{"type":"Point","coordinates":[7.3350599,47.7381225]},"properties":{"natural":"tree"}},
{"type":"Feature","geometry":{"type":"Point","coordinates":[7.3418552,47.7477649]},"properties":{"brand":"The Originals","contact:city":"Mulhouse","contact:email":"info@hotelsalvator.fr","contact:fax":"+33 3 89 56 49 59","contact:housenumber":"29","contact:phone":"+33 3 89 45 28 32","contact:postcode":"68100","contact:street":"Passage Central","contact:website":"https://www.hotelsalvator.fr/","internet_access":"yes","internet_access:fee":"no","name":"The Originals Hôtel Salvator","payment:coins":"yes","payment:maestro":"yes","payment:notes":"yes","rooms":"49","stars":"3","tourism":"hotel","wheelchair":"yes"}},
{"type":"Feature","geometry":{"type":"Point","coordinates":[7.3413613,47.7475696]},"properties":{"contact:city":"Mulhouse","contact:housenumber":"19","contact:postcode":"68100","contact:street":"Passage Central","name":"Hôtel de Bale","tourism":"hotel"}},
{"type":"Feature","geometry":{"type":"Point","coordinates":[7.2953305,47.8435527]},"properties":{"backrest":"yes","covered":"no","leisure":"picnic_table","material":"stone"}},
{"type":"Feature","geometry":{"type":"Point","coordinates":[7.3456233,47.7454645]},"properties":{"air_conditioning":"yes","contact:city":"Mulhouse","contact:email":"contact@hotelmuseegare.com","contact:housenumber":"3","contact:phone":"+33 3 89 45 47 41","contact:postcode":"68100","contact:street":"Rue de l'Est","contact:website":"https://www.hotelmuseegare.com/","internet_access":"wlan","name":"Berti Hotel Mulhouse Centre Gare","payment:cards":"yes","payment:contactless":"yes","payment:credit_cards":"yes","payment:debit_cards":"yes","phone":"+33 3 89 42 24 05","tourism":"hotel","website":"https://www.bertihotel.com/"}},
{"type":"Feature","geometry":{"type":"Point","coordinates":[7.3438232,47.745078]},"properties":{"brand":"Best Western","brand:wikidata":"Q830334","brand:wikipedia":"fr:Best Western","contact:city":"Mulhouse","contact:housenumber":"14","contact:phone":"+33 3 89 56 18 44","contact:postcode":"68100","contact:street":"Rue de la Bourse","contact:website":"https://www.bourse-hotel.com/","name":"Hôtel de la Bourse","smoking":"no","tourism":"hotel"}},
{"type":"Feature","geometry":{"type":"Point","coordinates":[7.3074057,47.7422928]},"properties":{"email":"contact@squash3000.com","name":"Squash 3000","phone":"+33 3 89 59 26 63","tourism":"hotel","website":"https://www.squash3000.com/"}},
{"type":"Feature","geometry":{"type":"Point","coordinates":[7.2940999,47.7444608]},"properties":{"natural":"tree"}},
{"type":"Feature","geometry":{"type":"Point","coordinates":[7.2942073,47.7444674]},"properties":{"natural":"tree"}},
{"type":"Feature","geometry":{"type":"Point","coordinates":[7.2943379,47.7444834]},"properties":{"natural":"tree"}},
{"type":"Feature","geometry":{"type":"Point","coordinates":[7.2944409,47.7444984]},"properties":{"natural":"tree"}},
{"type":"Feature","geometry":{"type":"Point","coordinates":[7.2940466,47.7445139]},"properties":{"natural":"tree"}},
{"type":"Feature","geometry":{"type":"Point","coordinates":[7.2945839,47.7445377]},"properties":{"natural":"tree"}},
{"type":"Feature","geometry":{"type":"Point","coordinates":[7.2941289,47.7445547]},"properties":{"natural":"tree"}},
{"type":"Feature","geometry":{"type":"Point","coordinates":[7.294288,47.7445553]},"properties":{"natural":"tree"}},
{"type":"Feature","geometry":{"type":"Point","coordinates":[7.2942203,47.7445982]},"properties":{"natural":"tree"}},
{"type":"Feature","geometry":{"type":"Point","coordinates":[7.2944917,47.7446297]},"properties":{"natural":"tree"}},
{"type":"Feature","geometry":{"type":"Point","coordinates":[7.294308,47.744654]},"properties":{"natural":"tree"}},
{"type":"Feature","geometry":{"type":"Point","coordinates":[7.2944033,47.744717]},"properties":{"natural":"tree"}},
{"type":"Feature","geometry":{"type":"Point","coordinates":[7.294058,47.7443648]},"properties":{"natural":"tree"}},
{"type":"Feature","geometry":{"type":"Point","coordinates":[7.2941706,47.7443905]},"properties":{"natural":"tree"}},
{"type":"Feature","geometry":{"type":"Point","coordinates":[7.2940068,47.7444238]},"properties":{"natural":"tree"}},
{"type":"Feature","geometry":{"type":"Point","coordinates":[7.2939533,47.7444894]},"properties":{"natural":"tree"}},
{"type":"Feature","geometry":{"type":"Point","coordinates":[7.2936938,47.7446344]},"properties":{"natural":"tree"}},
{"type":"Feature","geometry":{"type":"Point","coordinates":[7.2939557,47.7446752]},"properties":{"natural":"tree"}},
{"type":"Feature","geometry":{"type":"Point","coordinates":[7.2935374,47.7447915]},"properties":{"natural":"tree"}},
{"type":"Feature","geometry":{"type":"Point","coordinates":[7.2953522,47.7463417]},"properties":{"natural":"tree"}},
{"type":"Feature","geometry":{"type":"Point","coordinates":[7.3561579,47.7729232]},"properties":{"name":"séquoia","natural":"tree"}},
{"type":"Feature","geometry":{"type":"Point","coordinates":[7.3361452,47.8384672]},"properties":{"name":"Tumulus","tourism":"attraction"}},
{"type":"Feature","geometry":{"type":"Point","coordinates":[7.2495901,47.7757881]},"properties":{"name":"Terril Est","name:de":"Östliche Abraumhalde","natural":"peak"}},
{"type":"Feature","geometry":{"type":"Point","coordinates":[7.2433716,47.7869562]},"properties":{"name":"Terril Amélie 2","name:de":"Halde Amélie 2","natural":"peak"}},
{"type":"Feature","geometry":{"type":"Point","coordinates":[7.2509534,47.7991816]},"properties":{"name":"Terril Amélie 1","name:de":"Halde Amélie 1","natural":"peak"}},
{"type":"Feature","geometry":{"type":"Point","coordinates":[7.281885,47.8514922]},"properties":{"name":"Terril Rodolphe","natural":"peak"}},
{"type":"Feature","geometry":{"type":"Point","coordinates":[7.2707391,47.8355355]},"properties":{"name":"Terril Marie-Louise","natural":"peak"}},
{"type":"Feature","geometry":{"type":"Point","coordinates":[7.3004439,47.7954988]},"properties":{"name":"Terril Anna Est","natural":"peak"}},
{"type":"Feature","geometry":{"type":"Point","coordinates":[7.2950366,47.7943384]},"properties":{"name":"Terril Anna Ouest","natural":"peak"}},
{"type":"Feature","geometry":{"type":"Point","coordinates":[7.3264197,47.8241746]},"properties":{"name":"Terril Eugène","name:de":"Abraumhalde Prinz Eugen","natural":"peak"}},
{"type":"Feature","geometry":{"type":"Point","coordinates":[7.3221025,47.8005111]},"properties":{"name":"Terril Fernand","natural":"peak"}},
{"type":"Feature","geometry":{"type":"Point","coordinates":[7.3231031,47.8292726]},"properties":{"name":"Terril Théodore","name:de":"Abraumhalde Theodor","natural":"peak"}},
{"type":"Feature","geometry":{"type":"Point","coordinates":[7.3405885,47.7441328]},"properties":{"heritage":"3","heritage:operator":"mhs","historic":"building","mhs:inscription_date":"2006","name":"Immeuble dit Bâtiment annulaire","ref:mhs":"PA68000047","source:heritage":"data.gouv.fr:Ministère de la Culture - 04/2015","wikidata":"Q15945179","wikipedia":"fr:Bâtiment annulaire"}},
{"type":"Feature","geometry":{"type":"Point","coordinates":[7.2938678,47.7500026]},"properties":{"addr:city":"Mulhouse","addr:housenumber":"2","addr:postcode":"68200","addr:street":"Rue Alfred de Glehn","check_date":"2023-07-11","contact:city":"Mulhouse","contact:housenumber":"2","contact:postcode":"68200","contact:street":"Rue Alfred de Glehn","contact:website":"https://www.citedutrain.com/","email":"message@citedutrain.com","fee":"yes","museum":"railway","name":"Cité du train","name:de":"Eisenbahnmuseum","name:zh":"火车城","opening_hours":"Mo-Su 10:00-18:00","payment:cash":"yes","payment:cheque":"yes","payment:debit_cards":"yes","phone":"+33 3 89 42 83 33","tourism":"museum","website":"https://www.citedutrain.com/","wheelchair":"limited","wikidata":"Q728562","wikipedia":"fr:Cité du train"}},
{"type":"Feature","geometry":{"type":"Point","coordinates":[7.3458397,47.744005]},"properties":{"brand":"Ibis Styles","brand:wikidata":"Q3147425","name":"Ibis Styles","tourism":"hotel"}},
{"type":"Feature","geometry":{"type":"Point","coordinates":[7.3271983,47.7622734]},"properties":{"fixme":"Je ne sais pas exactement à quoi correspond cette piste peinte au sol. Circuit pour faire passer le BSR aux gamins??"}},
{"type":"Feature","geometry":{"type":"Point","coordinates":[7.3363483,47.756068]},"properties":{"button_operated":"no","crossing":"traffic_signals","crossing:markings":"zebra","highway":"crossing","tactile_paving":"incorrect"}},
{"type":"Feature","geometry":{"type":"Point","coordinates":[7.349372,47.7562455]},"properties":{"bus":"yes","name":"Lefebvre","public_transport":"stop_position"}},
{"type":"Feature","geometry":{"type":"Point","coordinates":[7.346374,47.7492081]},"properties":{"barrier":"entrance","foot":"yes"}},
{"type":"Feature","geometry":{"type":"Point","coordinates":[7.3447117,47.7482371]},"properties":{"barrier":"entrance","foot":"yes"}},
{"type":"Feature","geometry":{"type":"Point","coordinates":[7.3454072,47.7485507]},"properties":{"barrier":"entrance","foot":"yes"}},
{"type":"Feature","geometry":{"type":"Point","coordinates":[7.3438233,47.7483275]},"properties":{"barrier":"entrance","foot":"yes"}},
{"type":"Feature","geometry":{"type":"Point","coordinates":[7.3439637,47.7481694]},"properties":{"barrier":"entrance","foot":"yes"}},
{"type":"Feature","geometry":{"type":"Point","coordinates":[7.3113483,47.7465599]},"properties":{"historic":"memorial"}},
{"type":"Feature","geometry":{"type":"Point","coordinates":[7.2984315,47.745775]},"properties":{"bus":"yes","public_transport":"stop_position"}},
{"type":"Feature","geometry":{"type":"Point","coordinates":[7.3393949,47.7831718]},"properties":{"historic":"monument"}},
{"type":"Feature","geometry":{"type":"Point","coordinates":[7.32382,47.7369382]},"properties":{"tourism":"picnic_site"}},
{"type":"Feature","geometry":{"type":"Point","coordinates":[7.3238281,47.7363989]},"properties":{"tourism":"picnic_site"}},
{"type":"Feature","geometry":{"type":"Point","coordinates":[7.3238656,47.7358144]},"properties":{"tourism":"picnic_site"}},
{"type":"Feature","geometry":{"type":"Point","coordinates":[7.3333701,47.77413]},"properties":{"addr:housenumber":"5"}},
{"type":"Feature","geometry":{"type":"Point","coordinates":[7.3435354,47.8096284]},"properties":{"barrier":"gate"}},
{"type":"Feature","geometry":{"type":"Point","coordinates":[7.2979743,47.7649391]},"properties":{"historic":"wayside_cross"}},
{"type":"Feature","geometry":{"type":"Point","coordinates":[7.2820379,47.7843801]},"properties":{"historic":"wayside_cross"}},
{"type":"Feature","geometry":{"type":"Point","coordinates":[7.3088239,47.7673488]},"properties":{"historic":"wayside_shrine"}},
{"type":"Feature","geometry":{"type":"Point","coordinates":[7.355108,47.7345611]},"properties":{"tourism":"picnic_site"}},
{"type":"Feature","geometry":{"type":"Point","coordinates":[7.3050278,47.7676538]},"properties":{"historic":"memorial"}},
{"type":"Feature","geometry":{"type":"Point","coordinates":[7.3051082,47.767798]},"properties":{"historic":"memorial"}},
{"type":"Feature","geometry":{"type":"Point","coordinates":[7.303063,47.7692623]},"properties":{"historic":"memorial"}},
{"type":"Feature","geometry":{"type":"Point","coordinates":[7.3032485,47.7687742]},"properties":{"historic":"memorial","memorial":"plaque"}},
{"type":"Feature","geometry":{"type":"Point","coordinates":[7.2566232,47.7353007]},"properties":{"artist_name":"Ritzmann","denomination":"catholic","historic":"wayside_cross","inscription":"Susses Herz Mariae sei meine Rettung","name":"Vierge à la colonne","religion":"christian","start_date":"1883"}},
{"type":"Feature","geometry":{"type":"Point","coordinates":[7.2638619,47.7684429]},"properties":{"tourism":"picnic_site"}},
{"type":"Feature","geometry":{"type":"Point","coordinates":[7.2643501,47.7669664]},"properties":{"tourism":"picnic_site"}},
{"type":"Feature","geometry":{"type":"Point","coordinates":[7.3422682,47.8086314]},"properties":{"historic":"ruins","name":"Motte castrale du Rebberg Grosstueck"}},
{"type":"Feature","geometry":{"type":"Point","coordinates":[7.3467309,47.7531164]},"properties":{"artist_name":"Renato Montanaro","artwork_type":"statue","name":"Hector","start_date":"2005","tourism":"artwork","website":"http://mulhouse.fr/sculptures"}},
{"type":"Feature","geometry":{"type":"Point","coordinates":[7.2743815,47.7852512]},"properties":{"tourism":"picnic_site"}},
{"type":"Feature","geometry":{"type":"Point","coordinates":[7.2610594,47.8437863]},"properties":{"information":"board","tourism":"information"}},
{"type":"Feature","geometry":{"type":"Point","coordinates":[7.3480418,47.7427482]},"properties":{"artist_name":"Frantz Beer","artwork_subject":"Worker","artwork_type":"statue","height":"5.6","heritage":"3","heritage:operator":"mhs","material":"bronze","memorial":"statue","mhs:inscription_date":"2008-03-04","name":"Le Schweissdissi","ref:mhs":"PA68000054","source:heritage":"data.gouv.fr:Ministère de la Culture - 04/2015","tourism":"artwork"}},
{"type":"Feature","geometry":{"type":"Point","coordinates":[7.3510935,47.7590714]},"properties":{"height":"5","leaf_type":"broadleaved","natural":"tree"}},
{"type":"Feature","geometry":{"type":"Point","coordinates":[7.3515525,47.7593103]},"properties":{"height":"5","leaf_type":"broadleaved","natural":"tree"}},
{"type":"Feature","geometry":{"type":"Point","coordinates":[7.3534262,47.7593543]},"properties":{"height":"5","leaf_type":"broadleaved","natural":"tree"}},
{"type":"Feature","geometry":{"type":"Point","coordinates":[7.353331,47.759256]},"properties":{"height":"5","leaf_type":"broadleaved","natural":"tree"}},
{"type":"Feature","geometry":{"type":"Point","coordinates":[7.3531513,47.7591073]},"properties":{"height":"5","leaf_type":"broadleaved","natural":"tree"}},
{"type":"Feature","geometry":{"type":"Point","coordinates":[7.3530641,47.7590108]},"properties":{"height":"5","leaf_type":"broadleaved","natural":"tree"}},
{"type":"Feature","geometry":{"type":"Point","coordinates":[7.3529743,47.7589206]},"properties":{"height":"5","leaf_type":"broadleaved","natural":"tree"}},
{"type":"Feature","geometry":{"type":"Point","coordinates":[7.3528589,47.758808]},"properties":{"height":"5","leaf_type":"broadleaved","natural":"tree"}},
{"type":"Feature","geometry":{"type":"Point","coordinates":[7.3526618,47.7585844]},"properties":{"height":"5","leaf_type":"broadleaved","natural":"tree"}},
{"type":"Feature","geometry":{"type":"Point","coordinates":[7.35258,47.7584536]},"properties":{"height":"5","leaf_type":"broadleaved","natural":"tree"}},
{"type":"Feature","geometry":{"type":"Point","coordinates":[7.3528147,47.7583626]},"properties":{"height":"5","leaf_type":"broadleaved","natural":"tree"}},
{"type":"Feature","geometry":{"type":"Point","coordinates":[7.3528764,47.7584599]},"properties":{"height":"5","leaf_type":"broadleaved","natural":"tree"}},
{"type":"Feature","geometry":{"type":"Point","coordinates":[7.3529716,47.7585411]},"properties":{"height":"5","leaf_type":"broadleaved","natural":"tree"}},
{"type":"Feature","geometry":{"type":"Point","coordinates":[7.3530735,47.7586502]},"properties":{"height":"5","leaf_type":"broadleaved","natural":"tree"}},
{"type":"Feature","geometry":{"type":"Point","coordinates":[7.3532733,47.7588765]},"properties":{"height":"5","leaf_type":"broadleaved","natural":"tree"}},
{"type":"Feature","geometry":{"type":"Point","coordinates":[7.3533484,47.7589756]},"properties":{"height":"5","leaf_type":"broadleaved","natural":"tree"}},
{"type":"Feature","geometry":{"type":"Point","coordinates":[7.3534343,47.7590424]},"properties":{"height":"5","leaf_type":"broadleaved","natural":"tree"}},
{"type":"Feature","geometry":{"type":"Point","coordinates":[7.3534705,47.7591001]},"properties":{"height":"5","leaf_type":"broadleaved","natural":"tree"}},
{"type":"Feature","geometry":{"type":"Point","coordinates":[7.3535687,47.7591321]},"properties":{"height":"5","leaf_type":"broadleaved","natural":"tree"}},
{"type":"Feature","geometry":{"type":"Point","coordinates":[7.3535871,47.7592596]},"properties":{"height":"5","leaf_type":"broadleaved","natural":"tree"}},
{"type":"Feature","geometry":{"type":"Point","coordinates":[7.3536716,47.7593281]},"properties":{"height":"5","leaf_type":"broadleaved","natural":"tree"}},
{"type":"Feature","geometry":{"type":"Point","coordinates":[7.3516828,47.76008]},"properties":{"height":"5","leaf_type":"broadleaved","natural":"tree"}},
{"type":"Feature","geometry":{"type":"Point","coordinates":[7.3517176,47.7601377]},"properties":{"height":"5","leaf_type":"broadleaved","natural":"tree"}},
{"type":"Feature","geometry":{"type":"Point","coordinates":[7.3518062,47.760199]},"properties":{"height":"5","leaf_cycle":"deciduous","leaf_type":"broadleaved","natural":"tree"}},
{"type":"Feature","geometry":{"type":"Point","coordinates":[7.3518679,47.7602847]},"properties":{"height":"5","leaf_cycle":"deciduous","leaf_type":"broadleaved","natural":"tree"}},
{"type":"Feature","geometry":{"type":"Point","coordinates":[7.3519564,47.760355]},"properties":{"height":"5","leaf_cycle":"deciduous","leaf_type":"broadleaved","natural":"tree"}},
{"type":"Feature","geometry":{"type":"Point","coordinates":[7.3519939,47.7604199]},"properties":{"height":"5","leaf_cycle":"deciduous","leaf_type":"broadleaved","natural":"tree"}},
{"type":"Feature","geometry":{"type":"Point","coordinates":[7.3520717,47.7604975]},"properties":{"height":"5","leaf_cycle":"deciduous","leaf_type":"broadleaved","natural":"tree"}},
{"type":"Feature","geometry":{"type":"Point","coordinates":[7.3520033,47.759815]},"properties":{"height":"5","leaf_type":"broadleaved","natural":"tree"}},
{"type":"Feature","geometry":{"type":"Point","coordinates":[7.3512626,47.7590009]},"properties":{"height":"5","leaf_type":"broadleaved","natural":"tree"}},
{"type":"Feature","geometry":{"type":"Point","coordinates":[7.351153,47.7590415]},"properties":{"height":"5","leaf_type":"broadleaved","natural":"tree"}},
{"type":"Feature","geometry":{"type":"Point","coordinates":[7.3510431,47.7590802]},"properties":{"height":"5","leaf_type":"broadleaved","natural":"tree"}},
{"type":"Feature","geometry":{"type":"Point","coordinates":[7.3510055,47.7593435]},"properties":{"height":"5","leaf_type":"broadleaved","natural":"tree"}},
{"type":"Feature","geometry":{"type":"Point","coordinates":[7.3509425,47.7592723]},"properties":{"height":"5","leaf_type":"broadleaved","natural":"tree"}},
{"type":"Feature","geometry":{"type":"Point","coordinates":[7.3510806,47.7594282]},"properties":{"height":"5","leaf_type":"broadleaved","natural":"tree"}},
{"type":"Feature","geometry":{"type":"Point","coordinates":[7.3514602,47.7598519]},"properties":{"height":"5","leaf_type":"broadleaved","natural":"tree"}},
{"type":"Feature","geometry":{"type":"Point","coordinates":[7.3515527,47.7599069]},"properties":{"height":"7","leaf_type":"broadleaved","natural":"tree"}},
{"type":"Feature","geometry":{"type":"Point","coordinates":[7.3513749,47.7596947]},"properties":{"height":"7","leaf_type":"broadleaved","natural":"tree"}},
{"type":"Feature","geometry":{"type":"Point","coordinates":[7.3512657,47.7596067]},"properties":{"height":"5","leaf_type":"broadleaved","natural":"tree"}},
{"type":"Feature","geometry":{"type":"Point","coordinates":[7.3255581,47.7887708]},"properties":{"covered":"no","leisure":"picnic_table"}},
{"type":"Feature","geometry":{"type":"Point","coordinates":[7.3256358,47.7889366]},"properties":{"covered":"no","leisure":"picnic_table"}},
{"type":"Feature","geometry":{"type":"Point","coordinates":[7.3273981,47.7863371]},"properties":{"covered":"no","leisure":"picnic_table"}},
{"type":"Feature","geometry":{"type":"Point","coordinates":[7.327563,47.7863387]},"properties":{"covered":"no","leisure":"picnic_table"}},
{"type":"Feature","geometry":{"type":"Point","coordinates":[7.3277172,47.7863402]},"properties":{"covered":"no","leisure":"picnic_table"}},
{"type":"Feature","geometry":{"type":"Point","coordinates":[7.3278527,47.7863416]},"properties":{"covered":"no","leisure":"picnic_table"}},
{"type":"Feature","geometry":{"type":"Point","coordinates":[7.3259684,47.78723]},"properties":{"leisure":"pitch","sport":"basketball"}},
{"type":"Feature","geometry":{"type":"Point","coordinates":[7.3509193,47.7591875]},"properties":{"height":"5","leaf_type":"broadleaved","natural":"tree"}},
{"type":"Feature","geometry":{"type":"Point","coordinates":[7.3509516,47.7592149]},"properties":{"height":"7","leaf_type":"broadleaved","natural":"tree"}},
{"type":"Feature","geometry":{"type":"Point","coordinates":[7.3509777,47.7592471]},"properties":{"height":"7","leaf_type":"broadleaved","natural":"tree"}},
{"type":"Feature","geometry":{"type":"Point","coordinates":[7.3511081,47.7593902]},"properties":{"height":"5","leaf_type":"broadleaved","natural":"tree"}},
{"type":"Feature","geometry":{"type":"Point","coordinates":[7.3512478,47.7595479]},"properties":{"height":"5","leaf_type":"broadleaved","natural":"tree"}},
{"type":"Feature","geometry":{"type":"Point","coordinates":[7.351277,47.7595795]},"properties":{"height":"5","leaf_type":"broadleaved","natural":"tree"}},
{"type":"Feature","geometry":{"type":"Point","coordinates":[7.3514523,47.7597653]},"properties":{"height":"5","leaf_type":"broadleaved","natural":"tree"}},
{"type":"Feature","geometry":{"type":"Point","coordinates":[7.3514085,47.7597197]},"properties":{"height":"5","leaf_type":"broadleaved","natural":"tree"}},
{"type":"Feature","geometry":{"type":"Point","coordinates":[7.3514992,47.7598382]},"properties":{"height":"5","leaf_type":"broadleaved","natural":"tree"}},
{"type":"Feature","geometry":{"type":"Point","coordinates":[7.3515503,47.7598845]},"properties":{"height":"5","leaf_type":"broadleaved","natural":"tree"}},
{"type":"Feature","geometry":{"type":"Point","coordinates":[7.352341,47.7597036]},"properties":{"height":"7","leaf_type":"broadleaved","natural":"tree"}},
{"type":"Feature","geometry":{"type":"Point","coordinates":[7.3523066,47.7597092]},"properties":{"height":"7","leaf_type":"broadleaved","natural":"tree"}},
{"type":"Feature","geometry":{"type":"Point","coordinates":[7.3533977,47.759353]},"properties":{"height":"7","leaf_type":"broadleaved","natural":"tree"}},
{"type":"Feature","geometry":{"type":"Point","coordinates":[7.353431,47.7593775]},"properties":{"height":"7","leaf_type":"broadleaved","natural":"tree"}},
{"type":"Feature","geometry":{"type":"Point","coordinates":[7.3532579,47.7592142]},"properties":{"height":"7","leaf_type":"broadleaved","natural":"tree"}},
{"type":"Feature","geometry":{"type":"Point","coordinates":[7.3533486,47.7593095]},"properties":{"height":"7","leaf_type":"broadleaved","natural":"tree"}},
{"type":"Feature","geometry":{"type":"Point","coordinates":[7.3533476,47.7592941]},"properties":{"height":"7","leaf_type":"broadleaved","natural":"tree"}},
{"type":"Feature","geometry":{"type":"Point","coordinates":[7.3532996,47.7592534]},"properties":{"height":"7","leaf_type":"broadleaved","natural":"tree"}},
{"type":"Feature","geometry":{"type":"Point","coordinates":[7.3531494,47.7590949]},"properties":{"height":"7","leaf_type":"broadleaved","natural":"tree"}},
{"type":"Feature","geometry":{"type":"Point","coordinates":[7.3531828,47.7591405]},"properties":{"height":"7","leaf_type":"broadleaved","natural":"tree"}},
{"type":"Feature","geometry":{"type":"Point","coordinates":[7.3531661,47.7591251]},"properties":{"height":"7","leaf_type":"broadleaved","natural":"tree"}},
{"type":"Feature","geometry":{"type":"Point","coordinates":[7.3530764,47.7590241]},"properties":{"height":"7","leaf_type":"broadleaved","natural":"tree"}},
{"type":"Feature","geometry":{"type":"Point","coordinates":[7.3529742,47.758907]},"properties":{"height":"7","leaf_type":"broadleaved","natural":"tree"}},
{"type":"Feature","geometry":{"type":"Point","coordinates":[7.3529909,47.7589421]},"properties":{"height":"7","leaf_type":"broadleaved","natural":"tree"}},
{"type":"Feature","geometry":{"type":"Point","coordinates":[7.3528897,47.7588348]},"properties":{"height":"7","leaf_type":"broadleaved","natural":"tree"}},
{"type":"Feature","geometry":{"type":"Point","coordinates":[7.3416011,47.8073752]},"properties":{"barrier":"gate"}},
{"type":"Feature","geometry":{"type":"Point","coordinates":[7.3382513,47.7470082]},"properties":{"leaf_cycle":"deciduous","leaf_type":"broadleaved","natural":"tree"}},
{"type":"Feature","geometry":{"type":"Point","coordinates":[7.3463024,47.7814215]},"properties":{"artist_name":"Vincente Blanchard","historic":"memorial","inscription":"Aux morts pour la patrie","memorial":"war_memorial","name":"Monument aux morts"}},
{"type":"Feature","geometry":{"type":"Point","coordinates":[7.3469274,47.7814434]},"properties":{"artist_name":"David Perret","artwork_type":"statue","inscription":"C'est une histoire sans fin qui danse au son des passions auxquelles le temps donnera raison.","name":"Idalia","tourism":"artwork"}},
{"type":"Feature","geometry":{"type":"Point","coordinates":[7.3473276,47.7791594]},"properties":{"artist_name":"Andréas Nehring","artwork_type":"statue","name":"Bucéphale","tourism":"artwork"}},
{"type":"Feature","geometry":{"type":"Point","coordinates":[7.3535245,47.7776365]},"properties":{"artist_name":"Daniel Diminski","artwork_type":"sculpture","name":"Le Groupe de Musiciens","tourism":"artwork"}},
{"type":"Feature","geometry":{"type":"Point","coordinates":[7.3531353,47.7779561]},"properties":{"artist_name":"Françoise Matt-Halm","artwork_type":"sculpture","name":"L’Articulé","tourism":"artwork"}},
{"type":"Feature","geometry":{"type":"Point","coordinates":[7.347258,47.7816819]},"properties":{"artist_name":"Bernard Latuner","artwork_type":"installation","name":"Le Musée de la nature","tourism":"artwork"}},
{"type":"Feature","geometry":{"type":"Point","coordinates":[7.3572911,47.7733449]},"properties":{"leisure":"park","name":"Parc Georges Urbann"}},
{"type":"Feature","geometry":{"type":"Point","coordinates":[7.3477357,47.7801846]},"properties":{"artist_name":"Orlando Longhi","artwork_type":"statue","name":"La Mère et l’enfant","tourism":"artwork"}},
{"type":"Feature","geometry":{"type":"Point","coordinates":[7.3471489,47.779445]},"properties":{"artist_name":"Vincente Blanchard","artwork_type":"fountain","name":"Les Aigues-Marines","tourism":"artwork"}},
{"type":"Feature","geometry":{"type":"Point","coordinates":[7.3538231,47.77486]},"properties":{"leisure":"playground"}},
{"type":"Feature","geometry":{"type":"Point","coordinates":[7.3546928,47.768435]},"properties":{"leisure":"park","name":"Mülhenfeld"}},
{"type":"Feature","geometry":{"type":"Point","coordinates":[7.3458682,47.7814388]},"properties":{"check_date":"2024-09-30","leisure":"pitch","sport":"table_tennis"}},
{"type":"Feature","geometry":{"type":"Point","coordinates":[7.332476,47.7471312]},"properties":{"leaf_cycle":"deciduous","natural":"tree"}},
{"type":"Feature","geometry":{"type":"Point","coordinates":[7.3321328,47.7470363]},"properties":{"natural":"tree"}},
{"type":"Feature","geometry":{"type":"Point","coordinates":[7.3524256,47.7886864]},"properties":{"natural":"tree"}},
{"type":"Feature","geometry":{"type":"Point","coordinates":[7.3475634,47.7811444]},"properties":{"check_date":"2024-08-31","information":"map","map_size":"city","map_type":"street","tourism":"information"}},
{"type":"Feature","geometry":{"type":"Point","coordinates":[7.309289,47.7374726]},"properties":{"leisure":"pitch","sport":"table_tennis"}},
{"type":"Feature","geometry":{"type":"Point","coordinates":[7.3234883,47.7392397]},"properties":{"leisure":"picnic_table"}},
{"type":"Feature","geometry":{"type":"Point","coordinates":[7.3234407,47.7391989]},"properties":{"covered":"no","leisure":"picnic_table"}},
{"type":"Feature","geometry":{"type":"Point","coordinates":[7.3234044,47.7393021]},"properties":{"covered":"no","leisure":"picnic_table"}},
{"type":"Feature","geometry":{"type":"Point","coordinates":[7.3527993,47.7877463]},"properties":{"natural":"tree"}},
{"type":"Feature","geometry":{"type":"Point","coordinates":[7.351278,47.7889072]},"properties":{"natural":"tree"}},
{"type":"Feature","geometry":{"type":"Point","coordinates":[7.3511651,47.7889015]},"properties":{"natural":"tree"}},
{"type":"Feature","geometry":{"type":"Point","coordinates":[7.3515691,47.7897329]},"properties":{"natural":"tree"}},
{"type":"Feature","geometry":{"type":"Point","coordinates":[7.3510921,47.790558]},"properties":{"natural":"tree"}},
{"type":"Feature","geometry":{"type":"Point","coordinates":[7.3510646,47.7904637]},"properties":{"natural":"tree"}},
{"type":"Feature","geometry":{"type":"Point","coordinates":[7.3510087,47.7903292]},"properties":{"natural":"tree"}},
{"type":"Feature","geometry":{"type":"Point","coordinates":[7.3510826,47.7900323]},"properties":{"natural":"tree"}},
{"type":"Feature","geometry":{"type":"Point","coordinates":[7.3515065,47.7899699]},"properties":{"natural":"tree"}},
{"type":"Feature","geometry":{"type":"Point","coordinates":[7.3516364,47.7896412]},"properties":{"natural":"tree"}},
{"type":"Feature","geometry":{"type":"Point","coordinates":[7.3506796,47.7896023]},"properties":{"natural":"tree"}},
{"type":"Feature","geometry":{"type":"Point","coordinates":[7.3508778,47.7894067]},"properties":{"natural":"tree"}},
{"type":"Feature","geometry":{"type":"Point","coordinates":[7.3495141,47.7889129]},"properties":{"natural":"tree"}},
{"type":"Feature","geometry":{"type":"Point","coordinates":[7.3497161,47.7894073]},"properties":{"natural":"tree"}},
{"type":"Feature","geometry":{"type":"Point","coordinates":[7.3495834,47.789378]},"properties":{"natural":"tree"}},
{"type":"Feature","geometry":{"type":"Point","coordinates":[7.3496896,47.789357]},"properties":{"natural":"tree"}},
{"type":"Feature","geometry":{"type":"Point","coordinates":[7.3503278,47.7893653]},"properties":{"natural":"tree"}},
{"type":"Feature","geometry":{"type":"Point","coordinates":[7.350104,47.7890257]},"properties":{"natural":"tree"}},
{"type":"Feature","geometry":{"type":"Point","coordinates":[7.3500262,47.7890282]},"properties":{"natural":"tree"}},
{"type":"Feature","geometry":{"type":"Point","coordinates":[7.3499276,47.7891799]},"properties":{"natural":"tree"}},
{"type":"Feature","geometry":{"type":"Point","coordinates":[7.3499769,47.7894054]},"properties":{"natural":"tree"}},
{"type":"Feature","geometry":{"type":"Point","coordinates":[7.349828,47.7893169]},"properties":{"natural":"tree"}},
{"type":"Feature","geometry":{"type":"Point","coordinates":[7.3498176,47.7890155]},"properties":{"natural":"tree"}},
{"type":"Feature","geometry":{"type":"Point","coordinates":[7.3493965,47.7888925]},"properties":{"natural":"tree"}},
{"type":"Feature","geometry":{"type":"Point","coordinates":[7.3496573,47.7890314]},"properties":{"natural":"tree"}},
{"type":"Feature","geometry":{"type":"Point","coordinates":[7.3493463,47.7892334]},"properties":{"natural":"tree"}},
{"type":"Feature","geometry":{"type":"Point","coordinates":[7.3493188,47.789422]},"properties":{"natural":"tree"}},
{"type":"Feature","geometry":{"type":"Point","coordinates":[7.3491576,47.7895239]},"properties":{"natural":"tree"}},
{"type":"Feature","geometry":{"type":"Point","coordinates":[7.3486796,47.7893411]},"properties":{"natural":"tree"}},
{"type":"Feature","geometry":{"type":"Point","coordinates":[7.3484549,47.789315]},"properties":{"natural":"tree"}},
{"type":"Feature","geometry":{"type":"Point","coordinates":[7.348288,47.7893035]},"properties":{"natural":"tree"}},
{"type":"Feature","geometry":{"type":"Point","coordinates":[7.3489252,47.7893576]},"properties":{"natural":"tree"}},
{"type":"Feature","geometry":{"type":"Point","coordinates":[7.3488797,47.7892379]},"properties":{"natural":"tree"}},
{"type":"Feature","geometry":{"type":"Point","coordinates":[7.3488863,47.7891952]},"properties":{"natural":"tree"}},
{"type":"Feature","geometry":{"type":"Point","coordinates":[7.3486976,47.7890709]},"properties":{"natural":"tree"}},
{"type":"Feature","geometry":{"type":"Point","coordinates":[7.3485905,47.7890741]},"properties":{"natural":"tree"}},
{"type":"Feature","geometry":{"type":"Point","coordinates":[7.3483458,47.7891257]},"properties":{"natural":"tree"}},
{"type":"Feature","geometry":{"type":"Point","coordinates":[7.3509186,47.7906268]},"properties":{"natural":"tree","source":"Orthophoto Mulhouse Alsace Agglomération","source:date":"2018"}},
{"type":"Feature","geometry":{"type":"Point","coordinates":[7.3506255,47.7903732]},"properties":{"natural":"tree","source":"Orthophoto Mulhouse Alsace Agglomération","source:date":"2018"}},
{"type":"Feature","geometry":{"type":"Point","coordinates":[7.2429199,47.7788616]},"properties":{"information":"board","tourism":"information"}},
{"type":"Feature","geometry":{"type":"Point","coordinates":[7.3313905,47.7607445]},"properties":{"covered":"no","leisure":"picnic_table","source":"BDOrtho IGN"}},
{"type":"Feature","geometry":{"type":"Point","coordinates":[7.3313838,47.7609699]},"properties":{"covered":"no","leisure":"picnic_table","source":"BDOrtho IGN"}},
{"type":"Feature","geometry":{"type":"Point","coordinates":[7.3313382,47.7610158]},"properties":{"covered":"no","leisure":"picnic_table","source":"BDOrtho IGN"}},
{"type":"Feature","geometry":{"type":"Point","coordinates":[7.2785591,47.7589557]},"properties":{"historic":"monument","name":"Mémorial aux Libérateurs de Lutterbach"}},
{"type":"Feature","geometry":{"type":"Point","coordinates":[7.2603804,47.8095231]},"properties":{"tourism":"picnic_site"}},
{"type":"Feature","geometry":{"type":"Point","coordinates":[7.2836271,47.7880302]},"properties":{"tourism":"picnic_site"}},
{"type":"Feature","geometry":{"type":"Point","coordinates":[7.3571491,47.7505733]},"properties":{"tourism":"picnic_site"}},
{"type":"Feature","geometry":{"type":"Point","coordinates":[7.3453447,47.7708902]},"properties":{"tourism":"picnic_site"}},
{"type":"Feature","geometry":{"type":"Point","coordinates":[7.3475911,47.7719993]},"properties":{"leisure":"playground"}},
{"type":"Feature","geometry":{"type":"Point","coordinates":[7.3475227,47.7717131]},"properties":{"leisure":"playground"}},
{"type":"Feature","geometry":{"type":"Point","coordinates":[7.3308188,47.7554647]},"properties":{"leisure":"playground","opening_hours":"24/7"}},
{"type":"Feature","geometry":{"type":"Point","coordinates":[7.3298898,47.8480544]},"properties":{"historic":"memorial","name":"La Stele du Sergent Pilote Vincent Maurice Lucien"}},
{"type":"Feature","geometry":{"type":"Point","coordinates":[7.2762696,47.758547]},"properties":{"barrier":"gate"}},
{"type":"Feature","geometry":{"type":"Point","coordinates":[7.3367927,47.7627901]},"properties":{"tourism":"artwork"}},
{"type":"Feature","geometry":{"type":"Point","coordinates":[7.3371317,47.7435523]},"properties":{"natural":"tree"}},
{"type":"Feature","geometry":{"type":"Point","coordinates":[7.336716,47.7432943]},"properties":{"natural":"tree"}},
{"type":"Feature","geometry":{"type":"Point","coordinates":[7.3059482,47.7954839]},"properties":{"leisure":"picnic_table"}},
{"type":"Feature","geometry":{"type":"Point","coordinates":[7.3063003,47.7961577]},"properties":{"leisure":"picnic_table"}},
{"type":"Feature","geometry":{"type":"Point","coordinates":[7.3060813,47.796259]},"properties":{"leisure":"picnic_table"}},
{"type":"Feature","geometry":{"type":"Point","coordinates":[7.3068733,47.7955679]},"properties":{"leisure":"picnic_table"}},
{"type":"Feature","geometry":{"type":"Point","coordinates":[7.3068441,47.7957041]},"properties":{"leisure":"picnic_table"}},
{"type":"Feature","geometry":{"type":"Point","coordinates":[7.307011,47.7955921]},"properties":{"leisure":"picnic_table"}},
{"type":"Feature","geometry":{"type":"Point","coordinates":[7.2639372,47.7388274]},"properties":{"genus":"Prunus","natural":"tree"}},
{"type":"Feature","geometry":{"type":"Point","coordinates":[7.2639953,47.7394095]},"properties":{"genus":"Quercus","natural":"tree"}},
{"type":"Feature","geometry":{"type":"Point","coordinates":[7.2639712,47.7395082]},"properties":{"genus":"Quercus","natural":"tree"}},
{"type":"Feature","geometry":{"type":"Point","coordinates":[7.2639819,47.7395934]},"properties":{"genus":"Quercus","natural":"tree"}},
{"type":"Feature","geometry":{"type":"Point","coordinates":[7.3182787,47.7451397]},"properties":{"barrier":"gate","entrance":"yes"}},
{"type":"Feature","geometry":{"type":"Point","coordinates":[7.3228457,47.769524]},"properties":{"leaf_cycle":"deciduous","leaf_type":"broadleaved","natural":"tree"}},
{"type":"Feature","geometry":{"type":"Point","coordinates":[7.3380955,47.7455974]},"properties":{"natural":"tree"}},
{"type":"Feature","geometry":{"type":"Point","coordinates":[7.3381972,47.7455795]},"properties":{"natural":"tree"}},
{"type":"Feature","geometry":{"type":"Point","coordinates":[7.3382303,47.7456316]},"properties":{"natural":"tree"}},
{"type":"Feature","geometry":{"type":"Point","coordinates":[7.3356339,47.7446266]},"properties":{"natural":"tree"}},
{"type":"Feature","geometry":{"type":"Point","coordinates":[7.3354864,47.7446716]},"properties":{"natural":"tree"}},
{"type":"Feature","geometry":{"type":"Point","coordinates":[7.3354461,47.7447077]},"properties":{"natural":"tree"}},
{"type":"Feature","geometry":{"type":"Point","coordinates":[7.335312,47.7445093]},"properties":{"denotation":"urban","leaf_cycle":"deciduous","leaf_type":"broadleaved","natural":"tree"}},
{"type":"Feature","geometry":{"type":"Point","coordinates":[7.3354032,47.7445562]},"properties":{"denotation":"urban","leaf_cycle":"deciduous","leaf_type":"broadleaved","natural":"tree"}},
{"type":"Feature","geometry":{"type":"Point","coordinates":[7.3353362,47.7445743]},"properties":{"leaf_cycle":"deciduous","leaf_type":"broadleaved","natural":"tree","source":"survey;local knowledge"}},
{"type":"Feature","geometry":{"type":"Point","coordinates":[7.3475723,47.7591569]},"properties":{"natural":"tree"}},
{"type":"Feature","geometry":{"type":"Point","coordinates":[7.3353086,47.7467752]},"properties":{"natural":"tree"}},
{"type":"Feature","geometry":{"type":"Point","coordinates":[7.3353784,47.7467716]},"properties":{"natural":"tree"}},
{"type":"Feature","geometry":{"type":"Point","coordinates":[7.3354454,47.7467716]},"properties":{"natural":"tree"}},
{"type":"Feature","geometry":{"type":"Point","coordinates":[7.3482331,47.745713]},"properties":{"leaf_type":"broadleaved","natural":"tree"}},
{"type":"Feature","geometry":{"type":"Point","coordinates":[7.348275,47.7457498]},"properties":{"leaf_type":"broadleaved","natural":"tree"}},
{"type":"Feature","geometry":{"type":"Point","coordinates":[7.3483496,47.7457728]},"properties":{"leaf_type":"broadleaved","natural":"tree"}},
{"type":"Feature","geometry":{"type":"Point","coordinates":[7.3482675,47.7456809]},"properties":{"leaf_type":"broadleaved","natural":"tree"}},
{"type":"Feature","geometry":{"type":"Point","coordinates":[7.3483153,47.7456343]},"properties":{"leaf_type":"broadleaved","natural":"tree"}},
{"type":"Feature","geometry":{"type":"Point","coordinates":[7.3483262,47.7457055]},"properties":{"leaf_type":"broadleaved","natural":"tree"}},
{"type":"Feature","geometry":{"type":"Point","coordinates":[7.3483808,47.7456557]},"properties":{"leaf_type":"broadleaved","natural":"tree"}},
{"type":"Feature","geometry":{"type":"Point","coordinates":[7.3483878,47.7457327]},"properties":{"leaf_type":"broadleaved","natural":"tree"}},
{"type":"Feature","geometry":{"type":"Point","coordinates":[7.3484433,47.7456849]},"properties":{"leaf_type":"broadleaved","natural":"tree"}},
{"type":"Feature","geometry":{"type":"Point","coordinates":[7.3436729,47.7584505]},"properties":{"barrier":"gate"}},
{"type":"Feature","geometry":{"type":"Point","coordinates":[7.3445609,47.7579684]},"properties":{"barrier":"gate"}},
{"type":"Feature","geometry":{"type":"Point","coordinates":[7.2743298,47.776357]},"properties":{"name":"Gros Chêne de Pfastatt","natural":"tree"}},
{"type":"Feature","geometry":{"type":"Point","coordinates":[7.2608337,47.7702259]},"properties":{"historic":"boundary_stone"}},
{"type":"Feature","geometry":{"type":"Point","coordinates":[7.2562712,47.7655584]},"properties":{"tourism":"picnic_site"}},
{"type":"Feature","geometry":{"type":"Point","coordinates":[7.3569521,47.7468169]},"properties":{"leaf_type":"broadleaved","natural":"tree"}},
{"type":"Feature","geometry":{"type":"Point","coordinates":[7.3570743,47.7467108]},"properties":{"leaf_type":"broadleaved","natural":"tree"}},
{"type":"Feature","geometry":{"type":"Point","coordinates":[7.3571884,47.7466227]},"properties":{"leaf_cycle":"deciduous","leaf_type":"broadleaved","natural":"tree"}},
{"type":"Feature","geometry":{"type":"Point","coordinates":[7.3575166,47.7465664]},"properties":{"leaf_cycle":"deciduous","leaf_type":"broadleaved","natural":"tree"}},
{"type":"Feature","geometry":{"type":"Point","coordinates":[7.3578186,47.7467792]},"properties":{"leaf_type":"broadleaved","natural":"tree"}},
{"type":"Feature","geometry":{"type":"Point","coordinates":[7.357766,47.7467479]},"properties":{"leaf_type":"broadleaved","natural":"tree"}},
{"type":"Feature","geometry":{"type":"Point","coordinates":[7.3576987,47.746706]},"properties":{"leaf_type":"broadleaved","natural":"tree"}},
{"type":"Feature","geometry":{"type":"Point","coordinates":[7.3576395,47.7466659]},"properties":{"leaf_type":"broadleaved","natural":"tree"}},
{"type":"Feature","geometry":{"type":"Point","coordinates":[7.3578925,47.7468227]},"properties":{"leaf_type":"broadleaved","natural":"tree"}},
{"type":"Feature","geometry":{"type":"Point","coordinates":[7.3579815,47.7468762]},"properties":{"leaf_type":"broadleaved","natural":"tree"}},
{"type":"Feature","geometry":{"type":"Point","coordinates":[7.3580453,47.7469275]},"properties":{"leaf_type":"broadleaved","natural":"tree"}},
{"type":"Feature","geometry":{"type":"Point","coordinates":[7.3576413,47.7463215]},"properties":{"leaf_cycle":"deciduous","leaf_type":"broadleaved","natural":"tree"}},
{"type":"Feature","geometry":{"type":"Point","coordinates":[7.3576817,47.7462168]},"properties":{"leaf_cycle":"deciduous","leaf_type":"broadleaved","natural":"tree"}},
{"type":"Feature","geometry":{"type":"Point","coordinates":[7.3527988,47.7546501]},"properties":{"historic":"city_gate"}},
{"type":"Feature","geometry":{"type":"Point","coordinates":[7.3368016,47.7483645]},"properties":{"natural":"tree"}},
{"type":"Feature","geometry":{"type":"Point","coordinates":[7.336929,47.7485398]},"properties":{"natural":"tree"}},
{"type":"Feature","geometry":{"type":"Point","coordinates":[7.3368761,47.7488165]},"properties":{"natural":"tree"}},
{"type":"Feature","geometry":{"type":"Point","coordinates":[7.3368967,47.7487306]},"properties":{"natural":"tree"}},
{"type":"Feature","geometry":{"type":"Point","coordinates":[7.3363312,47.7454468]},"properties":{"artist_name":"Sébastien Haller","artwork_type":"sculpture","name":"Les Amazones","tourism":"artwork"}},
{"type":"Feature","geometry":{"type":"Point","coordinates":[7.335152,47.745682]},"properties":{"contact:city":"Mulhouse","contact:housenumber":"33","contact:postcode":"68100","contact:street":"Rue des Trois-Rois","contact:website":"https://orlinda.gallery","name":"Orlinda Urban Art Gallery","tourism":"gallery"}},
{"type":"Feature","geometry":{"type":"Point","coordinates":[7.3361505,47.7469307]},"properties":{"addr:city":"Mulhouse","addr:housenumber":"10","addr:postcode":"68100","addr:street":"Rue des Tanneurs","email":"info@courantdart.fr","fee":"no","name":"Courant d'art","phone":"+33 3 89 66 33 77","tourism":"gallery"}},
{"type":"Feature","geometry":{"type":"Point","coordinates":[7.335939,47.7463537]},"properties":{"natural":"tree"}},
{"type":"Feature","geometry":{"type":"Point","coordinates":[7.3360428,47.7463324]},"properties":{"natural":"tree"}},
{"type":"Feature","geometry":{"type":"Point","coordinates":[7.3360652,47.7462933]},"properties":{"natural":"tree"}},
{"type":"Feature","geometry":{"type":"Point","coordinates":[7.3349661,47.7469176]},"properties":{"fee":"no","name":"Galerie Concorde","tourism":"gallery"}},
{"type":"Feature","geometry":{"type":"Point","coordinates":[7.3102276,47.7436885]},"properties":{"access":"private","barrier":"gate"}},
{"type":"Feature","geometry":{"type":"Point","coordinates":[7.332661,47.7383254]},"properties":{"natural":"tree"}},
{"type":"Feature","geometry":{"type":"Point","coordinates":[7.3323785,47.7380865]},"properties":{"natural":"tree"}},
{"type":"Feature","geometry":{"type":"Point","coordinates":[7.3324683,47.7380191]},"properties":{"natural":"tree"}},
{"type":"Feature","geometry":{"type":"Point","coordinates":[7.3383033,47.7465721]},"properties":{"addr:city":"Mulhouse","addr:housenumber":"25","addr:postcode":"68100","addr:street":"Passage de la Réunion","leisure":"fitness_centre","name":"La Place Fitness","opening_hours":"Club de Fitness ouvert 24h/24 7j/7","phone":"+33 3 89 56 58 35","website":"https://www.laplacefitness.fr/"}},
{"type":"Feature","geometry":{"type":"Point","coordinates":[7.2992441,47.7375674]},"properties":{"artist_name":"Dourone","artwork_type":"streetart","name":"Même composition, Même beauté","tourism":"artwork"}},
{"type":"Feature","geometry":{"type":"Point","coordinates":[7.2632785,47.8461877]},"properties":{"historic":"boundary_stone","name":"28"}},
{"type":"Feature","geometry":{"type":"Point","coordinates":[7.3593223,47.7361101]},"properties":{"artwork_type":"statue","mapillary":"494217428677688","material":"stone","tourism":"artwork"}},
{"type":"Feature","geometry":{"type":"Point","coordinates":[7.3587012,47.7366025]},"properties":{"artwork_type":"statue","direction":"45","mapillary":"498773178113586","material":"stone","name":"Le Discobole","tourism":"artwork"}},
{"type":"Feature","geometry":{"type":"Point","coordinates":[7.3593529,47.7375739]},"properties":{"artwork_type":"statue","mapillary":"2964083503838842","material":"stone","tourism":"artwork"}},
{"type":"Feature","geometry":{"type":"Point","coordinates":[7.3592845,47.7374138]},"properties":{"genus":"Fagus sylvatica","genus:fr":"Hêtre Pourpre","leaf_type":"broadleaved","natural":"tree","species":"Fagus sylvatica f. purpurea"}},
{"type":"Feature","geometry":{"type":"Point","coordinates":[7.3593536,47.7372213]},"properties":{"genus":"Tilia","genus:fr":"Tilleul de Crimée","natural":"tree","species":"Tilia × euchlora"}},
{"type":"Feature","geometry":{"type":"Point","coordinates":[7.3589687,47.7373651]},"properties":{"artwork_type":"bust","mapillary":"983849705483767","material":"bronze","name":"Alfred Wallach","start_date":"1998-05-29","tourism":"artwork"}},
{"type":"Feature","geometry":{"type":"Point","coordinates":[7.3591506,47.7360585]},"properties":{"leisure":"picnic_table","material":"wood"}},
{"type":"Feature","geometry":{"type":"Point","coordinates":[7.3592161,47.7370408]},"properties":{"leaf_cycle":"evergreen","leaf_type":"needleleaved","natural":"tree"}},
{"type":"Feature","geometry":{"type":"Point","coordinates":[7.3591833,47.736795]},"properties":{"leaf_cycle":"evergreen","leaf_type":"needleleaved","natural":"tree"}},
{"type":"Feature","geometry":{"type":"Point","coordinates":[7.3590156,47.7369118]},"properties":{"leaf_cycle":"evergreen","leaf_type":"needleleaved","natural":"tree"}},
{"type":"Feature","geometry":{"type":"Point","coordinates":[7.3588138,47.736781]},"properties":{"leaf_cycle":"evergreen","leaf_type":"needleleaved","natural":"tree"}},
{"type":"Feature","geometry":{"type":"Point","coordinates":[7.3589814,47.7366638]},"properties":{"leaf_cycle":"evergreen","leaf_type":"needleleaved","natural":"tree"}},
{"type":"Feature","geometry":{"type":"Point","coordinates":[7.3358131,47.7409614]},"properties":{"entrance":"yes"}},
{"type":"Feature","geometry":{"type":"Point","coordinates":[7.3355325,47.741216]},"properties":{"name":"Cornouiller mâle","natural":"tree"}},
{"type":"Feature","geometry":{"type":"Point","coordinates":[7.3356519,47.7411889]},"properties":{"genus":"Betula pubescens","natural":"tree","species":"Bétulacée","species:fr":"Bouleau pubescent"}},
{"type":"Feature","geometry":{"type":"Point","coordinates":[7.3353924,47.7413282]},"properties":{"name":"Ginkgo","natural":"tree"}},
{"type":"Feature","geometry":{"type":"Point","coordinates":[7.3354782,47.7412462]},"properties":{"name":"Alisier de Fontainebleau","natural":"tree"}},
{"type":"Feature","geometry":{"type":"Point","coordinates":[7.3358356,47.741418]},"properties":{"genus":"Tilia tomentosa","natural":"tree","species":"Malvacée","species:fr":"Tilleul argenté"}},
{"type":"Feature","geometry":{"type":"Point","coordinates":[7.3361561,47.7416335]},"properties":{"name":"Houx","natural":"tree"}},
{"type":"Feature","geometry":{"type":"Point","coordinates":[7.3362675,47.7417183]},"properties":{"genus":"Castanea sativa","natural":"tree","species":"Fagacée","species:fr":"Châtaignier"}},
{"type":"Feature","geometry":{"type":"Point","coordinates":[7.3364673,47.7416967]},"properties":{"genus":"Cedrus atlantica","natural":"tree","species":"Pinacée","species:fr":"Cèdre de l'Atlas"}},
{"type":"Feature","geometry":{"type":"Point","coordinates":[7.3364532,47.7418076]},"properties":{"name":"If à baies","natural":"tree"}},
{"type":"Feature","geometry":{"type":"Point","coordinates":[7.3591758,47.7361542]},"properties":{"barrier":"gate","bicycle":"yes","entrance":"yes","foot":"yes"}},
{"type":"Feature","geometry":{"type":"Point","coordinates":[7.3592178,47.7361235]},"properties":{"barrier":"gate","bicycle":"yes","entrance":"yes","foot":"yes"}},
{"type":"Feature","geometry":{"type":"Point","coordinates":[7.3292005,47.7441853]},"properties":{"natural":"tree"}},
{"type":"Feature","geometry":{"type":"Point","coordinates":[7.3228249,47.7415095]},"properties":{"leisure":"playground"}},
{"type":"Feature","geometry":{"type":"Point","coordinates":[7.3509076,47.7578018]},"properties":{"artist_name":"Joseph Bey","artwork_type":"sculpture","name":"Piliers du monde d'Ajaa","start_date":"2019","tourism":"artwork"}},
{"type":"Feature","geometry":{"type":"Point","coordinates":[7.3505489,47.7574037]},"properties":{"artist_name":"Pascal Gangloff","artwork_type":"sculpture","name":"Pégase","start_date":"2017","tourism":"artwork","website":"http://mulhouse.fr/sculptures"}},
{"type":"Feature","geometry":{"type":"Point","coordinates":[7.350233,47.7570634]},"properties":{"artist_name":"Élèves des lycées Lambert et Stoessel","artwork_type":"sculpture","material":"metal","name":"La grande ourse","start_date":"2011","tourism":"artwork","website":"http://mulhouse.fr/sculptures"}},
{"type":"Feature","geometry":{"type":"Point","coordinates":[7.3500466,47.7568191]},"properties":{"artist_name":"Kristian Ingold","artwork_type":"sculpture","name":"Ourobouros","start_date":"2007","tourism":"artwork","website":"http://mulhouse.fr/sculptures"}},
{"type":"Feature","geometry":{"type":"Point","coordinates":[7.3492393,47.7559364]},"properties":{"artist_name":"Christian Lapie","artwork_type":"sculpture","material":"wood","name":"Nos ombres en attendant la nuit","start_date":"2007","tourism":"artwork","website":"http://mulhouse.fr/sculptures"}},
{"type":"Feature","geometry":{"type":"Point","coordinates":[7.348841,47.755518]},"properties":{"artist_name":"Alix Vonderweidt","artwork_type":"sculpture","name":"La danse des trois","start_date":"2005","tourism":"artwork","website":"http://mulhouse.fr/sculptures"}},
{"type":"Feature","geometry":{"type":"Point","coordinates":[7.3484185,47.7547345]},"properties":{"board_type":"history","check_date":"2024-03-31","information":"board","name":"Le Nouveau Bassin","tourism":"information"}},
{"type":"Feature","geometry":{"type":"Point","coordinates":[7.3480806,47.7546462]},"properties":{"artist_name":"Françoise Matt-Halm","artwork_type":"sculpture","material":"metal","name":"La Girafe","start_date":"2004","tourism":"artwork","website":"http://mulhouse.fr/sculptures"}},
{"type":"Feature","geometry":{"type":"Point","coordinates":[7.3477922,47.7543279]},"properties":{"artist_name":"Vincente Blanchard","artwork_type":"sculpture","name":"La Jonque","start_date":"2001","tourism":"artwork","website":"http://mulhouse.fr/sculptures"}},
{"type":"Feature","geometry":{"type":"Point","coordinates":[7.3472799,47.7537265]},"properties":{"artist_name":"Yves Carrey","artwork_type":"sculpture","material":"metal","name":"L'arbre","tourism":"artwork","website":"http://mulhouse.fr/sculptures"}},
{"type":"Feature","geometry":{"type":"Point","coordinates":[7.3475575,47.7540592]},"properties":{"artist_name":"Anne-Marie Schoen","artwork_type":"sculpture","material":"metal","name":"Réserve (pour tout bagage)","start_date":"2004","tourism":"artwork","website":"http://mulhouse.fr/sculptures"}},
{"type":"Feature","geometry":{"type":"Point","coordinates":[7.3473912,47.7538717]},"properties":{"artist_name":"Georges Hanskens","artwork_type":"sculpture","material":"bronze","name":"Maternité","start_date":"2009","tourism":"artwork","website":"http://mulhouse.fr/sculptures"}},
{"type":"Feature","geometry":{"type":"Point","coordinates":[7.3470291,47.7534641]},"properties":{"artist_name":"Pierre Watzky","artwork_type":"sculpture","name":"Cristaux","start_date":"2013","tourism":"artwork","website":"http://mulhouse.fr/sculptures"}},
{"type":"Feature","geometry":{"type":"Point","coordinates":[7.3469888,47.7535994]},"properties":{"barrier":"cycle_barrier","bicycle":"yes","cycle_barrier":"triple","cycle_barrier:installation":"fixed","foot":"yes"}},
{"type":"Feature","geometry":{"type":"Point","coordinates":[7.3386338,47.7436098]},"properties":{"access":"private","barrier":"gate"}},
{"type":"Feature","geometry":{"type":"Point","coordinates":[7.3334612,47.745524]},"properties":{"natural":"tree"}},
{"type":"Feature","geometry":{"type":"Point","coordinates":[7.3367111,47.7481704]},"properties":{"artist_name":"Sylvie Herzog;Fernand d'Onofrio","artwork_type":"mural","name":"Les Géants","start_date":"2002","tourism":"artwork"}},
{"type":"Feature","geometry":{"type":"Point","coordinates":[7.3396631,47.7481331]},"properties":{"artwork_type":"streetart","name":"Le M.U.R. (Modulable Urbain Réactif)","tourism":"artwork"}},
{"type":"Feature","geometry":{"type":"Point","coordinates":[7.3302767,47.7501269]},"properties":{"artist_name":"INTI","artwork_type":"mural","name":"El Sembrador","tourism":"artwork"}},
{"type":"Feature","geometry":{"type":"Point","coordinates":[7.3398341,47.7469319]},"properties":{"artist_name":"Christian Chabouté","artwork_type":"mural","description":"Sensibilisation à la prise en charge du handicap mental dans la vie de la cité","name":"Les Papillons Blancs","start_date":"1991","tourism":"artwork"}},
{"type":"Feature","geometry":{"type":"Point","coordinates":[7.3377811,47.7459114]},"properties":{"artist_name":"Shaka","artwork_type":"streetart","name":"Portrait du Docteur Latscha","tourism":"artwork"}},
{"type":"Feature","geometry":{"type":"Point","coordinates":[7.3333875,47.7482885]},"properties":{"artist_name":"Daniel Dyminski","artwork_type":"mural","description":"\"La cathédrale de la science\" référence à la chimie sur le mur de la 1ère Ecole de chimie de Mulhouse","name":"La Fresque des Chimistes","start_date":"1991","tourism":"artwork"}},
{"type":"Feature","geometry":{"type":"Point","coordinates":[7.331325,47.7464114]},"properties":{"artist_name":"Jean de Linhoff","artwork_type":"mural","name":"Gaz Owl","tourism":"artwork"}},
{"type":"Feature","geometry":{"type":"Point","coordinates":[7.3349191,47.7375865]},"properties":{"artist_name":"Renato Montanaro","artwork_type":"mural","name":"Les deux colombes","tourism":"artwork"}},
{"type":"Feature","geometry":{"type":"Point","coordinates":[7.3402777,47.7477932]},"properties":{"artist_name":"Jana & JS","artwork_type":"mural","tourism":"artwork"}},
{"type":"Feature","geometry":{"type":"Point","coordinates":[7.334043,47.7475782]},"properties":{"artist_name":"Fabio Rieti","artwork_type":"mural","name":"Les Mulhousiens","tourism":"artwork"}},
{"type":"Feature","geometry":{"type":"Point","coordinates":[7.3401399,47.7497655]},"properties":{"artist_name":"Charles Folk","artwork_type":"sculpture","name":"Les Euronanas","tourism":"artwork"}},
{"type":"Feature","geometry":{"type":"Point","coordinates":[7.3340737,47.7476329]},"properties":{"artist_name":"Jean-Louis Toutain","artwork_type":"sculpture","name":"Sans les petites roues","tourism":"artwork"}},
{"type":"Feature","geometry":{"type":"Point","coordinates":[7.3345319,47.7732697]},"properties":{"barrier":"gate"}},
{"type":"Feature","geometry":{"type":"Point","coordinates":[7.3344163,47.7729845]},"properties":{"barrier":"gate"}},
{"type":"Feature","geometry":{"type":"Point","coordinates":[7.3340286,47.7711783]},"properties":{"barrier":"gate"}},
{"type":"Feature","geometry":{"type":"Point","coordinates":[7.3330821,47.769959]},"properties":{"barrier":"gate","foot":"yes","motor_vehicle":"no"}},
{"type":"Feature","geometry":{"type":"Point","coordinates":[7.3229373,47.7438781]},"properties":{"access":"private","barrier":"gate","motor_vehicle":"yes"}},
{"type":"Feature","geometry":{"type":"Point","coordinates":[7.3237645,47.7440202]},"properties":{"access":"private","barrier":"gate","motor_vehicle":"yes"}},
{"type":"Feature","geometry":{"type":"Point","coordinates":[7.3388703,47.7540649]},"properties":{"barrier":"gate"}},
{"type":"Feature","geometry":{"type":"Point","coordinates":[7.3409466,47.7560807]},"properties":{"barrier":"gate"}},
{"type":"Feature","geometry":{"type":"Point","coordinates":[7.3401816,47.7562922]},"properties":{"barrier":"gate"}},
{"type":"Feature","geometry":{"type":"Point","coordinates":[7.3385255,47.752746]},"properties":{"access":"private","barrier":"gate","motor_vehicle":"no"}},
{"type":"Feature","geometry":{"type":"Point","coordinates":[7.3151256,47.7502631]},"properties":{"leisure":"sports_centre","name":"Climbing Mulhouse Center"}},
{"type":"Feature","geometry":{"type":"Point","coordinates":[7.3386006,47.7507409]},"properties":{"contact:city":"Mulhouse","contact:email":"info@tourisme-mulhouse.com","contact:housenumber":"1","contact:phone":"+33 3 89 35 48 48","contact:postcode":"68100","contact:street":"Avenue Robert Schuman","contact:website":"https://www.tourisme-mulhouse.com","information":"office","internet_access":"wlan","internet_access:fee":"no","name":"Office de Tourisme et des Congrès de Mulhouse et sa région","opening_hours":"Jan-Feb Mo-Sa 10:00-13:00,14:00-17:00; Mar-Jun,Sep-Dec Mo-Sa 10:00-13:00,14:00-18:00; Mar-Jun,Sep-Dec Su,PH 10:00-13:00; Jul-Aug Mo-Sa 09:30-18:30; Jul-Aug Su,PH 10:00-13:00","operator":"Office de Tourisme et des Congrès de Mulhouse et sa région","tourism":"information","wheelchair":"yes"}},
{"type":"Feature","geometry":{"type":"Point","coordinates":[7.3384301,47.7474772]},"properties":{"contact:city":"Mulhouse","contact:email":"maisondupatrimoine@mulhouse-alsace.fr","contact:housenumber":"5","contact:postcode":"68100","contact:street":"Place Lambert","fee":"no","museum":"history","name":"Maison du Patrimoine Edouard Boeglin","opening_hours":"Mo-Sa 14:00-18:00","operator":"Ville de Mulhouse","operator:type":"public","tourism":"museum"}},
{"type":"Feature","geometry":{"type":"Point","coordinates":[7.3436959,47.7569806]},"properties":{"barrier":"gate"}},
{"type":"Feature","geometry":{"type":"Point","coordinates":[7.3440417,47.7586682]},"properties":{"description":"AUSTERLITZ 2e RCA 4e Escadron M 4 A4 matricule : 432-679 Servi par le Lieutenant Jean de Loisy","historic":"tank","inscription":"AUSTERLITZ","memorial":"war_memorial","name":"Char Sherman \"AUSTERLITZ\"","note":"Vehicule 2e D.B.","source":"https://www.chars-francais.net/2015/index.php/classement-individuel/m-4-sherman?task=view&id=755"}},
{"type":"Feature","geometry":{"type":"Point","coordinates":[7.3450056,47.7585917]},"properties":{"addr:city":"Mulhouse","addr:housenumber":"51","addr:postcode":"68100","addr:street":"Rue Paul Meyer","source":"Mulhouse Alsace Agglomération - 09/2013"}},
{"type":"Feature","geometry":{"type":"Point","coordinates":[7.3452054,47.7584469]},"properties":{"addr:city":"Mulhouse","addr:housenumber":"49","addr:postcode":"68100","addr:street":"Rue Paul Meyer","source":"Mulhouse Alsace Agglomération - 09/2013"}},
{"type":"Feature","geometry":{"type":"Point","coordinates":[7.3453434,47.7583517]},"properties":{"addr:city":"Mulhouse","addr:housenumber":"47","addr:postcode":"68100","addr:street":"Rue Paul Meyer","source":"Mulhouse Alsace Agglomération - 09/2013"}},