{"type":"FeatureCollection","features":[
{"type":"Feature","geometry":{"type":"Point","coordinates":[4.4043066,44.3183884]},"properties":{"historic":"archaeological_site","name":"Baume de Ronze","natural":"cave_entrance","source":"Local survey","wikidata":"Q93352786"}},
{"type":"Feature","geometry":{"type":"Point","coordinates":[4.32953,44.2389]},"properties":{"name":"Aven de la Mostela","natural":"cave_entrance"}},
{"type":"Feature","geometry":{"type":"Point","coordinates":[4.3365254,44.2591465]},"properties":{"name":"Aven de la Salamandre (entrée naturelle)","natural":"cave_entrance","old_name":"Aven de la Salamandre","tourism":"yes","website":"https://www.grottedelasalamandre.com"}},
{"type":"Feature","geometry":{"type":"Point","coordinates":[4.3485811,44.2595048]},"properties":{"name":"Aven de Madier","natural":"cave_entrance"}},
{"type":"Feature","geometry":{"type":"Point","coordinates":[4.3438272,44.2320089]},"properties":{"name":"Aven de l'Agas","natural":"cave_entrance"}},
{"type":"Feature","geometry":{"type":"Point","coordinates":[4.3179912,44.2382506]},"properties":{"name":"Aven des Oublis","natural":"cave_entrance"}},
{"type":"Feature","geometry":{"type":"Point","coordinates":[4.396355,44.2800227]},"properties":{"name":"Grotte de la Barbette","natural":"cave_entrance","source":"survey","toilets:wheelchair":"no","wheelchair":"no"}},
{"type":"Feature","geometry":{"type":"Point","coordinates":[4.3686388,44.2870099]},"properties":{"historic":"wayside_shrine","name":"Saint-Jean de Maruéjols","source":"cadastre-dgi-fr source : Direction Générale des Impôts - Cadastre. Mise à jour : 2009"}},
{"type":"Feature","geometry":{"type":"Point","coordinates":[4.3685652,44.2867271]},"properties":{"historic":"wayside_cross","source":"cadastre-dgi-fr source : Direction Générale des Impôts - Cadastre. Mise à jour : 2009"}},
{"type":"Feature","geometry":{"type":"Point","coordinates":[4.3412503,44.2576871]},"properties":{"name":"Aven du Crapaud","natural":"cave_entrance"}},
{"type":"Feature","geometry":{"type":"Point","coordinates":[4.349373,44.2660575]},"properties":{"name":"Aven de la Lucarne","natural":"cave_entrance","source":"survey"}},
{"type":"Feature","geometry":{"type":"Point","coordinates":[4.3314899,44.2573473]},"properties":{"name":"Aven des Nîmois","natural":"cave_entrance"}},
{"type":"Feature","geometry":{"type":"Point","coordinates":[4.3862457,44.2721502]},"properties":{"name":"Aven de la Combe de Madé","natural":"cave_entrance"}},
{"type":"Feature","geometry":{"type":"Point","coordinates":[4.3316709,44.2562207]},"properties":{"name":"Aven de Ravege","natural":"cave_entrance"}},
{"type":"Feature","geometry":{"type":"Point","coordinates":[4.3409362,44.2690549]},"properties":{"name":"Aven de la Masse","natural":"cave_entrance","source":"survey"}},
{"type":"Feature","geometry":{"type":"Point","coordinates":[4.411965,44.3199201]},"properties":{"name":"Aven d’Orgnac","natural":"cave_entrance","phone":"+33 4 75 38 65 10","tourism":"attraction","website":"https://www.orgnac.com/","wikidata":"Q790408","wikipedia":"fr:Aven d'Orgnac"}},
{"type":"Feature","geometry":{"type":"Point","coordinates":[4.4122108,44.3187457]},"properties":{"name":"Orgnac Grand Site de France","tourism":"attraction"}},
{"type":"Feature","geometry":{"type":"Point","coordinates":[4.3341692,44.2679223]},"properties":{"access":"yes","name":"Grotte du Barry de Saint-Ferréol","natural":"cave_entrance","source":"survey"}},
{"type":"Feature","geometry":{"type":"Point","coordinates":[4.3980029,44.278562]},"properties":{"name":"Aven du Prével","natural":"cave_entrance","source":"survey","toilets:wheelchair":"no","wheelchair":"no"}},
{"type":"Feature","geometry":{"type":"Point","coordinates":[4.3969497,44.2798836]},"properties":{"access":"private","contact:phone":"+33 608668446","name":"Grotte Estevan","natural":"cave_entrance","operator":"Pascal M.","source":"survey"}},
{"type":"Feature","geometry":{"type":"Point","coordinates":[4.318122,44.2420306]},"properties":{"name":"Grotte des Fées - Trou de la Lune","natural":"cave_entrance"}},
{"type":"Feature","geometry":{"type":"Point","coordinates":[4.3183415,44.2422456]},"properties":{"name":"Grotte des Fées","natural":"cave_entrance"}},
{"type":"Feature","geometry":{"type":"Point","coordinates":[4.3212203,44.2320155]},"properties":{"name":"Aven des Pèbres","natural":"cave_entrance"}},
{"type":"Feature","geometry":{"type":"Point","coordinates":[4.3178168,44.2297593]},"properties":{"name":"Belvédère de Tharaux","tourism":"viewpoint"}},
{"type":"Feature","geometry":{"type":"Point","coordinates":[4.3675522,44.2218367]},"properties":{"name":"Aven Janine","natural":"cave_entrance"}},
{"type":"Feature","geometry":{"type":"Point","coordinates":[4.3685033,44.218973]},"properties":{"name":"Aven de la Chèvre","natural":"cave_entrance"}},
{"type":"Feature","geometry":{"type":"Point","coordinates":[4.3490234,44.2731953]},"properties":{"leisure":"playground"}},
{"type":"Feature","geometry":{"type":"Point","coordinates":[4.3600596,44.2788298]},"properties":{"name":"Panneau d'informations","source":"julien@hautefeuille.eu","tourism":"information"}},
{"type":"Feature","geometry":{"type":"Point","coordinates":[4.4015643,44.3205642]},"properties":{"historic":"memorial","name":"Maquis Orgnac Camp 5","source":"Reperage_local"}},
{"type":"Feature","geometry":{"type":"Point","coordinates":[4.3737801,44.2600765]},"properties":{"name":"Grotte Claire","natural":"cave_entrance"}},
{"type":"Feature","geometry":{"type":"Point","coordinates":[4.4163683,44.327708199999999]},"properties":{"ele":"363","mountain_pass":"yes","name":"Col de la Forestière","natural":"saddle","source":"survey"}},
{"type":"Feature","geometry":{"type":"Point","coordinates":[4.3494007,44.2253128]},"properties":{"addr:city":"Méjannes-le-Clap","addr:postcode":"30430","addr:street":"Rue du Champ de Mars","information":"office","name":"Office de Tourisme","opening_hours":"Mar,Oct Mo-Fr 09:00-12:00,14:00-17:00; Mar,Oct Sa 08:30-12:30; Apr-Jun Mo-Sa 09:00-12:00,14:00-17:00; Jul-Aug 09:00-12:30,15:00-18:30; Nov-Feb Mo-Fr 08:30-12:30; Nov-Feb Sa off; Nov-Feb Su 09:00-12:30,15:00-18:30; Jan 01,May 01,Nov 01,Nov 11,Dec 25 off","phone":"+33 4 66 24 42 41","tourism":"information","website":"https://www.mejannesleclap.com"}},
{"type":"Feature","geometry":{"type":"Point","coordinates":[4.3655735,44.2271054]},"properties":{"ele":"297","hiking":"yes","information":"guidepost","name":"Lac de Trépadone","tourism":"information"}},
{"type":"Feature","geometry":{"type":"Point","coordinates":[4.3652548,44.227372]},"properties":{"tourism":"picnic_site"}},
{"type":"Feature","geometry":{"type":"Point","coordinates":[4.3972373,44.2572343]},"properties":{"ele":"310","name":"Dent de Serret","tourism":"viewpoint"}},
{"type":"Feature","geometry":{"type":"Point","coordinates":[4.3482566,44.3078562]},"properties":{"information":"office","tourism":"information"}},
{"type":"Feature","geometry":{"type":"Point","coordinates":[4.3433145,44.3020717]},"properties":{"light_source":"floodlight"}},
{"type":"Feature","geometry":{"type":"Point","coordinates":[4.3434994,44.3021113]},"properties":{"light_source":"floodlight"}},
{"type":"Feature","geometry":{"type":"Point","coordinates":[4.3432511,44.3022334]},"properties":{"light_source":"floodlight"}},
{"type":"Feature","geometry":{"type":"Point","coordinates":[4.3434415,44.3022733]},"properties":{"light_source":"floodlight"}},
{"type":"Feature","geometry":{"type":"Point","coordinates":[4.3432096,44.3023964]},"properties":{"light_source":"floodlight"}},
{"type":"Feature","geometry":{"type":"Point","coordinates":[4.3433971,44.3024328]},"properties":{"light_source":"floodlight"}},
{"type":"Feature","geometry":{"type":"Point","coordinates":[4.4035127,44.3285541]},"properties":{"access":"customers","dog":"leashed;clean","fee":"yes","name":"Aven de la Forestière","natural":"cave_entrance","phone":"+33 4 75 38 63 08","tourism":"attraction","website":"http://www.avengrottelaforestiere.com"}},
{"type":"Feature","geometry":{"type":"Point","coordinates":[4.3794981,44.3170561]},"properties":{"archaeological_site":"megalith","historic":"archaeological_site","megalith_type":"dolmen","name":"Dolmen des Oeillantes A","name:t4t35.fr":"DLOEI0","ref":"30 029 0002","ref:megalithic.co.uk":"6334827","ref:t4t35.fr":"9228","source":"local_survey","website":"http://t4t35.fr/Megalithes/AfficheSite.aspx?NumSite=9228"}},
{"type":"Feature","geometry":{"type":"Point","coordinates":[4.3811125,44.3181547]},"properties":{"archaeological_site":"megalith","historic":"archaeological_site","megalith_type":"dolmen","name":"Dolmen des Oeillantes B","name:t4t35.fr":"DLOEIU","ref":"30 029 0002","ref:megalithic.co.uk":"6334828","ref:t4t35.fr":"9227","source":"local_survey","website":"http://t4t35.fr/Megalithes/AfficheSite.aspx?NumSite=9227"}},
{"type":"Feature","geometry":{"type":"Point","coordinates":[4.3786669,44.3164826]},"properties":{"archaeological_site":"megalith","historic":"archaeological_site","megalith_type":"dolmen","name":"Dolmen des Oeillantes C","name:t4t35.fr":"DLOEI1","ref:megalithic.co.uk":"6334829","ref:t4t35.fr":"28948","source":"local_survey","website":"http://t4t35.fr/Megalithes/AfficheSite.aspx?NumSite=28948"}},
{"type":"Feature","geometry":{"type":"Point","coordinates":[4.3951146,44.3266393]},"properties":{"archaeological_site":"megalith","historic":"archaeological_site","megalith_type":"dolmen","name":"Dolmen de la Devèze A","name:t4t35.fr":"DLDEV2","ref:megalithic.co.uk":"6342094","ref:t4t35.fr":"28956","source":"t4t35.fr","website":"http://t4t35.fr/Megalithes/AfficheSite.aspx?NumSite=28956"}},
{"type":"Feature","geometry":{"type":"Point","coordinates":[4.3957793,44.3266199]},"properties":{"archaeological_site":"megalith","historic":"archaeological_site","megalith_type":"dolmen","name":"Dolmen de la Devèze B","name:t4t35.fr":"DLDEV3","ref:megalithic.co.uk":"43236","ref:t4t35.fr":"28957","source":"t4t35.fr","website":"http://t4t35.fr/Megalithes/AfficheSite.aspx?NumSite=28957"}},
{"type":"Feature","geometry":{"type":"Point","coordinates":[4.3956,44.3264893]},"properties":{"archaeological_site":"megalith","historic":"archaeological_site","megalith_type":"dolmen","name":"Dolmen de la Devèze C","name:t4t35.fr":"DLDEV4","ref:megalithic.co.uk":"43237","ref:t4t35.fr":"28958","source":"t4t35.fr","website":"http://t4t35.fr/Megalithes/AfficheSite.aspx?NumSite=28958"}},
{"type":"Feature","geometry":{"type":"Point","coordinates":[4.3948886,44.3259665]},"properties":{"archaeological_site":"megalith","historic":"archaeological_site","megalith_type":"dolmen","name":"Dolmen de la Devèze D","name:t4t35.fr":"DLDEV1","ref:megalithic.co.uk":"43238","ref:t4t35.fr":"28955","source":"t4t35.fr","website":"http://t4t35.fr/Megalithes/AfficheSite.aspx?NumSite=28955"}},
{"type":"Feature","geometry":{"type":"Point","coordinates":[4.3961087,44.3239507]},"properties":{"archaeological_site":"megalith","historic":"archaeological_site","megalith_type":"dolmen","name":"Dolmen de la Devèze E","name:t4t35.fr":"DLDEVC","ref:megalithic.co.uk":"43239","ref:t4t35.fr":"32521","source":"t4t35.fr","website":"http://t4t35.fr/Megalithes/AfficheSite.aspx?NumSite=32521"}},
{"type":"Feature","geometry":{"type":"Point","coordinates":[4.3882263,44.3214919]},"properties":{"archaeological_site":"megalith","historic":"archaeological_site","megalith_type":"dolmen","name":"Dolmen de la Serre de Fabre A","name:t4t35.fr":"DLSERC","ref:megalithic.co.uk":"6342095","ref:t4t35.fr":"28951","source":"t4t35.fr","website":"http://t4t35.fr/Megalithes/AfficheSite.aspx?NumSite=28951"}},
{"type":"Feature","geometry":{"type":"Point","coordinates":[4.3884668,44.32131]},"properties":{"archaeological_site":"megalith","historic":"archaeological_site","megalith_type":"dolmen","name":"Dolmen de la Serre de Fabre B","name:t4t35.fr":"DLSERD","ref:megalithic.co.uk":"43233","ref:t4t35.fr":"28952","source":"t4t35.fr","website":"http://t4t35.fr/Megalithes/AfficheSite.aspx?NumSite=28952"}},
{"type":"Feature","geometry":{"type":"Point","coordinates":[4.3894457,44.3219819]},"properties":{"archaeological_site":"megalith","historic":"archaeological_site","megalith_type":"dolmen","name":"Dolmen de la Serre de Fabre C","name:t4t35.fr":"DLSERE","ref:megalithic.co.uk":"43234","ref:t4t35.fr":"28953","source":"t4t35.fr","website":"http://t4t35.fr/Megalithes/AfficheSite.aspx?NumSite=28953"}},
{"type":"Feature","geometry":{"type":"Point","coordinates":[4.389032,44.3215123]},"properties":{"archaeological_site":"megalith","historic":"archaeological_site","megalith_type":"dolmen","name":"Dolmen de la Serre de Fabre D","name:t4t35.fr":"DLSERF","ref:megalithic.co.uk":"43235","ref:t4t35.fr":"28954","source":"t4t35.fr","website":"http://t4t35.fr/Megalithes/AfficheSite.aspx?NumSite=28954"}},
{"type":"Feature","geometry":{"type":"Point","coordinates":[4.3791509,44.3167404]},"properties":{"archaeological_site":"megalith","historic":"archaeological_site","megalith_type":"dolmen","name":"Dolmen des Oeillantes D","name:t4t35.fr":"DLOEI2","ref:megalithic.co.uk":"6334829","ref:t4t35.fr":"28949","source":"local_survey","website":"http://t4t35.fr/Megalithes/AfficheSite.aspx?NumSite=28949"}},
{"type":"Feature","geometry":{"type":"Point","coordinates":[4.37957,44.31489]},"properties":{"archaeological_site":"megalith","historic":"archaeological_site","megalith_type":"dolmen","name":"Dolmen des Oeillantes E","name:t4t35.fr":"DLOEI3","ref:megalithic.co.uk":"6334829","ref:t4t35.fr":"28950","source":"t4t35.fr","website":"http://t4t35.fr/Megalithes/AfficheSite.aspx?NumSite=28950"}},
{"type":"Feature","geometry":{"type":"Point","coordinates":[4.38172,44.3164]},"properties":{"archaeological_site":"megalith","historic":"archaeological_site","megalith_type":"dolmen","name":"Dolmen des Oeillantes G","name:t4t35.fr":"DLOEIL","ref:megalithic.co.uk":"43726","ref:t4t35.fr":"32522","source":"t4t35.fr","website":"http://t4t35.fr/Megalithes/AfficheSite.aspx?NumSite=32522"}},
{"type":"Feature","geometry":{"type":"Point","coordinates":[4.38159,44.31596]},"properties":{"archaeological_site":"megalith","historic":"archaeological_site","megalith_type":"dolmen","name":"Dolmen des Oeillantes H","name:t4t35.fr":"DLOEI4","ref:megalithic.co.uk":"43727","ref:t4t35.fr":"32523","source":"t4t35.fr","website":"http://t4t35.fr/Megalithes/AfficheSite.aspx?NumSite=32523"}},
{"type":"Feature","geometry":{"type":"Point","coordinates":[4.3799616,44.3122336]},"properties":{"information":"guidepost","material":"stone","name":"Dolmens","tourism":"information"}},
{"type":"Feature","geometry":{"type":"Point","coordinates":[4.3485113,44.308135]},"properties":{"board_type":"history","information":"board","name":"Barjac - Place Joseph Comte","tourism":"information"}},
{"type":"Feature","geometry":{"type":"Point","coordinates":[4.3481435,44.3078982]},"properties":{"name":"Merle de Lagorce","tourism":"hotel"}},
{"type":"Feature","geometry":{"type":"Point","coordinates":[4.347801,44.3076453]},"properties":{"hiking":"yes","information":"guidepost","tourism":"information"}},
{"type":"Feature","geometry":{"type":"Point","coordinates":[4.3485216,44.3078306]},"properties":{"historic":"memorial","memorial":"war"}},
{"type":"Feature","geometry":{"type":"Point","coordinates":[4.3479277,44.3080663]},"properties":{"board_type":"history","information":"board","name":"Hôtel Particulier Merle de Lagorce","tourism":"information"}},
{"type":"Feature","geometry":{"type":"Point","coordinates":[4.3725818,44.2880614]},"properties":{"access":"private","building:loc":"capitelle","description":"Capitelle en bon état","historic":"shelter","image":"http://garrigue-gourmande.fr/images/patrimoine/10_my.jpg","material":"dry_stone","shelter_type":"basic_hut","source":"Garrigue Gourmande","url":"http://garrigue-gourmande.fr/index.php?option=com_content&view=article&id=7010&Itemid=703"}},
{"type":"Feature","geometry":{"type":"Point","coordinates":[4.3529919,44.2595873]},"properties":{"name":"Source Saint-Estève","natural":"spring"}},
{"type":"Feature","geometry":{"type":"Point","coordinates":[4.3329061,44.2602631]},"properties":{"name":"Source de la Salamandre","natural":"spring"}},
{"type":"Feature","geometry":{"type":"Point","coordinates":[4.3187692,44.2390826]},"properties":{"name":"Aven Grégoire","natural":"cave_entrance"}},
{"type":"Feature","geometry":{"type":"Point","coordinates":[4.361968,44.2609365]},"properties":{"name":"Baume des Italiens","natural":"cave_entrance"}},
{"type":"Feature","geometry":{"type":"Point","coordinates":[4.356893,44.2600601]},"properties":{"alt_name":"Rocher du Mourgue","name":"Trois Arches","tourism":"viewpoint"}},
{"type":"Feature","geometry":{"type":"Point","coordinates":[4.37845,44.26627]},"properties":{"name":"Aven des Banquières","natural":"cave_entrance"}},
{"type":"Feature","geometry":{"type":"Point","coordinates":[4.3213723,44.2317981]},"properties":{"name":"Aven du Loir","natural":"cave_entrance"}},
{"type":"Feature","geometry":{"type":"Point","coordinates":[4.3267916,44.2386654]},"properties":{"name":"Aven Armédia (entrée 1)","natural":"cave_entrance"}},
{"type":"Feature","geometry":{"type":"Point","coordinates":[4.3345289,44.2628465]},"properties":{"ford":"yes"}},
{"type":"Feature","geometry":{"type":"Point","coordinates":[4.353987,44.266823]},"properties":{"name":"Belvédère","tourism":"viewpoint"}},
{"type":"Feature","geometry":{"type":"Point","coordinates":[4.3735474,44.3184627]},"properties":{"leisure":"track","lit":"no","name":"Parcours de santé","sport":"running"}},
{"type":"Feature","geometry":{"type":"Point","coordinates":[4.3340242,44.242838]},"properties":{"name":"Aven","natural":"cave_entrance"}},
{"type":"Feature","geometry":{"type":"Point","coordinates":[4.3479592,44.2257887]},"properties":{"name":"La Bonne Humeur","tourism":"hotel"}},
{"type":"Feature","geometry":{"type":"Point","coordinates":[4.326465,44.2392831]},"properties":{"name":"Aven Armédia (entrée 2)","natural":"cave_entrance"}},
{"type":"Feature","geometry":{"type":"Point","coordinates":[4.3209902,44.2312152]},"properties":{"name":"Aven de l'EPMM","natural":"cave_entrance"}},
{"type":"Feature","geometry":{"type":"Point","coordinates":[4.4187708,44.2663729]},"properties":{"name":"Aven du Travès","natural":"cave_entrance"}},
{"type":"Feature","geometry":{"type":"Point","coordinates":[4.4177515,44.2653621]},"properties":{"name":"Trou de Montclus","natural":"cave_entrance"}},
{"type":"Feature","geometry":{"type":"Point","coordinates":[4.390849,44.2472543]},"properties":{"access":"yes","fee":"no","name":"Grotte de Peyre-Haute","natural":"cave_entrance"}},
{"type":"Feature","geometry":{"type":"Point","coordinates":[4.3476038,44.3072724]},"properties":{"information":"office","name":"Office de tourisme","tourism":"information"}},
{"type":"Feature","geometry":{"type":"Point","coordinates":[4.3908102,44.247518]},"properties":{"ele":"278","hiking":"yes","information":"guidepost","name":"Grotte Aven de Peyre-Haute","tourism":"information"}},
{"type":"Feature","geometry":{"type":"Point","coordinates":[4.381055,44.2425337]},"properties":{"ele":"312","hiking":"yes","information":"guidepost","name":"La Rabasse","tourism":"information"}},
{"type":"Feature","geometry":{"type":"Point","coordinates":[4.3759454,44.2429479]},"properties":{"ele":"305","hiking":"yes","information":"guidepost","name":"Le Mas du Clap","tourism":"information"}},
{"type":"Feature","geometry":{"type":"Point","coordinates":[4.3511739,44.2255143]},"properties":{"ele":"305","hiking":"yes","information":"guidepost","name":"Les Dolines","tourism":"information"}},
{"type":"Feature","geometry":{"type":"Point","coordinates":[4.3839893,44.2432371]},"properties":{"ele":"320","hiking":"yes","information":"guidepost","name":"Peyre Haute","tourism":"information"}},
{"type":"Feature","geometry":{"type":"Point","coordinates":[4.3773106,44.2377682]},"properties":{"hiking":"yes","information":"guidepost","tourism":"information"}},
{"type":"Feature","geometry":{"type":"Point","coordinates":[4.3802288,44.2384254]},"properties":{"hiking":"yes","information":"guidepost","tourism":"information"}},
{"type":"Feature","geometry":{"type":"Point","coordinates":[4.3826388,44.2488341]},"properties":{"ele":"246","hiking":"yes","information":"guidepost","name":"Chemin des Bûcherons","tourism":"information"}},
{"type":"Feature","geometry":{"type":"Point","coordinates":[4.3767941,44.2496062]},"properties":{"hiking":"yes","information":"guidepost","tourism":"information"}},
{"type":"Feature","geometry":{"type":"Point","coordinates":[4.3783686,44.250701]},"properties":{"information":"board","tourism":"information"}},
{"type":"Feature","geometry":{"type":"Point","coordinates":[4.3785027,44.2509892]},"properties":{"information":"board","tourism":"information"}},
{"type":"Feature","geometry":{"type":"Point","coordinates":[4.3788916,44.2511045]},"properties":{"information":"board","tourism":"information"}},
{"type":"Feature","geometry":{"type":"Point","coordinates":[4.3799081,44.251531]},"properties":{"tourism":"viewpoint"}},
{"type":"Feature","geometry":{"type":"Point","coordinates":[4.3545515,44.2455905]},"properties":{"hiking":"yes","information":"guidepost","tourism":"information"}},
{"type":"Feature","geometry":{"type":"Point","coordinates":[4.3578855,44.2529587]},"properties":{"hiking":"yes","information":"guidepost","tourism":"information"}},
{"type":"Feature","geometry":{"type":"Point","coordinates":[4.3573208,44.2851066]},"properties":{"information":"office","name":"Office du Tourisme","source":"BDTopo IGN","tourism":"information"}},
{"type":"Feature","geometry":{"type":"Point","coordinates":[4.335339,44.2641663]},"properties":{"name":"Source du Félon","natural":"spring"}},
{"type":"Feature","geometry":{"type":"Point","coordinates":[4.3485569,44.2638583]},"properties":{"natural":"spring"}},
{"type":"Feature","geometry":{"type":"Point","coordinates":[4.3711528,44.2632095]},"properties":{"name":"Rocher de l'Aigle","natural":"peak"}},
{"type":"Feature","geometry":{"type":"Point","coordinates":[4.3476452,44.3073017]},"properties":{"description":"Randonnée: Dolmens et Capitelles","information":"board","tourism":"information"}},
{"type":"Feature","geometry":{"type":"Point","coordinates":[4.3492331,44.3094351]},"properties":{"historic":"wayside_cross"}},
{"type":"Feature","geometry":{"type":"Point","coordinates":[4.35101,44.3095752]},"properties":{"information":"guidepost","tourism":"information"}},
{"type":"Feature","geometry":{"type":"Point","coordinates":[4.3604501,44.3161418]},"properties":{"historic":"wayside_cross"}},
{"type":"Feature","geometry":{"type":"Point","coordinates":[4.3700417,44.3193313]},"properties":{"historic":"wayside_cross"}},
{"type":"Feature","geometry":{"type":"Point","coordinates":[4.3771455,44.311078]},"properties":{"information":"guidepost","tourism":"information"}},
{"type":"Feature","geometry":{"type":"Point","coordinates":[4.3715035,44.3194349]},"properties":{"information":"guidepost","tourism":"information"}},
{"type":"Feature","geometry":{"type":"Point","coordinates":[4.3927667,44.3242361]},"properties":{"ele":"319","information":"guidepost","name":"Dolmen de la Devèze","tourism":"information"}},
{"type":"Feature","geometry":{"type":"Point","coordinates":[4.393173,44.3231855]},"properties":{"ele":"329","information":"guidepost","name":"Serre de Fabre","tourism":"information"}},
{"type":"Feature","geometry":{"type":"Point","coordinates":[4.399719,44.3227336]},"properties":{"information":"guidepost","name":"Aven des Cristaux","tourism":"information"}},
{"type":"Feature","geometry":{"type":"Point","coordinates":[4.3993944,44.3264638]},"properties":{"ele":"347","information":"guidepost","name":"La Citerne","tourism":"information"}},
{"type":"Feature","geometry":{"type":"Point","coordinates":[4.4000288,44.3243742]},"properties":{"loc_name":"aven","natural":"cave_entrance"}},
{"type":"Feature","geometry":{"type":"Point","coordinates":[4.3751935,44.2606921]},"properties":{"name":"Grotte de l'Arva","natural":"cave_entrance"}},
{"type":"Feature","geometry":{"type":"Point","coordinates":[4.3670149,44.2265261]},"properties":{"name":"Aven de Trépadonne","natural":"cave_entrance"}},
{"type":"Feature","geometry":{"type":"Point","coordinates":[4.3218144,44.224096]},"properties":{"name":"Aven Taulelle","natural":"cave_entrance"}},
{"type":"Feature","geometry":{"type":"Point","coordinates":[4.3565946,44.2602205]},"properties":{"name":"Ronc Traucat du Rocher du Mourgue","natural":"cave_entrance"}},
{"type":"Feature","geometry":{"type":"Point","coordinates":[4.3510491,44.2261192]},"properties":{"ele":"305","information":"guidepost","name":"Les Coronilles","tourism":"information"}},
{"type":"Feature","geometry":{"type":"Point","coordinates":[4.3499206,44.2254441]},"properties":{"ele":"305","information":"guidepost","name":"Méjannes le Clap - Village","tourism":"information"}},
{"type":"Feature","geometry":{"type":"Point","coordinates":[4.3495531,44.2255959]},"properties":{"access":"yes","leisure":"playground"}},
{"type":"Feature","geometry":{"type":"Point","coordinates":[4.3640015,44.2337243]},"properties":{"ele":"288","information":"guidepost","name":"Les Lombards","tourism":"information"}},
{"type":"Feature","geometry":{"type":"Point","coordinates":[4.3752614,44.2420557]},"properties":{"ele":"303","information":"guidepost","name":"Le Clap","tourism":"information"}},
{"type":"Feature","geometry":{"type":"Point","coordinates":[4.3829272,44.2482753]},"properties":{"ele":"250","information":"guidepost","name":"Caporie","tourism":"information"}},
{"type":"Feature","geometry":{"type":"Point","coordinates":[4.3890279,44.2604918]},"properties":{"ele":"117","information":"guidepost","name":"Blacassine","tourism":"information"}},
{"type":"Feature","geometry":{"type":"Point","coordinates":[4.3884445,44.2585814]},"properties":{"ele":"125","information":"guidepost","name":"Combe de Bel Euze","tourism":"information"}},
{"type":"Feature","geometry":{"type":"Point","coordinates":[4.3980763,44.2515674]},"properties":{"ele":"230","information":"guidepost","name":"Combe de la Verrière","tourism":"information"}},
{"type":"Feature","geometry":{"type":"Point","coordinates":[4.3979046,44.2571983]},"properties":{"ele":"313","information":"guidepost","name":"Paillère","tourism":"information"}},
{"type":"Feature","geometry":{"type":"Point","coordinates":[4.4000544,44.2544088]},"properties":{"ele":"288","information":"guidepost","name":"Combe de Bertrand","tourism":"information"}},
{"type":"Feature","geometry":{"type":"Point","coordinates":[4.4028815,44.2481255]},"properties":{"ele":"292","information":"guidepost","name":"Lac de Cournirau","tourism":"information"}},
{"type":"Feature","geometry":{"type":"Point","coordinates":[4.4011662,44.2511025]},"properties":{"ele":"267","information":"guidepost","name":"Pied du Grand Serre","tourism":"information"}},
{"type":"Feature","geometry":{"type":"Point","coordinates":[4.3926891,44.2398257]},"properties":{"ele":"268","information":"guidepost","name":"Combe Etroite","tourism":"information"}},
{"type":"Feature","geometry":{"type":"Point","coordinates":[4.3852393,44.2370124]},"properties":{"ele":"303","information":"guidepost","name":"Mas Crémat","tourism":"information"}},
{"type":"Feature","geometry":{"type":"Point","coordinates":[4.3847042,44.234885]},"properties":{"ele":"309","information":"guidepost","name":"La Bergerie","tourism":"information"}},
{"type":"Feature","geometry":{"type":"Point","coordinates":[4.3806715,44.2340961]},"properties":{"ele":"302","information":"guidepost","name":"La Crespine","tourism":"information"}},
{"type":"Feature","geometry":{"type":"Point","coordinates":[4.3682434,44.2277097]},"properties":{"ele":"304","information":"guidepost","name":"Danse des Fées","tourism":"information"}},
{"type":"Feature","geometry":{"type":"Point","coordinates":[4.3719771,44.2280009]},"properties":{"ele":"305","information":"guidepost","name":"Le Civadou","tourism":"information"}},
{"type":"Feature","geometry":{"type":"Point","coordinates":[4.420776,44.2611769]},"properties":{"historic":"monument"}},
{"type":"Feature","geometry":{"type":"Point","coordinates":[4.4208873,44.2610679]},"properties":{"historic":"memorial","memorial":"war_memorial","name":"Monument aux morts de 1914-1918"}},
{"type":"Feature","geometry":{"type":"Point","coordinates":[4.321131,44.2335519]},"properties":{"name":"Aven du Serre des Brus","natural":"cave_entrance"}},
{"type":"Feature","geometry":{"type":"Point","coordinates":[4.3484925,44.3079333]},"properties":{"historic":"memorial","memorial":"war_memorial","name":"Monument aux Morts"}},
{"type":"Feature","geometry":{"type":"Point","coordinates":[4.3509085,44.2238894]},"properties":{"light_source":"floodlight"}},
{"type":"Feature","geometry":{"type":"Point","coordinates":[4.3509202,44.2237203]},"properties":{"light_source":"floodlight"}},
{"type":"Feature","geometry":{"type":"Point","coordinates":[4.3507235,44.2237154]},"properties":{"light_source":"floodlight"}},
{"type":"Feature","geometry":{"type":"Point","coordinates":[4.3507121,44.2238808]},"properties":{"light_source":"floodlight"}},
{"type":"Feature","geometry":{"type":"Point","coordinates":[4.3504808,44.2238759]},"properties":{"light_source":"floodlight"}},
{"type":"Feature","geometry":{"type":"Point","coordinates":[4.3504921,44.2237106]},"properties":{"light_source":"floodlight"}},
{"type":"Feature","geometry":{"type":"Point","coordinates":[4.3459423,44.2645033]},"properties":{"name":"Grotte de Saint-Ferréol","natural":"cave_entrance"}},
{"type":"Feature","geometry":{"type":"Point","coordinates":[4.3463264,44.3076375]},"properties":{"addr:postcode":"30430","email":"noobru.bn@gmail.com","name":"La Salamandre","opening_hours":"Mo-Sa 00:00-24:00","phone":"+33 6 22 90 44 29","tourism":"apartment"}},
{"type":"Feature","geometry":{"type":"Point","coordinates":[4.3831831,44.2697053]},"properties":{"tourism":"picnic_site"}},
{"type":"Feature","geometry":{"type":"Point","coordinates":[4.4037945,44.3284566]},"properties":{"leisure":"playground"}},
{"type":"Feature","geometry":{"type":"Point","coordinates":[4.3948204,44.2599395]},"properties":{"name":"Baume Salène","natural":"cave_entrance"}},
{"type":"Feature","geometry":{"type":"Point","coordinates":[4.4089697,44.2578208]},"properties":{"name":"Aven de l'Aspirateur","natural":"cave_entrance"}},
{"type":"Feature","geometry":{"type":"Point","coordinates":[4.3604567,44.232698]},"properties":{"name":"Aven du Solitaire","natural":"cave_entrance"}},
{"type":"Feature","geometry":{"type":"Point","coordinates":[4.3307361,44.2736773]},"properties":{"name":"Grotte de l'Orage","natural":"cave_entrance"}},
{"type":"Feature","geometry":{"type":"Point","coordinates":[4.3974582,44.2804814]},"properties":{"name":"Aven de la Buse","natural":"cave_entrance"}},
{"type":"Feature","geometry":{"type":"Point","coordinates":[4.326008,44.2355614]},"properties":{"name":"Aven de la Rotonde","natural":"cave_entrance"}},
{"type":"Feature","geometry":{"type":"Point","coordinates":[4.3470038,44.2879986]},"properties":{"natural":"tree","source":"BD Ortho IGN"}},
{"type":"Feature","geometry":{"type":"Point","coordinates":[4.3473083,44.2879727]},"properties":{"natural":"tree","source":"BD Ortho IGN"}},
{"type":"Feature","geometry":{"type":"Point","coordinates":[4.3471661,44.2881205]},"properties":{"natural":"tree","source":"BD Ortho IGN"}},
{"type":"Feature","geometry":{"type":"Point","coordinates":[4.3471795,44.2882405]},"properties":{"natural":"tree","source":"BD Ortho IGN"}},
{"type":"Feature","geometry":{"type":"Point","coordinates":[4.420355,44.2615038]},"properties":{"barrier":"gate"}},
{"type":"Feature","geometry":{"type":"Point","coordinates":[4.4210455,44.2610604]},"properties":{"natural":"tree"}},
{"type":"Feature","geometry":{"type":"Point","coordinates":[4.4210231,44.261008]},"properties":{"natural":"tree"}},
{"type":"Feature","geometry":{"type":"Point","coordinates":[4.420704,44.2611427]},"properties":{"natural":"tree"}},
{"type":"Feature","geometry":{"type":"Point","coordinates":[4.4206654,44.2610611]},"properties":{"natural":"tree"}},
{"type":"Feature","geometry":{"type":"Point","coordinates":[4.4207406,44.2610087]},"properties":{"natural":"tree"}},
{"type":"Feature","geometry":{"type":"Point","coordinates":[4.4208859,44.260917]},"properties":{"natural":"tree"}},
{"type":"Feature","geometry":{"type":"Point","coordinates":[4.4207934,44.2609803]},"properties":{"natural":"tree"}},
{"type":"Feature","geometry":{"type":"Point","coordinates":[4.4207619,44.261182]},"properties":{"natural":"tree"}},
{"type":"Feature","geometry":{"type":"Point","coordinates":[4.3638056,44.2627142]},"properties":{"name":"Grotte du Petit Cirque Perdu","natural":"cave_entrance"}},
{"type":"Feature","geometry":{"type":"Point","coordinates":[4.3639748,44.2625742]},"properties":{"name":"Grotte Perchée","natural":"cave_entrance"}},
{"type":"Feature","geometry":{"type":"Point","coordinates":[4.3648678,44.2626596]},"properties":{"name":"Grotte-abri","natural":"cave_entrance"}},
{"type":"Feature","geometry":{"type":"Point","coordinates":[4.4083046,44.2725005]},"properties":{"name":"Grotte du Prével","natural":"cave_entrance"}},
{"type":"Feature","geometry":{"type":"Point","coordinates":[4.3356615,44.2586838]},"properties":{"access":"customers","fee":"yes","name":"Grotte de la Salamandre","natural":"cave_entrance","phone":"+33466600600","tourism":"attraction","website":"https://www.grottedelasalamandre.com/","wikipedia":"fr:Grotte_de_la_Salamandre"}},
{"type":"Feature","geometry":{"type":"Point","coordinates":[4.3511264,44.2217973]},"properties":{"leisure":"resort","name":"Espace Garddecouverte","survey:date":"2020-10-29"}},
{"type":"Feature","geometry":{"type":"Point","coordinates":[4.4013367,44.2627121]},"properties":{"source":"BDTopo IGN","tourism":"viewpoint"}},
{"type":"Feature","geometry":{"type":"Point","coordinates":[4.3343244,44.259327]},"properties":{"source":"BDTopo IGN","tourism":"viewpoint"}},
{"type":"Feature","geometry":{"type":"Point","coordinates":[4.3227366,44.2901385]},"properties":{"description":"Ancienne mine","historic":"mine","source":"BDTopo IGN"}},
{"type":"Feature","geometry":{"type":"Point","coordinates":[4.3299718,44.2947846]},"properties":{"description":"Ancienne mine","historic":"mine","source":"BDTopo IGN"}},
{"type":"Feature","geometry":{"type":"Point","coordinates":[4.3276765,44.289573]},"properties":{"description":"Ancienne mine","historic":"mine","source":"BDTopo IGN"}},
{"type":"Feature","geometry":{"type":"Point","coordinates":[4.4284989,44.3296527]},"properties":{"alt_name":"Plaine de Ronze","archaeological_site":"megalith","historic":"archaeological_site","historic:civilization":"prehistoric","historic:era":"neolithic","historic:period":"stone-age","megalith_type":"dolmen","name":"Dolmen de la Font du Loup (A)","ref:megalithic.co.uk":"6342603","ref:t4t35.fr":"10002"}},
{"type":"Feature","geometry":{"type":"Point","coordinates":[4.3788244,44.2516903]},"properties":{"archaeological_site":"megalith","historic":"archaeological_site","historic:civilization":"prehistoric","historic:era":"neolithic","historic:period":"stone-age","megalith_type":"dolmen","name":"Dolmen de Carcuignau (C)","ref:megalithic.co.uk":"6334912","ref:t4t35.fr":"12549"}},
{"type":"Feature","geometry":{"type":"Point","coordinates":[4.4271719,44.329972]},"properties":{"alt_name":"Plaine","archaeological_site":"megalith","historic":"archaeological_site","historic:civilization":"prehistoric","historic:era":"neolithic","historic:period":"stone-age","megalith_type":"dolmen","name":"Dolmen de la Font du Loup (B)","ref:megalithic.co.uk":"6342604","ref:t4t35.fr":"32519"}},
{"type":"Feature","geometry":{"type":"Point","coordinates":[4.3893756,44.3029015]},"properties":{"name":"Aven proche de la Cournasse","natural":"cave_entrance"}},
{"type":"Feature","geometry":{"type":"Point","coordinates":[4.3889974,44.3041254]},"properties":{"name":"Doline de la Cournasse","natural":"cave_entrance"}},
{"type":"Feature","geometry":{"type":"Point","coordinates":[4.3453484,44.3062582]},"properties":{"addr:housenumber":"306","addr:street":"Avenue Jean Tassy","name":"Résidence La Closerie","phone":"+33 4 68 37 65 65","tourism":"hotel"}},
{"type":"Feature","geometry":{"type":"Point","coordinates":[4.4012609,44.3280849]},"properties":{"natural":"cave_entrance"}},
{"type":"Feature","geometry":{"type":"Point","coordinates":[4.3459688,44.3077929]},"properties":{"leaf_type":"broadleaved","natural":"tree"}},
{"type":"Feature","geometry":{"type":"Point","coordinates":[4.4202089,44.262201]},"properties":{"backrest":"no","covered":"no","leisure":"picnic_table","material":"wood"}},
{"type":"Feature","geometry":{"type":"Point","coordinates":[4.420178,44.2620776]},"properties":{"access":"yes","leisure":"playground"}},
{"type":"Feature","geometry":{"type":"Point","coordinates":[4.420137,44.2622147]},"properties":{"backrest":"no","covered":"no","leisure":"picnic_table","material":"wood"}},
{"type":"Feature","geometry":{"type":"Point","coordinates":[4.3489942,44.2735466]},"properties":{"leisure":"amusement_arcade"}},
{"type":"Feature","geometry":{"type":"Point","coordinates":[4.3489169,44.2735651]},"properties":{"tourism":"information"}},
{"type":"Feature","geometry":{"type":"Point","coordinates":[4.3492639,44.2735207]},"properties":{"leisure":"sports_centre"}},
{"type":"Feature","geometry":{"type":"Point","coordinates":[4.3492992,44.2734741]},"properties":{"leisure":"sauna"}},
{"type":"Feature","geometry":{"type":"Point","coordinates":[4.3508893,44.2715921]},"properties":{"barrier":"gate"}},
{"type":"Feature","geometry":{"type":"Point","coordinates":[4.3641977,44.3252801]},"properties":{"name":"La Ribaute","operator":"Anselm Kiefer","tourism":"attraction","website":"https://www.youtube.com/watch?v=Xfb9_gfL9mo"}},
{"type":"Feature","geometry":{"type":"Point","coordinates":[4.4175683,44.2621877]},"properties":{"name":"Faille de l'Étau","natural":"cave_entrance"}},
{"type":"Feature","geometry":{"type":"Point","coordinates":[4.3318558,44.2410238]},"properties":{"natural":"cave_entrance"}},
{"type":"Feature","geometry":{"type":"Point","coordinates":[4.3302917,44.2387469]},"properties":{"natural":"cave_entrance"}},
{"type":"Feature","geometry":{"type":"Point","coordinates":[4.394385,44.2803614]},"properties":{"name":"Grotte de la Barbette","natural":"cave_entrance"}},
{"type":"Feature","geometry":{"type":"Point","coordinates":[4.3865861,44.2750161]},"properties":{"name":"Aven du Capitan","natural":"cave_entrance"}},
{"type":"Feature","geometry":{"type":"Point","coordinates":[4.3925299,44.2769916]},"properties":{"name":"Serre du Prével","natural":"peak"}},
{"type":"Feature","geometry":{"type":"Point","coordinates":[4.3390969,44.264036]},"properties":{"name":"Parking (accès piste)","tourism":"information"}},
{"type":"Feature","geometry":{"type":"Point","coordinates":[4.4254082,44.2679404]},"properties":{"historic":"wayside_cross"}},
{"type":"Feature","geometry":{"type":"Point","coordinates":[4.3771107,44.2645717]},"properties":{"name":"Aven de la Candelosa","natural":"cave_entrance"}},
{"type":"Feature","geometry":{"type":"Point","coordinates":[4.3488175,44.2249103]},"properties":{"historic":"wayside_cross","source":"IGN - 2022-06"}},
{"type":"Feature","geometry":{"type":"Point","coordinates":[4.3743128,44.2543539]},"properties":{"name":"Aven du Vasistas","natural":"cave_entrance"}},
{"type":"Feature","geometry":{"type":"Point","coordinates":[4.4035986,44.3282499]},"properties":{"access":"customers","tourism":"picnic_site"}},
{"type":"Feature","geometry":{"type":"Point","coordinates":[4.3532846,44.3159907]},"properties":{"name":"Natura Lodge","tourism":"guest_house"}},
{"type":"Feature","geometry":{"type":"Point","coordinates":[4.3958095,44.2604123]},"properties":{"name":"Baume Salène 2","natural":"cave_entrance"}},
{"type":"Feature","geometry":{"type":"Point","coordinates":[4.3627649,44.3023646]},"properties":{"addr:housenumber":"325","addr:postcode":"30430","addr:street":"Chemin de la Montée du Rieu","contact:instagram":"location_barjac","name":"Location Barjac","phone":"0627358052","tourism":"guest_house"}},
{"type":"Feature","geometry":{"type":"Point","coordinates":[4.4132973,44.3188512]},"properties":{"name":"Musée de la Préhistoire","tourism":"museum","wikipedia":"fr:Musée régional de Préhistoire"}},
{"type":"Feature","geometry":{"type":"Point","coordinates":[4.4169952,44.268456]},"properties":{"name":"Vase","natural":"rock"}},
{"type":"Feature","geometry":{"type":"Point","coordinates":[4.4176325,44.2685184]},"properties":{"natural":"rock"}},
{"type":"Feature","geometry":{"type":"Point","coordinates":[4.3633209,44.2612432]},"properties":{"description":"Beau point de vue sur l’ensemble du Domaine de la Sablière","tourism":"viewpoint"}},
{"type":"Feature","geometry":{"type":"Point","coordinates":[4.3577608,44.2657586]},"properties":{"leisure":"sauna"}},
{"type":"Feature","geometry":{"type":"Point","coordinates":[4.383391,44.268989]},"properties":{"name":"Plage Mas de Terris","tourism":"attraction"}},
{"type":"Feature","geometry":{"type":"Point","coordinates":[4.3585976,44.3017087]},"properties":{"natural":"tree"}},
{"type":"Feature","geometry":{"type":"Point","coordinates":[4.3606237,44.3046306]},"properties":{"natural":"tree"}},
{"type":"Feature","geometry":{"type":"Point","coordinates":[4.3607643,44.3046478]},"properties":{"natural":"tree"}},
{"type":"Feature","geometry":{"type":"Point","coordinates":[4.3588983,44.3059394]},"properties":{"natural":"tree"}},
{"type":"Feature","geometry":{"type":"Point","coordinates":[4.3558556,44.3048934]},"properties":{"natural":"tree"}},
{"type":"Feature","geometry":{"type":"Point","coordinates":[4.3555107,44.3059227]},"properties":{"natural":"tree"}},
{"type":"Feature","geometry":{"type":"Point","coordinates":[4.3545937,44.3061325]},"properties":{"natural":"tree"}},
{"type":"Feature","geometry":{"type":"Point","coordinates":[4.3479318,44.3072568]},"properties":{"natural":"tree"}},
{"type":"Feature","geometry":{"type":"Point","coordinates":[4.3480226,44.3071389]},"properties":{"natural":"tree"}},
{"type":"Feature","geometry":{"type":"Point","coordinates":[4.3482772,44.3072574]},"properties":{"natural":"tree"}},
{"type":"Feature","geometry":{"type":"Point","coordinates":[4.3483571,44.3071858]},"properties":{"natural":"tree"}},
{"type":"Feature","geometry":{"type":"Point","coordinates":[4.3482226,44.3073139]},"properties":{"natural":"tree"}},
{"type":"Feature","geometry":{"type":"Point","coordinates":[4.348152,44.307371]},"properties":{"natural":"tree"}},
{"type":"Feature","geometry":{"type":"Point","coordinates":[4.3477158,44.3072086]},"properties":{"natural":"tree"}},
{"type":"Feature","geometry":{"type":"Point","coordinates":[4.3478629,44.3070463]},"properties":{"natural":"tree"}},
{"type":"Feature","geometry":{"type":"Point","coordinates":[4.34804,44.3058238]},"properties":{"natural":"tree"}},
{"type":"Feature","geometry":{"type":"Point","coordinates":[4.3485682,44.3052769]},"properties":{"natural":"tree"}},
{"type":"Feature","geometry":{"type":"Point","coordinates":[4.3487625,44.3052198]},"properties":{"natural":"tree"}},
{"type":"Feature","geometry":{"type":"Point","coordinates":[4.3482733,44.3054579]},"properties":{"natural":"tree"}},
{"type":"Feature","geometry":{"type":"Point","coordinates":[4.3498626,44.3061444]},"properties":{"natural":"tree"}},
{"type":"Feature","geometry":{"type":"LineString","coordinates":[[4.3734391,44.2321473],[4.3726592,44.2323361],[4.3727837,44.2325114],[4.3726987,44.232513],[4.3715216,44.2333107],[4.370703,44.2327054],[4.3684556,44.2314148],[4.3673505,44.2296859],[4.3670684,44.2282745],[4.3669195,44.2281478],[4.3677223,44.2275804],[4.3704362,44.228015],[4.3713152,44.2274109],[4.3714401,44.2273268],[4.3719001,44.2244888],[4.3711995,44.2237732],[4.3725259,44.221737],[4.3716877,44.2205281],[4.3716547,44.2205269],[4.3692506,44.2213204],[4.3683466,44.2203984],[4.3680487,44.2200937],[4.367218,44.2177042],[4.3669266,44.2178374],[4.3665303,44.2180186],[4.3655084,44.2184859],[4.3660631,44.2196314],[4.3659922,44.2208818],[4.3653485,44.2223093],[4.3636357,44.2230078],[4.3637902,44.2240877],[4.3607987,44.2246435],[4.361523,44.225462],[4.3630539,44.2277582],[4.3619894,44.2288973],[4.3618277,44.2302648],[4.3606137,44.2319536],[4.3606495,44.2329525],[4.362861,44.2332443],[4.3658567,44.2327727],[4.3668364,44.2342532],[4.3675998,44.2361549],[4.3670567,44.2371645],[4.368729,44.2385501],[4.370602,44.2390977],[4.3726561,44.2382263],[4.3733255,44.2387703],[4.3742122,44.2396139],[4.3748392,44.2409346],[4.3761641,44.2423266],[4.3779044,44.2423773],[4.3781162,44.245038],[4.3810985,44.2446722],[4.3807238,44.2402423],[4.3832615,44.2399441],[4.382991,44.2388664],[4.3813552,44.238481],[4.3811727,44.2381434],[4.3809036,44.2376457],[4.3806063,44.2369951],[4.3803351,44.2359174],[4.3813023,44.2338171],[4.3824452,44.2333797],[4.3840114,44.2318505],[4.3830464,44.2307858],[4.3822113,44.2301358],[4.3828607,44.2288734],[4.3828065,44.2273757],[4.3812806,44.2268207],[4.3809639,44.2276598],[4.3812312,44.2286543],[4.3802529,44.2304221],[4.3796065,44.2317665],[4.376255,44.2319955],[4.3755875,44.2327579],[4.3739391,44.2320387],[4.3734391,44.2321473]]},"properties":{"CLC:code":"323","CLC:id":"FR-208900","CLC:year":"2006","natural":"scrub","source":"Union européenne - SOeS, CORINE Land Cover, 2006."}},
{"type":"Feature","geometry":{"type":"LineString","coordinates":[[4.3452194,44.2246204],[4.3471098,44.2241326],[4.3462318,44.2226945],[4.3469445,44.2225819],[4.3476516,44.2225487],[4.3489451,44.2224222],[4.350002,44.2221052],[4.349538,44.2206859],[4.3494863,44.2205962],[4.3489206,44.2196146],[4.3463858,44.2199951],[4.344644,44.2198597],[4.3440977,44.220786],[4.3433142,44.2215503],[4.3413345,44.2212539],[4.3399131,44.2203636],[4.339768,44.2195332],[4.3376904,44.2197377],[4.337714,44.2204039],[4.3363251,44.2204294],[4.3356511,44.2210241],[4.3350856,44.2216267],[4.3354451,44.2216911],[4.33909,44.2231254],[4.3396797,44.2230941],[4.3418699,44.2228032],[4.3447607,44.2226669],[4.3452194,44.2246204]]},"properties":{"CLC:code":"321","CLC:id":"FR-209633","CLC:year":"2006","natural":"grassland","source":"Union européenne - SOeS, CORINE Land Cover, 2006."}},
{"type":"Feature","geometry":{"type":"LineString","coordinates":[[4.3286842,44.2200458],[4.3308613,44.2198625],[4.331004,44.2202539],[4.3313745,44.2212698],[4.3336686,44.2206444],[4.3339751,44.2194729],[4.3336078,44.2156479],[4.3356587,44.2146941],[4.336267,44.2155161],[4.3371564,44.2151175],[4.3382052,44.2146475],[4.3399202,44.2140336],[4.339873,44.212701],[4.3383715,44.2128118],[4.3369651,44.2123383],[4.3355852,44.2126132],[4.3339769,44.2129754],[4.3324144,44.2136381],[4.3319231,44.2138461],[4.3304569,44.2149555],[4.3286312,44.2157388],[4.3280143,44.2146673],[4.3298253,44.213468399999999],[4.3300317,44.2128946],[4.3302474,44.2122948],[4.3294337,44.2122264],[4.3288322,44.2115707],[4.3265449,44.2119224],[4.3265742,44.2127549],[4.3245056,44.2132086],[4.3248913,44.2142854],[4.3248401,44.2154972],[4.3248283,44.2157853],[4.3255773,44.2172284],[4.3256375,44.2173443],[4.3260701,44.2181777],[4.3271532,44.219325],[4.3286842,44.2200458]]},"properties":{"CLC:code":"323","CLC:id":"FR-209780","CLC:year":"2006","natural":"scrub","source":"Union européenne - SOeS, CORINE Land Cover, 2006."}},
{"type":"Feature","geometry":{"type":"LineString","coordinates":[[4.3177773,44.3361433],[4.3206137,44.3375918],[4.3200716,44.3386844],[4.3229228,44.3405487],[4.3242474,44.3397691],[4.3247924,44.3387596],[4.3250813,44.337088],[4.3252484,44.3352522],[4.3265302,44.3353953],[4.326366,44.3373143],[4.329402,44.3378426],[4.3292027,44.3387626],[4.3296669,44.3387542],[4.3303285,44.3410741],[4.3306857,44.3413172],[4.3308193,44.3418152],[4.3319913,44.3421266],[4.3323153,44.3414551],[4.334784,44.3423253],[4.3346888,44.3429106],[4.3372757,44.343863],[4.3378381,44.3433534],[4.3368514,44.3417051],[4.3370447,44.3406188],[4.3356292,44.3399779],[4.333872,44.3395107],[4.3317606,44.3388825],[4.3313887,44.3382225],[4.3313299,44.3365583],[4.3303787,44.3359089],[4.330105,44.3347479],[4.3301922,44.3339131],[4.3308764,44.3335678],[4.3325322,44.334454],[4.3329062,44.335196],[4.3355769,44.3352305],[4.3359548,44.3360568],[4.3386196,44.3359249],[4.3385664,44.334427],[4.3389885,44.3332522],[4.3386977,44.3315923],[4.3413712,44.3317098],[4.3419867,44.3326981],[4.3415433,44.3332898],[4.3416446,44.3334451],[4.3414058,44.3336862],[4.341384,44.3341574],[4.3416686,44.3345676],[4.3429173,44.3349602],[4.343634,44.335584],[4.344687,44.335897],[4.3452852,44.3353598],[4.3456305,44.3342181],[4.3461417,44.3334055],[4.3473608,44.3329677],[4.3481497,44.3334517],[4.3494528,44.3342863],[4.3506321,44.3343154],[4.350649,44.3347879],[4.3535633,44.3351513],[4.3543601,44.3347195],[4.3547886,44.333712],[4.3558201,44.3333602],[4.3551843,44.3317888],[4.354928,44.3311278],[4.3540865,44.3303102],[4.353352,44.3292409],[4.3518148,44.328436],[4.3514131,44.330193],[4.3501373,44.3302165],[4.3489721,44.3300704],[4.3481783,44.3305853],[4.3474884,44.3307644],[4.3468668,44.3296098],[4.3466867,44.328753],[4.346587,44.3282825],[4.3471194,44.3269392],[4.3465969,44.3252836],[4.3442086,44.3266598],[4.3417264,44.3253729],[4.3411021,44.3241341],[4.3409183,44.3222215],[4.3384799,44.3221829],[4.3382571,44.3224377],[4.3387972,44.3245934],[4.3378727,44.3246935],[4.3371474,44.3238736],[4.3372072,44.3222894],[4.3372699,44.3207894],[4.3375709,44.3194515],[4.3378476,44.3174473],[4.3364562,44.3174727],[4.336206,44.3202253],[4.3361286,44.3213095],[4.3354535,44.3219054],[4.3362259,44.3240569],[4.3367217,44.3249642],[4.337914,44.3258587],[4.3372418,44.3265378],[4.3360849,44.3266422],[4.3356392,44.3271495],[4.3367681,44.3295452],[4.3362058,44.3300547],[4.3355454,44.3310664],[4.3346443,44.3318328],[4.334721,44.3339969],[4.3334539,44.3342697],[4.3327826,44.3317003],[4.3317186,44.3311362],[4.3313681,44.3299946],[4.3274012,44.3304648],[4.3270001,44.3289733],[4.3264633,44.3269007],[4.3249551,44.3269281],[4.3247821,44.3285976],[4.3248378,44.3301786],[4.3242738,44.3302428],[4.3245108,44.3307681],[4.3234901,44.3314522],[4.3212808,44.3313259],[4.3194454,44.3319427],[4.3204235,44.3333406],[4.3216384,44.3349017],[4.3199312,44.335849],[4.3177773,44.3361433]]},"properties":{"CLC:code":"323","CLC:id":"FR-205353","CLC:year":"2006","natural":"scrub","source":"Union européenne - SOeS, CORINE Land Cover, 2006."}},
{"type":"Feature","geometry":{"type":"LineString","coordinates":[[4.3586852,44.3004338],[4.3577223,44.3000656],[4.3574204,44.2998189],[4.3571248,44.2995774],[4.3545864,44.2999571],[4.353246,44.3013985],[4.3511447,44.3010201],[4.3501851,44.3001214],[4.3496707,44.2987153],[4.3482264,44.2972419],[4.3471807,44.297178],[4.3465208,44.2981896],[4.3431087,44.300085],[4.3454652,44.3011245],[4.3459646,44.3021149],[4.3445722,44.3021984],[4.3443085,44.3027623],[4.3441871,44.3035129],[4.3443098,44.3045795],[4.3450336,44.3053485],[4.3457016,44.3057834],[4.3464277,44.3049523],[4.3471302,44.3048466],[4.3500955,44.3040607],[4.3525033,44.3041162],[4.3536125,44.3043205],[4.3543415,44.3052291],[4.3555077,44.3050742],[4.3552905,44.3045949],[4.356217,44.3039385],[4.3577027,44.3045033],[4.3578855,44.3043927],[4.3581886,44.3037579],[4.357068,44.3037821],[4.3572521,44.3033461],[4.3582487,44.3033019],[4.3582246,44.3029491],[4.3570014,44.3026229],[4.357827,44.3020395],[4.3585252,44.3015811],[4.3590117,44.3010545],[4.3586852,44.3004338]]},"properties":{"CLC:code":"321","CLC:id":"FR-206714","CLC:year":"2006","natural":"grassland","source":"Union européenne - SOeS, CORINE Land Cover, 2006."}},
{"type":"Feature","geometry":{"type":"LineString","coordinates":[[4.3965871,44.2957831],[4.395064,44.2951214],[4.3952621,44.2942013],[4.3948451,44.2922932],[4.3957113,44.2906117],[4.3970898,44.2902518],[4.3994498,44.2913744],[4.4004324,44.2896895],[4.4022838,44.2895714],[4.4046135,44.2898602],[4.4061108,44.2895823],[4.4067696,44.2917354],[4.4075397,44.2939932],[4.4075549,44.2944101],[4.4090859,44.2950478],[4.4089216,44.296882600000007],[4.4098913,44.2980313],[4.4111664,44.2980072],[4.4127376,44.2965606],[4.413614,44.2949373],[4.4163603,44.2941599],[4.4193457,44.2933531],[4.4195381,44.2922667],[4.4176682,44.2918862],[4.4160828,44.2929159],[4.4142856,44.2936518],[4.4129336,44.2942054],[4.4128834,44.2942259],[4.4109161,44.2943464],[4.4092785,44.2939603],[4.4094336,44.291875],[4.4093756,44.2902941],[4.4105286,44.2901058],[4.4103823,44.2892754],[4.4091013,44.2891333],[4.4085947,44.2879758],[4.4073016,44.287501],[4.4068597,44.2849267],[4.4081193,44.2844868],[4.4093627,44.2836301],[4.4101623,44.2832821],[4.4102138,44.2815316],[4.41172,44.281503],[4.4118939,44.2830829],[4.4138093,44.2847117],[4.4136107,44.2856319],[4.4117633,44.2858333],[4.4118153,44.2872491],[4.4139134,44.2875421],[4.4162247,44.2873318],[4.4171822,44.2881467],[4.41936,44.2874386],[4.4182431,44.2854606],[4.4177241,44.2839717],[4.4165076,44.2824117],[4.4176229,44.2812245],[4.4171016,44.2796513],[4.4153632,44.2796843],[4.4139576,44.279295],[4.413113,44.2783947],[4.4138963,44.2776298],[4.4150889,44.2785235],[4.4171867,44.2788165],[4.4189427,44.2792834],[4.4191197,44.2777801],[4.4175891,44.2771436],[4.4157167,44.2766789],[4.4172894,44.2753166],[4.4183233,44.2750473],[4.4207774,44.275583],[4.4217355,44.2763979],[4.4239367,44.2763559],[4.4262628,44.2765611],[4.4273193,44.2766051],[4.4267662,44.2745569],[4.4266954,44.2726434],[4.4267433,44.2708097],[4.4266738,44.2691253],[4.4250867,44.269791],[4.4234696,44.2705065],[4.4224754,44.2710737],[4.4217562,44.271177],[4.4206531,44.2719806],[4.4205957,44.2735637],[4.4185042,44.2734371],[4.4184674,44.2724382],[4.4154669,44.2728281],[4.4140223,44.2745219],[4.4127722,44.2752124],[4.4108155,44.2755823],[4.4079916,44.277635],[4.4087265,44.2787038],[4.4088766,44.2796174],[4.4080863,44.2802159],[4.4063212,44.2794993],[4.405361,44.2786011],[4.4047376,44.2777176],[4.4037392,44.2781918],[4.4035687,44.2798614],[4.4024615,44.281299],[4.4008548,44.2817454],[4.3987661,44.2817016],[4.3972933,44.2826457],[4.3958816,44.2820887],[4.3964208,44.2809958],[4.3959524,44.2807223],[4.3947625,44.2800275],[4.3923327,44.2801564],[4.3907985,44.2794352],[4.3923606,44.2777407],[4.3911654,44.2767636],[4.3893442,44.2779841],[4.3888841,44.2790472],[4.3890128,44.2794282],[4.388394,44.279566],[4.3886326,44.2798391],[4.3876016,44.2805243],[4.38713,44.2802631],[4.3867978,44.2805652],[4.3864555,44.2803066],[4.3863062,44.2808122],[4.3862213,44.2810848],[4.3858895,44.2810777],[4.385677,44.2810732],[4.385579,44.2812878],[4.3870257,44.2813616],[4.3875106,44.281936],[4.386717,44.2824501],[4.3875711,44.2836012],[4.3894003,44.2829001],[4.3898822,44.2833903],[4.3892263,44.2844854],[4.3899397,44.2849724],[4.3903322,44.285178],[4.3897065,44.2858444],[4.3888125,44.2863327],[4.3878795,44.2869488],[4.3876652,44.2871876],[4.3877524,44.2885957],[4.385251,44.2899749],[4.3855278,44.2912189],[4.3843971,44.2918743],[4.3849965,44.2925613],[4.3861829,44.293289],[4.3868109,44.2946108],[4.3888971,44.2945716],[4.3913093,44.2939428],[4.3916847,44.2946857],[4.3924958,44.2946705],[4.3936424,44.2974812],[4.3957741,44.2986903],[4.397165,44.2986641],[4.3978939,44.2995668],[4.3991704,44.299816],[4.3994782,44.2987274],[4.3987493,44.2978247],[4.3966114,44.2964494],[4.3965871,44.2957831]]},"properties":{"source":"Union européenne - SOeS, CORINE Land Cover, 2006."}},
{"type":"Feature","geometry":{"type":"LineString","coordinates":[[4.3981246,44.2836524],[4.3957607,44.2856129],[4.3973426,44.287133],[4.3968842,44.2875264],[4.396587,44.2872494],[4.3958463,44.2876381],[4.3953376,44.2871871],[4.3940349,44.2875143],[4.3943806,44.2886247],[4.3964726,44.2886015],[4.3967053,44.2892594],[4.3987616,44.2883886],[4.3993809,44.2862935],[4.4001585,44.2853636],[4.3981246,44.2836524]]},"properties":{"CLC:code":"311","CLC:id":"FR-207287","CLC:year":"2006","landuse":"forest","leaf_type":"broadleaved","source":"Union européenne - SOeS, CORINE Land Cover, 2006."}},
{"type":"Feature","geometry":{"type":"LineString","coordinates":[[4.3208823,44.2814989],[4.3182083,44.2812978],[4.3177796,44.2823051],[4.3182988,44.2838788],[4.319701,44.2841862],[4.3215495,44.2839863],[4.3237276,44.28328],[4.3248358,44.2831496],[4.3270765,44.2828863],[4.3273519,44.2841304],[4.32816,44.2840325],[4.3283387,44.2825293],[4.3292574,44.282263],[4.329332,44.2810957],[4.3303745,44.2810767],[4.3304597,44.2834902],[4.3312049,44.2848934],[4.3310205,44.2862291],[4.332206,44.2869574],[4.3337565,44.2881783],[4.3347114,44.2881338],[4.3349898,44.2891699],[4.3354617,44.289412],[4.3375782,44.2893733],[4.3388226,44.2893505],[4.3395416,44.290003],[4.339108,44.2908441],[4.3398418,44.2919134],[4.3426262,44.2919456],[4.3439122,44.2922559],[4.344281,44.2928316],[4.3467085,44.2926206],[4.3475204,44.2926057],[4.3483819,44.2940054],[4.3497609,44.2936472],[4.3507353,44.2949617],[4.3522181,44.2942687],[4.349939,44.2921452],[4.3493416,44.2916558],[4.346664,44.2913722],[4.3462812,44.2903797],[4.3475561,44.2903563],[4.3473989,44.2891932],[4.3459786,44.2883861],[4.3444655,44.2882475],[4.3416099,44.2894659],[4.3399493,44.2884135],[4.3390136,44.2881799],[4.3378486,44.2880349],[4.3370693,44.287777],[4.3370908,44.2873674],[4.3368291,44.2865401],[4.335412,44.2858161],[4.3345479,44.284332],[4.3337222,44.2839311],[4.3322964,44.2829575],[4.3320325,44.282046],[4.333628,44.2812669],[4.3349869,44.281307],[4.3353694,44.2813183],[4.3358618,44.2821425],[4.3372523,44.282117],[4.3388987,44.2827537],[4.3383546,44.2837632],[4.3395483,44.2847409],[4.3419732,44.2844468],[4.3442402,44.2829885],[4.3446596,44.2817317],[4.3467898,44.2829417],[4.3448434,44.2836442],[4.3437199,44.2846644],[4.3438601,44.2853274],[4.3449348,44.2859838],[4.346112,44.2867028],[4.3480792,44.2865834],[4.3487291,44.2885706],[4.3510533,44.2886942],[4.3530027,44.2880747],[4.3519297,44.2872625],[4.3507082,44.2855355],[4.3503284,44.2846261],[4.3483197,44.2835803],[4.3495441,44.2821411],[4.3482248,44.2809162],[4.3456281,44.2796316],[4.3453376,44.2797964],[4.3443069,44.2805036],[4.3430528,44.281109],[4.3423753,44.2816218],[4.3424197,44.2828702],[4.3407999,44.282983],[4.3407585,44.2818179],[4.3392405,44.2815129],[4.3374851,44.2810446],[4.3374364,44.2801382],[4.3374554,44.2795656],[4.3354782,44.2795703],[4.3352834,44.2784689],[4.3340364,44.2786094],[4.3331156,44.2787926],[4.3322322,44.2800579],[4.3304946,44.2800896],[4.3301172,44.2792633],[4.328866,44.2799529],[4.3274102,44.2807203],[4.3268363,44.2813186],[4.3265157,44.2816529],[4.3248988,44.2818487],[4.3239867,44.2822813],[4.3214372,44.2823276],[4.3208823,44.2814989]]},"properties":{"CLC:code":"321","CLC:id":"FR-207117","CLC:year":"2006","natural":"grassland","source":"Union européenne - SOeS, CORINE Land Cover, 2006."}},
{"type":"Feature","geometry":{"type":"LineString","coordinates":[[4.4073163,44.2330437],[4.4072974,44.2330796],[4.40727,44.2330234],[4.4072355,44.2329591],[4.4071853,44.232886],[4.407109,44.2328039],[4.4070357,44.2327354],[4.4069643,44.2326861],[4.4068802,44.2326526],[4.4067939,44.2326405],[4.4067074,44.2326501],[4.4066225,44.2326775],[4.4065648,44.2327127],[4.4064617,44.232708],[4.4065918,44.2326545],[4.406692,44.2326234],[4.4067642,44.2326123],[4.4068359,44.2326149],[4.4069019,44.2326341],[4.4069734,44.2326655],[4.4070363,44.2327001],[4.4070886,44.2327446],[4.4071358,44.2327891],[4.4071926,44.2328434],[4.4072569,44.2329213],[4.4072889,44.2329801],[4.4073163,44.2330437]]},"properties":{"natural":"water","source":"cadastre-dgi-fr source : Direction Générale des Impôts - Cadastre. Mise à jour : 2010","water":"ditch"}},
{"type":"Feature","geometry":{"type":"LineString","coordinates":[[4.3712652,44.2680366],[4.370846,44.2681202],[4.3707469,44.2680691],[4.3707109,44.2680189],[4.3707784,44.2679378],[4.3708921,44.2679189],[4.3712461,44.2678701],[4.3712652,44.2680366]]},"properties":{"leisure":"sports_centre","sport":"swimming"}},
{"type":"Feature","geometry":{"type":"LineString","coordinates":[[4.3707823,44.2679495],[4.3707521,44.2679991],[4.3707969,44.2680173],[4.3708318,44.2679651],[4.3707823,44.2679495]]},"properties":{"leisure":"swimming_pool","name":"Piscine Enfants"}},
{"type":"Feature","geometry":{"type":"LineString","coordinates":[[4.3710218,44.2678588],[4.3710041,44.2677292],[4.3712175,44.2676771],[4.3712683,44.2678181],[4.3710218,44.2678588]]},"properties":{"leisure":"playground"}},
{"type":"Feature","geometry":{"type":"LineString","coordinates":[[4.3185399,44.2423035],[4.3184002,44.2422219],[4.3182062,44.2420533],[4.3181285,44.2418939],[4.3179474,44.2417382],[4.3177482,44.2416511],[4.317461,44.2415955],[4.3172825,44.2415547],[4.3171118,44.2414064],[4.3169617,44.2412989]]},"properties":{"natural":"cliff"}},
{"type":"Feature","geometry":{"type":"LineString","coordinates":[[4.3655069,44.2274675],[4.3655853,44.227421],[4.3656908,44.2273822],[4.3657746,44.2273687],[4.3658936,44.2273648],[4.3659504,44.2273861],[4.3659585,44.2274287],[4.3658909,44.2274869],[4.3657855,44.2275237],[4.3656746,44.227545],[4.365561,44.2275392],[4.3654853,44.2275159],[4.3655069,44.2274675]]},"properties":{"name":"Lac de Trépadone","natural":"water"}},
{"type":"Feature","geometry":{"type":"LineString","coordinates":[[4.4461578,44.2408502],[4.4459996,44.2410281],[4.4463039,44.2412228],[4.4464588,44.2413926],[4.4467489,44.2415654],[4.4471679,44.2417984],[4.4474975,44.2419123],[4.4476071,44.2419421],[4.4476944,44.2419792],[4.4478577,44.2420774],[4.4479889,44.2421077],[4.4481712,44.2421129],[4.4482486,44.242224],[4.4485846,44.2423485],[4.4487263,44.2424953],[4.4492255,44.2428913],[4.449466,44.2436149],[4.4494496,44.2437886],[4.4493927,44.2443917],[4.4491514,44.244746],[4.4489065,44.2451255],[4.4487897,44.2454663],[4.4487472,44.2459283],[4.4489122,44.2462007],[4.4489293,44.2465741],[4.448848,44.2477361],[4.4485234,44.2487958],[4.4482546,44.2489678],[4.447623,44.2491939],[4.4471854,44.2493217],[4.4467258,44.2493093],[4.44505,44.2494111],[4.4440186,44.2496152],[4.4426588,44.25057],[4.4417489,44.2520008],[4.4416688,44.2520813],[4.4414712,44.25228],[4.4413002,44.2526949],[4.4410676,44.2536835],[4.4408418,44.2541325],[4.440552,44.2547018],[4.4405258,44.2552386],[4.4403407,44.2558802],[4.4401829,44.2565036],[4.4399008,44.2572105],[4.4384663,44.2609372],[4.4381471,44.2618892],[4.437258,44.262868],[4.4364867,44.263226],[4.4355583,44.2634073],[4.4345076,44.2635878],[4.43406,44.2635644],[4.433603,44.2637436],[4.4326969,44.2641155],[4.431695,44.2643937],[4.4306409,44.2641912],[4.43047,44.2634966],[4.4304549,44.2632634],[4.4304077,44.262531],[4.4303627,44.2618334],[4.4304397,44.2609121],[4.4305833,44.2599452],[4.4306359,44.2593208],[4.4305419,44.2583034],[4.4301037,44.2574801],[4.4292554,44.2568141],[4.427046,44.2564745],[4.4244249,44.2564874],[4.4236324,44.2566579],[4.4213695,44.2578012],[4.4204176,44.2583382],[4.4187868,44.2594872],[4.4185622,44.2597049],[4.4183769,44.2599737],[4.4185703,44.2610246],[4.4187787,44.261676],[4.4188005,44.2617045],[4.4192432,44.2623764],[4.4192894,44.262497],[4.4194168,44.2625594],[4.4194664,44.2626987],[4.4194944,44.2631648],[4.4194141,44.2635669],[4.419102,44.2639539],[4.4190578,44.2644255],[4.4198222,44.2658],[4.4200905,44.2656771],[4.4195942,44.2649172],[4.4193343,44.2642782],[4.419412,44.2640586],[4.4198688,44.2634049],[4.4199355,44.2628648],[4.4199363,44.2622532],[4.4198088,44.2620129],[4.4190685,44.2610448],[4.4190028,44.2605301],[4.4193265,44.2595661],[4.4217505,44.2580659],[4.4222501,44.2578299],[4.4244555,44.256788],[4.4272251,44.25677],[4.4294179,44.2573312],[4.4299778,44.2579259],[4.4300978,44.2584323],[4.4301786,44.2596401],[4.430078,44.2610454],[4.42985,44.2615853],[4.4299976,44.2639887],[4.430645,44.2645845],[4.4320719,44.2645868],[4.4331066,44.2642219],[4.4335337,44.2640713],[4.4342265,44.2638669],[4.434997,44.2638363],[4.4360666,44.2636334],[4.4370216,44.263423],[4.4387288,44.2621551],[4.4393556,44.2598761],[4.440203,44.2579955],[4.4405003,44.2571001],[4.4408186,44.2561416],[4.4410554,44.254719],[4.4416115,44.2534495],[4.4420167,44.2522455],[4.4423237,44.2518406],[4.4429936,44.2512088],[4.443601,44.250607],[4.4440245,44.250233],[4.4443376,44.2499057],[4.4449193,44.2497449],[4.445795,44.2497112],[4.4465701,44.2497738],[4.4470286,44.2497942],[4.4475483,44.2497526],[4.4481366,44.2496351],[4.4486151,44.2495025],[4.4491763,44.2489718],[4.4497692,44.247266],[4.4497802,44.2464911],[4.4496589,44.2460531],[4.4498231,44.244707],[4.4499575,44.2442318],[4.450107,44.2436751],[4.4499148,44.2434054],[4.4498654,44.2429617],[4.4496185,44.2427525],[4.4494334,44.2425485],[4.4493309,44.2423893],[4.4490475,44.2422582],[4.4488324,44.2420424],[4.4484223,44.2419465],[4.4478754,44.2418731],[4.4470091,44.2413706],[4.4461578,44.2408502]]},"properties":{"natural":"water","water":"river"}},
{"type":"Feature","geometry":{"type":"LineString","coordinates":[[4.2995787,44.2438358],[4.2982926,44.2424285],[4.2978108,44.2418403],[4.2980415,44.2417327],[4.2987822,44.2424859],[4.2996564,44.2433748],[4.300164,44.2439284],[4.3002905,44.2440416],[4.30038,44.2441227],[4.3004801,44.244234],[4.3005117,44.2443114],[4.3005907,44.2443944],[4.3006434,44.2444322],[4.3006961,44.2445058],[4.300812,44.2445982],[4.3009727,44.2446567],[4.3011412,44.2447378],[4.3012545,44.2448473],[4.3013809,44.2449548],[4.3014889,44.2451209],[4.30156,44.245219],[4.3016549,44.2452907],[4.3018076,44.2453907],[4.3019393,44.2454718],[4.3020789,44.2455077],[4.302161,44.2455182],[4.3022554,44.2455303],[4.302474,44.245553],[4.3027006,44.2455945],[4.302856,44.2456115],[4.3030035,44.2456247],[4.3031404,44.2456266],[4.3032985,44.2456379],[4.3035856,44.2456851],[4.3038516,44.245719],[4.3040755,44.245736],[4.3044706,44.2457643],[4.3047076,44.2457964],[4.3048841,44.2458002],[4.3051185,44.2457756],[4.3052792,44.2457662],[4.3054452,44.2457379],[4.3056849,44.245702],[4.306022,44.2456473],[4.306238,44.245602],[4.3064487,44.2455417],[4.30672,44.245453],[4.3069992,44.2453756],[4.3072705,44.2453115],[4.3075418,44.2452567],[4.3078157,44.2451945],[4.3082688,44.2450586],[4.3084742,44.245002],[4.3087482,44.2449341],[4.3091064,44.2448529],[4.3093434,44.2447982],[4.3096832,44.2446869],[4.3098544,44.2446284],[4.3100572,44.2445586],[4.3101784,44.2445171],[4.3102469,44.2444341],[4.3102785,44.2443699],[4.3103285,44.244302],[4.3104471,44.2442416],[4.310642,44.2441265],[4.3108053,44.2440567],[4.3110107,44.2439491],[4.3111635,44.2438284],[4.3113242,44.2437472],[4.3115244,44.2436283],[4.3116455,44.2434774],[4.3118009,44.2433264],[4.3119405,44.2431849],[4.3121328,44.2430208],[4.3123409,44.2429],[4.3125068,44.2427736],[4.3127255,44.2425962],[4.3127834,44.2425],[4.312894,44.2424094],[4.3130047,44.2423056],[4.313039,44.242292],[4.3131864,44.2422169],[4.3133998,44.2420622],[4.3135841,44.2419508],[4.3137553,44.2418735],[4.3140082,44.241815],[4.3143006,44.2417791],[4.3145956,44.2417716],[4.3149117,44.2417848],[4.3151329,44.241764],[4.3154068,44.2417433],[4.3159758,44.2417263],[4.316413,44.2416886],[4.3167212,44.2416867],[4.3170741,44.2416791],[4.3173059,44.2416716],[4.317572,44.2416923],[4.3177748,44.241764],[4.3178775,44.2418093],[4.3179829,44.241881],[4.3180724,44.2419773],[4.3181146,44.2420622],[4.3181725,44.2421377],[4.3182463,44.2422207],[4.3183411,44.2422697],[4.3184254,44.2423169],[4.3184833,44.2423943],[4.3185202,44.2424905],[4.318586,44.2426037],[4.3186308,44.2427075],[4.318673,44.2429113],[4.3187415,44.2430906],[4.3187731,44.2431717],[4.31886,44.2432604],[4.3189732,44.2433698],[4.3190733,44.2434887],[4.3191629,44.2435887],[4.3192972,44.2437699],[4.3193736,44.2439076],[4.3194474,44.2441001],[4.3197115,44.2446437],[4.3191023,44.2441737],[4.3189943,44.2440057],[4.3188573,44.2437831],[4.3187283,44.2436548],[4.3185781,44.2435302],[4.3184017,44.2433906],[4.3183121,44.2432698],[4.3182199,44.2431623],[4.3181198,44.2429547],[4.3180382,44.242817],[4.3179144,44.2427],[4.3178275,44.2426226],[4.3178038,44.2425283],[4.317788,44.2424396],[4.3177458,44.2423509],[4.3177274,44.2422565],[4.317671,44.2421862],[4.3176194,44.2421471],[4.3174429,44.2420584],[4.3172243,44.2420112],[4.3170531,44.2420263],[4.3169398,44.2420452],[4.3166843,44.2420829],[4.3165579,44.2420867],[4.3164157,44.2420735],[4.3161444,44.2420697],[4.3159547,44.2420754],[4.3157677,44.2420924],[4.3155596,44.2421094],[4.3153041,44.242098],[4.3150618,44.2420886],[4.3147563,44.2420773],[4.3145561,44.2420452],[4.3143348,44.2420622],[4.3141504,44.2421471],[4.313916,44.2422339],[4.3137632,44.2423018],[4.3136026,44.2423924],[4.3133919,44.242466],[4.3131469,44.2426],[4.3129757,44.2427396],[4.3128361,44.242883],[4.3127439,44.242966],[4.3125595,44.2430811],[4.3124331,44.2431585],[4.3123672,44.2432283],[4.3122276,44.2433396],[4.3121249,44.2434302],[4.3119879,44.2435774],[4.3117904,44.2437548],[4.3116324,44.2439057],[4.3114585,44.244068],[4.3112557,44.2442189],[4.3110371,44.2443284],[4.3107948,44.2444208],[4.3106394,44.2444793],[4.3105077,44.2444982],[4.3103865,44.2445718],[4.3101995,44.2447114],[4.3100493,44.2448171],[4.3098755,44.2448888],[4.309512,44.2450077],[4.3092644,44.2450888],[4.3091222,44.2451322],[4.3088272,44.2452077],[4.3085032,44.2452869],[4.308195,44.245353],[4.3078236,44.2454454],[4.3075497,44.2455152],[4.3071546,44.2456152],[4.3068096,44.2457171],[4.3065093,44.2458115],[4.3061274,44.2458794],[4.3057586,44.2459266],[4.3053846,44.2459775],[4.3050685,44.2460058],[4.3048051,44.2460134],[4.3045075,44.2460266],[4.3041967,44.2460153],[4.3039659,44.246062],[4.3034486,44.2459247],[4.3034092,44.2458154],[4.3029866,44.2457898],[4.3026637,44.245836],[4.3024884,44.2459375],[4.30205,44.2457681],[4.3017813,44.245702],[4.3015548,44.2456945],[4.3014132,44.2457197],[4.30092,44.2455869],[4.3007435,44.2455303],[4.3006355,44.2454454],[4.3005723,44.2452982],[4.300517,44.2451228],[4.3004327,44.2449869],[4.3003537,44.2448039],[4.3002668,44.2447152],[4.3001561,44.244568],[4.3000034,44.2443095],[4.2999085,44.2441661],[4.2995787,44.2438358]]},"properties":{"natural":"water","water":"river"}},
{"type":"Feature","geometry":{"type":"LineString","coordinates":[[4.350162,44.2247861],[4.3501804,44.22426],[4.3502373,44.2242613],[4.3504537,44.2242689],[4.3506848,44.2242771],[4.3507223,44.2242784],[4.3507065,44.2245843],[4.3507467,44.2245862],[4.3507441,44.2246458],[4.3507892,44.2246482],[4.3507785,44.2247674],[4.3507356,44.2247693],[4.3507276,44.2249192],[4.3505693,44.2249173],[4.350572,44.2248289],[4.3501969,44.2248111],[4.350162,44.2247861]]},"properties":{"leisure":"sports_centre","name":"Piscine municipale","sport":"swimming"}},
{"type":"Feature","geometry":{"type":"LineString","coordinates":[[4.3503741,44.2247387],[4.3505458,44.2247466],[4.3505661,44.2245183],[4.3503944,44.2245104],[4.3503741,44.2247387]]},"properties":{"covered":"no","leisure":"swimming_pool","sport":"swimming"}},
{"type":"Feature","geometry":{"type":"LineString","coordinates":[[4.350395,44.2244892],[4.3504056,44.2243846],[4.3505713,44.2243932],[4.3505606,44.2244978],[4.350395,44.2244892]]},"properties":{"covered":"no","leisure":"swimming_pool","sport":"swimming"}},
{"type":"Feature","geometry":{"type":"LineString","coordinates":[[4.3574578,44.2656194],[4.3574693,44.265693],[4.3576705,44.2656769],[4.357659,44.2656033],[4.3574578,44.2656194]]},"properties":{"access":"customers","leisure":"swimming_pool"}},
{"type":"Feature","geometry":{"type":"LineString","coordinates":[[4.3575772,44.2652244],[4.3575349,44.2652371],[4.357514,44.2652497],[4.3574691,44.2652781],[4.3574946,44.2652958],[4.3575602,44.265277],[4.3576079,44.2652666],[4.3576373,44.2652597],[4.3576231,44.2652353],[4.3576046,44.2652227],[4.3575772,44.2652244]]},"properties":{"access":"customers","leisure":"swimming_pool"}},
{"type":"Feature","geometry":{"type":"LineString","coordinates":[[4.3579783,44.2666111],[4.3582489,44.2668742],[4.3584124,44.2667956],[4.358143,44.2665298],[4.3580891,44.2665564],[4.3579783,44.2666111]]},"properties":{"leisure":"pitch","source":"BDTopo IGN","sport":"tennis"}},
{"type":"Feature","geometry":{"type":"LineString","coordinates":[[4.3572025,44.2655107],[4.3573232,44.2655059],[4.3573501,44.2654876],[4.3573908,44.2654724],[4.3574322,44.2654882],[4.3574478,44.2654862],[4.3574392,44.2653979],[4.3574195,44.2653965],[4.3574497,44.2653725],[4.3572767,44.2653614],[4.3572747,44.2653869],[4.3572658,44.2653887],[4.3571851,44.265447],[4.3572025,44.2655107]]},"properties":{"access":"customers","leisure":"swimming_pool"}},
{"type":"Feature","geometry":{"type":"LineString","coordinates":[[4.4131806,44.2732337],[4.4134113,44.2732682],[4.4135856,44.2732261],[4.4134086,44.2729764],[4.413296,44.2729995],[4.4131136,44.2729611],[4.4129151,44.2729073],[4.4127051,44.2727525],[4.412612,44.2726345],[4.4121507,44.2718701],[4.4120353,44.2717011],[4.4119916,44.2715156],[4.4119951,44.2712709],[4.4118073,44.2710577],[4.411743,44.2707389],[4.4115096,44.2703279],[4.4113058,44.2700341],[4.4109142,44.2695885],[4.4107747,44.2694272],[4.410908,44.2697103],[4.4108122,44.2696653],[4.4102812,44.2690892],[4.4100344,44.2689739],[4.409852,44.2688241],[4.4097064,44.2682852],[4.4093148,44.2677166],[4.4090036,44.2674247],[4.4083009,44.2669829],[4.407743,44.2669138],[4.4068471,44.2669637],[4.4059995,44.2671212],[4.4056628,44.2673641],[4.4052593,44.2676552],[4.4041435,44.2682967],[4.4030974,44.2686232],[4.4021425,44.268919],[4.4015042,44.2689997],[4.4011823,44.2689574],[4.4013325,44.2688767],[4.4006727,44.2688191],[4.4002489,44.2687692],[4.3999646,44.26875],[4.3991921,44.2688306],[4.3989453,44.2688114],[4.39894,44.2688614],[4.3995086,44.2689075],[4.4011984,44.2690496],[4.4018797,44.2690534],[4.4025019,44.2689843],[4.4038967,44.2686386],[4.4048247,44.2683658],[4.4048194,44.2682775],[4.4045994,44.2683236],[4.4046209,44.2681853],[4.4060103,44.2674324],[4.4062141,44.2673095],[4.4064233,44.267248],[4.4067506,44.2672249],[4.4071046,44.2672096],[4.407228,44.2672288],[4.4071422,44.2672826],[4.4065735,44.2674016],[4.4070081,44.2673786],[4.4072548,44.2672941],[4.4076947,44.2672173],[4.4080702,44.2671981],[4.408376,44.267271],[4.4089017,44.2676821],[4.4092504,44.2684273],[4.4093925,44.2686395],[4.4096259,44.2689881],[4.4099915,44.2692005],[4.4104796,44.2697806],[4.4109624,44.2703952],[4.4112414,44.27081],[4.4114023,44.2709522],[4.411482,44.2710816],[4.4115195,44.2712506],[4.4113326,44.2710635],[4.4115249,44.2716194],[4.4119862,44.2724029],[4.4123143,44.2728996],[4.4127963,44.2731635],[4.4131806,44.2732337]]},"properties":{"natural":"water","water":"stream"}},
{"type":"Feature","geometry":{"type":"LineString","coordinates":[[4.4052754,44.2675399],[4.4033388,44.2682813],[4.4022552,44.2684849],[4.401134,44.2685886],[4.4005278,44.2685387],[4.3993369,44.2683889],[4.3983606,44.2681315],[4.3974272,44.2679126],[4.3967084,44.2674785],[4.3963597,44.2672365],[4.3962202,44.267029],[4.3965689,44.2665373],[4.3960593,44.266933],[4.3959305,44.2673363],[4.3960378,44.267563],[4.3963114,44.2678088],[4.3967567,44.2679855],[4.3972663,44.2681699],[4.3977759,44.2682736],[4.3979476,44.2684004],[4.3979261,44.2684926],[4.3977866,44.2685233],[4.3980548,44.2686309],[4.3984947,44.2686424],[4.3987361,44.2687461],[4.3989453,44.2688114],[4.3991921,44.2688306],[4.3999646,44.26875],[4.4002489,44.2687692],[4.4006727,44.2688191],[4.4013325,44.2688767],[4.4011823,44.2689574],[4.4015042,44.2689997],[4.4021425,44.268919],[4.4041435,44.2682967],[4.4052593,44.2676552],[4.4056628,44.2673641],[4.4052754,44.2675399]]},"properties":{"natural":"shingle"}},
{"type":"Feature","geometry":{"type":"LineString","coordinates":[[4.4209375,44.266817],[4.4209287,44.2679548],[4.4200659,44.2691621],[4.4206291,44.2689816],[4.4207203,44.2688472],[4.4210958,44.2680289],[4.4211226,44.2675641],[4.4210958,44.2666845],[4.4208759,44.2665231],[4.4209375,44.266817]]},"properties":{"natural":"beach"}},
{"type":"Feature","geometry":{"type":"LineString","coordinates":[[4.4049857,44.2682007],[4.4053129,44.2680969],[4.4060317,44.2679279],[4.4067774,44.2678127],[4.4073997,44.2678242],[4.4080273,44.267974],[4.408494,44.2683159],[4.4088542,44.2685322],[4.4093925,44.2686395],[4.4092504,44.2684273],[4.4089017,44.2676821],[4.408376,44.267271],[4.4080702,44.2671981],[4.4076947,44.2672173],[4.4072548,44.2672941],[4.4070081,44.2673786],[4.4065735,44.2674016],[4.4071422,44.2672826],[4.407228,44.2672288],[4.4071046,44.2672096],[4.4067506,44.2672249],[4.4064233,44.267248],[4.4062141,44.2673095],[4.4060103,44.2674324],[4.4046209,44.2681853],[4.4045994,44.2683236],[4.4048194,44.2682775],[4.4049857,44.2682007]]},"properties":{"natural":"shingle"}},
{"type":"Feature","geometry":{"type":"LineString","coordinates":[[4.416992,44.2717626],[4.4176626,44.2713209],[4.4175714,44.2712902],[4.4173892,44.2712783],[4.4172334,44.2713324],[4.4168311,44.2714515],[4.4166809,44.2716282],[4.4165522,44.2719854],[4.416992,44.2717626]]},"properties":{"natural":"beach"}},
{"type":"Feature","geometry":{"type":"LineString","coordinates":[[4.412612,44.2726345],[4.4127051,44.2727525],[4.4129151,44.2729073],[4.4131136,44.2729611],[4.413296,44.2729995],[4.4134086,44.2729764],[4.4137037,44.2729342],[4.413988,44.273034],[4.4142286,44.2730559],[4.41446,44.2730225],[4.4146263,44.2729534],[4.414798,44.2727805],[4.4149177,44.2726032],[4.4133764,44.2728305],[4.4130933,44.27285],[4.412612,44.2726345]]},"properties":{"natural":"beach"}},
{"type":"Feature","geometry":{"type":"LineString","coordinates":[[4.3989453,44.2688114],[4.39894,44.2688614],[4.3984904,44.2687703],[4.3979769,44.2686746],[4.3976172,44.2685854],[4.3970696,44.2684109],[4.3965138,44.2682086],[4.395979,44.2679003],[4.3957485,44.2677104],[4.3956354,44.2674426],[4.395605,44.2672059],[4.3957355,44.2668509],[4.3961007,44.2664368],[4.3965225,44.266032],[4.3967617,44.2659634],[4.3970139,44.2657548],[4.3973074,44.2656223],[4.3975509,44.2653629],[4.3975884,44.2649605],[4.3973574,44.2644105],[4.3973136,44.2642003],[4.3974448,44.2635921],[4.3976496,44.2633446],[4.3976883,44.2635027],[4.3976446,44.2638381],[4.3974885,44.2642718],[4.397526,44.2644328],[4.3976758,44.2646654],[4.3977882,44.2649247],[4.3980005,44.2646519],[4.3982441,44.2645401],[4.3980567,44.2648442],[4.3980005,44.2651304],[4.3976009,44.265676],[4.396964,44.2661768],[4.3965689,44.2665373],[4.3960593,44.266933],[4.3959305,44.2673363],[4.3960378,44.267563],[4.3963114,44.2678088],[4.3967567,44.2679855],[4.3972663,44.2681699],[4.3977759,44.2682736],[4.3979476,44.2684004],[4.3979261,44.2684926],[4.3977866,44.2685233],[4.3980548,44.2686309],[4.3984947,44.2686424],[4.3987361,44.2687461],[4.3989453,44.2688114]]},"properties":{"natural":"water","water":"stream"}},
{"type":"Feature","geometry":{"type":"LineString","coordinates":[[4.38685,44.2656049],[4.3869399,44.2653942],[4.3872179,44.2651373],[4.3873345,44.2648548],[4.3877021,44.2642865],[4.3879622,44.2640296],[4.3885047,44.2636796],[4.3889127,44.2636159],[4.3894417,44.2636604],[4.3900829,44.2636732],[4.3903295,44.2636764],[4.3904505,44.2637792],[4.3908675,44.2637792],[4.3913696,44.2636668],[4.3917238,44.2634581],[4.3922204,44.263124],[4.3925057,44.2627789],[4.3925691,44.262075],[4.3925121,44.2615801],[4.3924296,44.2611896],[4.3923852,44.2612622],[4.3923441,44.261171],[4.3922775,44.2608944],[4.3924043,44.2603676],[4.3927086,44.2601224],[4.3928735,44.2600861],[4.3929939,44.2599817],[4.3932095,44.2599226],[4.3938436,44.2598],[4.3943065,44.2598273],[4.3946854,44.2600001],[4.3948041,44.2600942],[4.3957434,44.2604599],[4.3962253,44.2608232],[4.3965486,44.2609958],[4.3969443,44.2611396],[4.3969735,44.2611502],[4.3974236,44.2615498],[4.397728,44.2620493],[4.3978358,44.2622945],[4.3978421,44.2625351],[4.3976999,44.2627252],[4.3976075,44.2625306],[4.397468,44.2621855],[4.3973476,44.2621764],[4.397151,44.2618131],[4.3967452,44.2613954],[4.3963204,44.2612137],[4.3959336,44.2610139],[4.3958956,44.2609049],[4.3956673,44.2609095],[4.395141,44.2607188],[4.3953376,44.2606915],[4.3950713,44.2605144],[4.3944372,44.2601648],[4.3942089,44.260083],[4.3937651,44.2600512],[4.3932832,44.260133],[4.3928964,44.260301],[4.3926365,44.2605371],[4.3926238,44.2609095],[4.3926999,44.2611093],[4.3927696,44.2611592],[4.3927886,44.2614362],[4.3928203,44.2619766],[4.3926491,44.2627849],[4.3923384,44.263248],[4.3917932,44.2636749],[4.391343,44.2639246],[4.3904489,44.2639927],[4.3897768,44.2639882],[4.3895612,44.2638883],[4.3892252,44.2637975],[4.3889335,44.2637566],[4.3886989,44.2638066],[4.3884897,44.2639519],[4.3882995,44.2640518],[4.3881536,44.2642606],[4.3879127,44.2644332],[4.3877542,44.2645853],[4.3877288,44.2647692],[4.3875196,44.2650916],[4.3874276,44.2652233],[4.3873674,44.2652074],[4.3871138,44.2654072],[4.38685,44.2656049]]},"properties":{"natural":"water","water":"stream"}},
{"type":"Feature","geometry":{"type":"LineString","coordinates":[[4.3431414,44.3022108],[4.3431989,44.3020469],[4.3433145,44.3020717],[4.3434994,44.3021113],[4.3436293,44.3021392],[4.3435734,44.3023009],[4.3434415,44.3022733],[4.3432511,44.3022334],[4.3431414,44.3022108]]},"properties":{"leisure":"pitch","lit":"yes","source":"Bing","sport":"tennis","surface":"hard"}},
{"type":"Feature","geometry":{"type":"LineString","coordinates":[[4.3420997,44.3012876],[4.3428206,44.3013007],[4.3427901,44.30216],[4.3420692,44.3021469],[4.3420997,44.3012876]]},"properties":{"leisure":"pitch","source":"Bing","sport":"soccer","surface":"grass"}},
{"type":"Feature","geometry":{"type":"LineString","coordinates":[[4.3485314,44.3071446],[4.3487352,44.3071581],[4.3487245,44.3074229],[4.3485249,44.3075882],[4.3482728,44.3074472],[4.3485314,44.3071446]]},"properties":{"leisure":"playground"}},
{"type":"Feature","geometry":{"type":"LineString","coordinates":[[4.3436672,44.3058805],[4.3435921,44.305857],[4.3435653,44.3056967],[4.343006,44.3054837],[4.3429291,44.3057039],[4.3430053,44.3059228],[4.3430955,44.3061831],[4.3431676,44.3064175],[4.3431947,44.3064885],[4.3433892,44.3064591],[4.3434532,44.3063354],[4.3435292,44.3061493],[4.3436672,44.3058805]]},"properties":{"capacity":"10","caravan_site":"motorhome_stopover","caravan_site:type":"village","fee":"no","name":"Aire de camping-car Le Pradet","ref:CD30":"225","surface":"grass","tourism":"caravan_site"}},
{"type":"Feature","geometry":{"type":"LineString","coordinates":[[4.3755491,44.2638587],[4.3756064,44.2635711],[4.3756172,44.263435],[4.3755849,44.2632142],[4.3755455,44.2629189],[4.3755168,44.2627109],[4.3754558,44.2624797],[4.375402,44.2623411],[4.3753518,44.2621767],[4.3752694,44.2620149],[4.3751618,44.2618788],[4.3750327,44.2617607],[4.3749431,44.2616862],[4.3748247,44.2616426],[4.3747351,44.2615938],[4.374649,44.2615065],[4.3745701,44.2613601],[4.374502,44.2612651],[4.3743873,44.2611546],[4.3742797,44.2611007],[4.3741936,44.2609903],[4.3741434,44.2608696],[4.3741291,44.2607309],[4.3740789,44.2606539],[4.3740072,44.2605948],[4.3739139,44.2605537],[4.3738494,44.2604972],[4.3737705,44.2603585],[4.3737454,44.2602558],[4.3737705,44.2601788],[4.3738171,44.2601043],[4.3738099,44.2600375],[4.3737633,44.2599656],[4.3737203,44.2599143],[4.3737131,44.2598449],[4.3737813,44.2597576]]},"properties":{"natural":"cliff"}},
{"type":"Feature","geometry":{"type":"LineString","coordinates":[[4.4296841,44.264862],[4.429894,44.2648835],[4.4303343,44.2648988],[4.430265,44.265015],[4.4303662,44.2651009],[4.4305086,44.2651438],[4.4306982,44.2650727],[4.4309819,44.2651314],[4.4310412,44.2651836]]},"properties":{"natural":"cliff"}},
{"type":"Feature","geometry":{"type":"LineString","coordinates":[[4.4212897,44.2720533],[4.4212537,44.2720153],[4.4213689,44.2719566],[4.421404,44.2719934],[4.4212897,44.2720533]]},"properties":{"access":"private","leisure":"swimming_pool"}},
{"type":"Feature","geometry":{"type":"LineString","coordinates":[[4.3882928,44.2797273],[4.3882458,44.2797267],[4.3882421,44.2796283],[4.3882896,44.2796263],[4.3882928,44.2797273]]},"properties":{"access":"private","leisure":"swimming_pool"}},
{"type":"Feature","geometry":{"type":"LineString","coordinates":[[4.4212302,44.2723403],[4.4211103,44.2722242],[4.4214608,44.2720385],[4.4215807,44.2721546],[4.4212302,44.2723403]]},"properties":{"access":"private","leisure":"pitch","sport":"tennis"}},
{"type":"Feature","geometry":{"type":"LineString","coordinates":[[4.3430131,44.3024946],[4.3430245,44.3022503],[4.3430817,44.3020073],[4.3436776,44.3021131],[4.3435333,44.3025861],[4.3430131,44.3024946]]},"properties":{"addr:city":"Barjac","addr:housename":"Complexe Sportif Pierre Pascal","addr:postcode":"30430","addr:street":"Route d'Alès","contact:email":"tc-barjac@orange.fr","contact:phone":"+33632258892","leisure":"sports_centre","name":"Tennis Club Barjac","ref:FR:FFT":"60300388","short_name":"TC Barjac","source":"Bing","sport":"tennis"}},
{"type":"Feature","geometry":{"type":"LineString","coordinates":[[4.3433068,44.3024153],[4.343269,44.3025147],[4.3434822,44.3025581],[4.3435189,44.3024565],[4.3433068,44.3024153]]},"properties":{"leisure":"pitch","source":"Bing","sport":"mini_tennis","surface":"hard"}},
{"type":"Feature","geometry":{"type":"LineString","coordinates":[[4.3431414,44.3022108],[4.3430852,44.3023722],[4.3432096,44.3023964],[4.3433068,44.3024153],[4.3433971,44.3024328],[4.3435189,44.3024565],[4.3435734,44.3023009],[4.3434415,44.3022733],[4.3432511,44.3022334],[4.3431414,44.3022108]]},"properties":{"leisure":"pitch","lit":"yes","source":"Bing","sport":"tennis","surface":"hard"}},
{"type":"Feature","geometry":{"type":"LineString","coordinates":[[4.3733064,44.2670835],[4.3734986,44.266963],[4.3732121,44.2667285],[4.3730198,44.266849],[4.3733064,44.2670835]]},"properties":{"leisure":"pitch","sport":"tennis"}},
{"type":"Feature","geometry":{"type":"LineString","coordinates":[[4.3592265,44.220688],[4.3587899,44.2202067],[4.3577047,44.2207124],[4.3581413,44.2211936],[4.3592265,44.220688]]},"properties":{"leisure":"pitch","source":"Bing","sport":"soccer","surface":"grass"}},
{"type":"Feature","geometry":{"type":"LineString","coordinates":[[4.3555786,44.220811],[4.3564404,44.2206165],[4.3569065,44.2216771],[4.3560446,44.2218716],[4.3555786,44.220811]]},"properties":{"leisure":"pitch","source":"Bing","sport":"soccer","surface":"grass"}},
{"type":"Feature","geometry":{"type":"LineString","coordinates":[[4.345998,44.3079015],[4.3461454,44.3080775],[4.3463969,44.3079741],[4.3463053,44.3078518],[4.3462586,44.3077895],[4.345998,44.3079015]]},"properties":{"building":"yes","heritage":"3","heritage:operator":"mhs","historic":"castle","mhs:inscription_date":"1993-08-16","name":"Château de Barjac","ref:mhs":"PA00125481","source":"Bing","source:heritage":"data.gouv.fr, Ministère de la Culture - 2016","start_date":"C17","wikidata":"Q2968440","wikipedia":"fr:Château de Barjac"}},
{"type":"Feature","geometry":{"type":"LineString","coordinates":[[4.3908334,44.2466933],[4.3909058,44.2467356],[4.3910051,44.2467375],[4.3910587,44.2466837],[4.3910507,44.2466184],[4.3909889,44.2465761],[4.3909165,44.2465607],[4.3908146,44.2466184],[4.3908334,44.2466933]]},"properties":{"name":"Aven de Peyre-Haute","natural":"cliff"}},
{"type":"Feature","geometry":{"type":"LineString","coordinates":[[4.3462285,44.2180389],[4.3466487,44.2186181],[4.346805,44.2185679],[4.3470475,44.2188807],[4.3472738,44.2187919],[4.3470475,44.218483],[4.3472684,44.2183864],[4.3470582,44.2180852],[4.3468535,44.2181663],[4.3466434,44.217869],[4.3462285,44.2180389]]},"properties":{"leisure":"pitch","sport":"tennis"}},
{"type":"Feature","geometry":{"type":"LineString","coordinates":[[4.374808,44.2649301],[4.3746971,44.2647747],[4.3746682,44.2646711],[4.3746344,44.2646089],[4.3745669,44.2645019],[4.3745331,44.2644225],[4.3745235,44.2643499],[4.3745814,44.2642671],[4.3746826,44.2642256],[4.3749816,44.2641773],[4.3752565,44.2641393]]},"properties":{"natural":"cliff"}},
{"type":"Feature","geometry":{"type":"LineString","coordinates":[[4.3643919,44.313303],[4.3643457,44.3133639],[4.3648266,44.3145369],[4.3644361,44.3146736],[4.3649766,44.3156139],[4.3651574,44.3156756],[4.366181,44.3149224],[4.3665589,44.3146512],[4.3676073,44.3144228],[4.3666885,44.3138891],[4.3666514,44.3136145],[4.3661539,44.3134065],[4.365808,44.3131128],[4.3651548,44.3134952],[4.3644935,44.3132927],[4.3643919,44.313303]]},"properties":{"addr:city":"Barjac","addr:housenumber":"2530","addr:postcode":"30430","addr:street":"Route d'Orgnac","capacity":"100","contact:phone":"+33 4 66 60 07 00","name":"Camping Koawa La Buissière","ref:CD30":"37","stars":"3","tourism":"camp_site","website":"https://www.camping-la-buissiere.fr/fr"}},
{"type":"Feature","geometry":{"type":"LineString","coordinates":[[4.3502373,44.2242613],[4.3502596,44.2239377],[4.350476,44.2239453],[4.3504537,44.2242689],[4.3502373,44.2242613]]},"properties":{"leisure":"pitch","sport":"tennis","surface":"hard"}},
{"type":"Feature","geometry":{"type":"LineString","coordinates":[[4.35072,44.2235804],[4.3509258,44.223588],[4.3509494,44.2232572],[4.3507436,44.2232497],[4.35072,44.2235804]]},"properties":{"leisure":"pitch","sport":"tennis","surface":"hard"}},
{"type":"Feature","geometry":{"type":"LineString","coordinates":[[4.3507071,44.2239535],[4.3509037,44.2239604],[4.3509085,44.2238894],[4.3509202,44.2237203],[4.3509257,44.2236398],[4.3507292,44.2236328],[4.3507235,44.2237154],[4.3507121,44.2238808],[4.3507071,44.2239535]]},"properties":{"leisure":"pitch","lit":"yes","sport":"tennis","surface":"hard"}},
{"type":"Feature","geometry":{"type":"LineString","coordinates":[[4.350476,44.2239453],[4.3507071,44.2239535],[4.3506848,44.2242771],[4.3504537,44.2242689],[4.350476,44.2239453]]},"properties":{"leisure":"pitch","sport":"tennis","surface":"hard"}},
{"type":"Feature","geometry":{"type":"LineString","coordinates":[[4.350476,44.2239453],[4.3507071,44.2239535],[4.3507121,44.2238808],[4.3507235,44.2237154],[4.3507292,44.2236328],[4.350498,44.2236247],[4.3504921,44.2237106],[4.3504808,44.2238759],[4.350476,44.2239453]]},"properties":{"leisure":"pitch","lit":"yes","sport":"tennis","surface":"hard"}},
{"type":"Feature","geometry":{"type":"LineString","coordinates":[[4.3502596,44.2239377],[4.3502817,44.223617],[4.350498,44.2236247],[4.3504921,44.2237106],[4.3504808,44.2238759],[4.350476,44.2239453],[4.3502596,44.2239377]]},"properties":{"leisure":"pitch","lit":"yes","sport":"tennis","surface":"hard"}},
{"type":"Feature","geometry":{"type":"LineString","coordinates":[[4.3502889,44.2235674],[4.3505091,44.2235757],[4.350533,44.223248],[4.3503127,44.2232398],[4.3502889,44.2235674]]},"properties":{"leisure":"pitch","sport":"tennis","surface":"hard"}},
{"type":"Feature","geometry":{"type":"LineString","coordinates":[[4.3507071,44.2239535],[4.3509037,44.2239604],[4.3508814,44.2242841],[4.3507223,44.2242784],[4.3506848,44.2242771],[4.3507071,44.2239535]]},"properties":{"leisure":"pitch","sport":"tennis","surface":"hard"}},
{"type":"Feature","geometry":{"type":"LineString","coordinates":[[4.3982441,44.2645401],[4.3983824,44.2642777],[4.3983275,44.2638258],[4.3980916,44.2626785],[4.3980093,44.2624939],[4.3978358,44.2622945],[4.3978421,44.2625351],[4.3976883,44.2635027],[4.3976446,44.2638381],[4.3974885,44.2642718],[4.397526,44.2644328],[4.3976758,44.2646654],[4.3977882,44.2649247],[4.3980005,44.2646519],[4.3982441,44.2645401]]},"properties":{"natural":"shingle"}},
{"type":"Feature","geometry":{"type":"LineString","coordinates":[[4.3903295,44.2636764],[4.3906907,44.2635416],[4.39119,44.2633215],[4.3917058,44.26263],[4.3921941,44.2618913],[4.3923852,44.2612622],[4.3924296,44.2611896],[4.3925121,44.2615801],[4.3925691,44.262075],[4.3925057,44.2627789],[4.3922204,44.263124],[4.3917238,44.2634581],[4.3913696,44.2636668],[4.3908675,44.2637792],[4.3904505,44.2637792],[4.3903295,44.2636764]]},"properties":{"natural":"shingle"}},
{"type":"Feature","geometry":{"type":"LineString","coordinates":[[4.3927696,44.2611592],[4.3930064,44.2607635],[4.3931926,44.2606384],[4.3938987,44.2605551],[4.3943798,44.2606218],[4.395141,44.2607188],[4.3953376,44.2606915],[4.3950713,44.2605144],[4.3944372,44.2601648],[4.3942089,44.260083],[4.3937651,44.2600512],[4.3932832,44.260133],[4.3928964,44.260301],[4.3926365,44.2605371],[4.3926238,44.2609095],[4.3926999,44.2611093],[4.3927696,44.2611592]]},"properties":{"natural":"shingle"}},
{"type":"Feature","geometry":{"type":"LineString","coordinates":[[4.3795248,44.2692919],[4.3803317,44.2694419],[4.3812007,44.2695808],[4.3819844,44.2696559],[4.3826711,44.269592],[4.3829582,44.2695392],[4.3836565,44.269028],[4.384157,44.2686585],[4.3844324,44.2686252],[4.3845709,44.2685953],[4.3846213,44.2687787],[4.3842683,44.2691287],[4.3836204,44.2695454],[4.3832363,44.269851],[4.3828639,44.270026],[4.3825108,44.2701121],[4.3818319,44.2700705],[4.3809279,44.2698954],[4.3800512,44.2696621],[4.3796865,44.2695454],[4.3795248,44.2692919]]},"properties":{"natural":"shingle"}},
{"type":"Feature","geometry":{"type":"LineString","coordinates":[[4.4097108,44.2677994],[4.4092228,44.267364],[4.4092914,44.2670007],[4.409017,44.2666222],[4.4085277,44.2663763],[4.4080531,44.2663067],[4.4073831,44.2663825],[4.4064597,44.2666103]]},"properties":{"natural":"cliff"}},
{"type":"Feature","geometry":{"type":"LineString","coordinates":[[4.3970139,44.2657548],[4.3970868,44.2655438],[4.3970907,44.2651993],[4.3971876,44.2647381],[4.3973574,44.2644105],[4.3975884,44.2649605],[4.3975509,44.2653629],[4.3973074,44.2656223],[4.3970139,44.2657548]]},"properties":{"natural":"shingle"}},
{"type":"Feature","geometry":{"type":"LineString","coordinates":[[4.3881536,44.2642606],[4.3884209,44.2641297],[4.3891644,44.2639431],[4.3895612,44.2638883],[4.3892252,44.2637975],[4.3889335,44.2637566],[4.3886989,44.2638066],[4.3884897,44.2639519],[4.3882995,44.2640518],[4.3881536,44.2642606]]},"properties":{"natural":"shingle"}},
{"type":"Feature","geometry":{"type":"LineString","coordinates":[[4.3214623,44.2319],[4.3214341,44.2318231],[4.3213926,44.2317684],[4.3213684,44.2317117],[4.3213094,44.2316309],[4.3212732,44.2315877],[4.3212571,44.2315608],[4.3212263,44.2315022],[4.3211941,44.2314311],[4.3211525,44.2313705],[4.3210787,44.2312927],[4.3210506,44.2312485],[4.3210305,44.2312062],[4.3210211,44.2311534],[4.3210372,44.2310678]]},"properties":{"natural":"cliff"}},
{"type":"Feature","geometry":{"type":"LineString","coordinates":[[4.360604,44.2434865],[4.360439,44.2432185],[4.3605315,44.2432127],[4.3606321,44.2432473],[4.3607649,44.2434452],[4.360604,44.2434865]]},"properties":{"leisure":"playground"}},
{"type":"Feature","geometry":{"type":"LineString","coordinates":[[4.3602479,44.2426425],[4.3603022,44.2426204],[4.3604075,44.2427429],[4.3603666,44.2427621],[4.3602479,44.2426425]]},"properties":{"leisure":"pitch","sport":"boules"}},
{"type":"Feature","geometry":{"type":"LineString","coordinates":[[4.3606884,44.2427441],[4.3604135,44.2424424],[4.3605396,44.2423367],[4.3608775,44.2426576],[4.3606884,44.2427441]]},"properties":{"leisure":"pitch","sport":"soccer"}},
{"type":"Feature","geometry":{"type":"LineString","coordinates":[[4.3603201,44.2425754],[4.3605266,44.242785],[4.3606491,44.242723],[4.3604426,44.2425135],[4.3603201,44.2425754]]},"properties":{"leisure":"pitch","sport":"basketball"}},
{"type":"Feature","geometry":{"type":"LineString","coordinates":[[4.3603148,44.2429803],[4.3604647,44.2429265],[4.3603211,44.2427208],[4.3601712,44.2427745],[4.3603148,44.2429803]]},"properties":{"description":"hard surface, no sand","leisure":"pitch","sport":"volleyball"}},
{"type":"Feature","geometry":{"type":"LineString","coordinates":[[4.3608315,44.2431862],[4.3605706,44.2428909],[4.3609444,44.2427214],[4.3612053,44.2430166],[4.3608315,44.2431862]]},"properties":{"leisure":"pitch","sport":"tennis"}},
{"type":"Feature","geometry":{"type":"LineString","coordinates":[[4.3612698,44.2434653],[4.3613433,44.2434135],[4.3613784,44.243439],[4.3613049,44.2434908],[4.3612698,44.2434653]]},"properties":{"access":"private","leisure":"swimming_pool"}},
{"type":"Feature","geometry":{"type":"LineString","coordinates":[[4.3612872,44.2436308],[4.3614538,44.2435134],[4.3615334,44.2435713],[4.3613667,44.2436887],[4.3612872,44.2436308]]},"properties":{"access":"private","leisure":"swimming_pool"}},
{"type":"Feature","geometry":{"type":"LineString","coordinates":[[4.416752,44.2724808],[4.4168177,44.2725087],[4.417039,44.2724424],[4.4170511,44.2724098],[4.416866,44.2723982],[4.4167748,44.2724347],[4.416752,44.2724808]]},"properties":{"natural":"rock"}},
{"type":"Feature","geometry":{"type":"LineString","coordinates":[[4.4265381,44.2661791],[4.4268285,44.2664323],[4.4270088,44.2663262],[4.4267184,44.2660731],[4.4265381,44.2661791]]},"properties":{"leisure":"pitch","sport":"tennis"}},
{"type":"Feature","geometry":{"type":"LineString","coordinates":[[4.4241567,44.2708614],[4.4242801,44.2708093],[4.4242429,44.2707642],[4.4241195,44.2708163],[4.4241567,44.2708614]]},"properties":{"access":"private","leisure":"swimming_pool"}},
{"type":"Feature","geometry":{"type":"LineString","coordinates":[[4.4210583,44.265993],[4.4208223,44.2656567],[4.4204414,44.2652553],[4.4197333,44.2647617],[4.4196582,44.264583],[4.4195697,44.2641144],[4.419412,44.2640586],[4.4193343,44.2642782],[4.4195942,44.2649172],[4.4200905,44.2656771],[4.4205433,44.26592],[4.4207892,44.2660495],[4.4210583,44.265993]]},"properties":{"floodable":"yes","natural":"shingle"}},
{"type":"Feature","geometry":{"type":"LineString","coordinates":[[4.4201396,44.2611716],[4.4199922,44.2611802],[4.4199965,44.2612271],[4.420144,44.2612233],[4.4201396,44.2611716]]},"properties":{"building":"yes","castle_type":"defensive","historic":"castle","historic:civilization":"medieval"}},
{"type":"Feature","geometry":{"type":"LineString","coordinates":[[4.344671,44.2636655],[4.344566,44.2634438],[4.3447002,44.2634241],[4.3448333,44.2634211],[4.3464231,44.2638493],[4.3470883,44.2638416],[4.3476106,44.2636996],[4.3479677,44.2634697],[4.348251,44.2635114],[4.348388,44.2633193],[4.3485674,44.2631339],[4.3487404,44.2631353],[4.348661,44.2633049],[4.3484825,44.263683],[4.3480859,44.263888],[4.3477177,44.2640119],[4.3469274,44.2641259],[4.346262,44.2641518],[4.3454547,44.2639915],[4.344671,44.2636655]]},"properties":{"lifeguard":"no","name":"Plage du Roy","natural":"shingle","supervised":"no","surface":"gravel"}},
{"type":"Feature","geometry":{"type":"LineString","coordinates":[[4.3546571,44.3053934],[4.3546355,44.3052669],[4.3549486,44.3052395],[4.3549703,44.3053659],[4.3546571,44.3053934]]},"properties":{"access":"private","leisure":"pitch","sport":"multi"}},
{"type":"Feature","geometry":{"type":"LineString","coordinates":[[4.3464003,44.2227284],[4.3468577,44.2233752],[4.346914,44.2233964],[4.3469301,44.2235232],[4.3475604,44.2241191],[4.3476006,44.2240999],[4.3476731,44.2241498],[4.3476382,44.2242017],[4.347657,44.2242402],[4.3478474,44.2243344],[4.3484643,44.2245708],[4.3492824,44.2248899],[4.3497652,44.2250475],[4.3502775,44.2251666],[4.3505967,44.2252147],[4.3506235,44.2249725],[4.3508542,44.2249706],[4.3509722,44.2235252],[4.3509963,44.2231484],[4.351117,44.2228908],[4.3511841,44.2227678],[4.3508595,44.2223853],[4.3500522,44.2224026],[4.3488049,44.2224987],[4.3477723,44.2225871],[4.3477374,44.2226352],[4.3476891,44.2226371],[4.3476382,44.2225987],[4.3464661,44.2226948],[4.3464003,44.2227284]]},"properties":{"leisure":"sports_centre","name":"Centre Sportif Départemental du Gard"}},
{"type":"Feature","geometry":{"type":"LineString","coordinates":[[4.3487058,44.2238694],[4.3489442,44.2239241],[4.3491763,44.2234049],[4.3489379,44.2233501],[4.3487058,44.2238694]]},"properties":{"leisure":"pitch","sport":"equestrian"}},
{"type":"Feature","geometry":{"type":"LineString","coordinates":[[4.3483177,44.2226996],[4.3483831,44.2231447],[4.3493781,44.2230696],[4.3493126,44.2226245],[4.3483177,44.2226996]]},"properties":{"leisure":"pitch","sport":"equestrian"}},
{"type":"Feature","geometry":{"type":"LineString","coordinates":[[4.3505393,44.2231404],[4.350918,44.2231546],[4.3509471,44.2227566],[4.3505684,44.2227424],[4.3505393,44.2231404]]},"properties":{"leisure":"pitch","sport":"multi"}},
{"type":"Feature","geometry":{"type":"LineString","coordinates":[[4.3501402,44.2228525],[4.3503689,44.22286],[4.3503899,44.2225303],[4.3501613,44.2225228],[4.3501402,44.2228525]]},"properties":{"leisure":"pitch","sport":"multi"}},