{"type":"FeatureCollection","features":[
{"type":"Feature","geometry":{"type":"Point","coordinates":[2.074351,46.5798445]},"properties":{"denomination":"catholic","description":"Calvaire : Socle : Repère de nivellement - Point vu en place en 2001","ele":"253.938","historic":"wayside_cross","man_made":"survey_point","name":"Calvaire","note":"Ne pas déplacer ce point, cf. - Do not move this node, see - http://wiki.openstreetmap.org/wiki/WikiProject_France/Repères_Géodésiques#Permanence_des_rep.C3.A8res","ref":"3613001 - A","religion":"christian","source":"©IGN 2010 dans le cadre de la cartographie réglementaire","url":"http://geodesie.ign.fr/fiches/index.php?module=e&action=fichepdf&source=carte&sit_no=3613001"}},
{"type":"Feature","geometry":{"type":"Point","coordinates":[2.0743446,46.5798423]},"properties":{"denomination":"catholic","description":"Calvaire : Croix : Centre - Point vu en place en 2001","ele":"255.41","historic":"wayside_cross","man_made":"survey_point","name":"Calvaire","note":"Ne pas déplacer ce point, cf. - Do not move this node, see - http://wiki.openstreetmap.org/wiki/WikiProject_France/Repères_Géodésiques#Permanence_des_rep.C3.A8res","ref":"3613001 - C","religion":"christian","source":"©IGN 2010 dans le cadre de la cartographie réglementaire","url":"http://geodesie.ign.fr/fiches/index.php?module=e&action=fichepdf&source=carte&sit_no=3613001"}},
{"type":"Feature","geometry":{"type":"Point","coordinates":[1.9784519,46.6477637]},"properties":{"denotation":"urban","height":"7 m","leaf_type":"broadleaved","name":"Maronnier de la place du maronnier","natural":"tree"}},
{"type":"Feature","geometry":{"type":"Point","coordinates":[1.9766617,46.6476625]},"properties":{"historic":"memorial","name":"Monument aux morts","source":"cadastre-dgi-fr source : Direction Générale des Impôts - Cadastre. Mise à jour : 2011"}},
{"type":"Feature","geometry":{"type":"Point","coordinates":[1.9759925,46.6475635]},"properties":{"bicycle":"yes","hiking":"yes","horse":"yes","information":"map","map_size":"city","map_type":"scheme","mtb":"yes","source":"cadastre-dgi-fr source : Direction Générale des Impôts - Cadastre. Mise à jour : 2011","tourism":"information"}},
{"type":"Feature","geometry":{"type":"Point","coordinates":[1.9787209,46.6478242]},"properties":{"natural":"spring","source":"cadastre-dgi-fr source : Direction Générale des Impôts - Cadastre. Mise à jour : 2011"}},
{"type":"Feature","geometry":{"type":"Point","coordinates":[1.9752853,46.6255916]},"properties":{"historic":"wayside_cross"}},
{"type":"Feature","geometry":{"type":"Point","coordinates":[1.9808271,46.5848264]},"properties":{"highway":"crossing"}},
{"type":"Feature","geometry":{"type":"Point","coordinates":[1.9610606,46.584842]},"properties":{"direction":"forward","highway":"give_way"}},
{"type":"Feature","geometry":{"type":"Point","coordinates":[2.2029849,46.5619272]},"properties":{"crossing":"marked","crossing:island":"no","highway":"crossing","kerb":"lowered","tactile_paving":"no"}},
{"type":"Feature","geometry":{"type":"Point","coordinates":[1.9854974,46.5815456]},"properties":{"crossing":"marked","crossing:island":"no","crossing:markings":"zebra","highway":"crossing","kerb":"lowered","tactile_paving":"no"}},
{"type":"Feature","geometry":{"type":"Point","coordinates":[1.9918513,46.5862377]},"properties":{"name":"Hôtel du Lyon d'Argent","tourism":"hotel"}},
{"type":"Feature","geometry":{"type":"Point","coordinates":[1.9712874,46.626217]},"properties":{"historic":"wayside_cross","name":"Calvaire","source":"cadastre-dgi-fr source : Direction Générale des Impôts - Cadastre. Mise à jour : 2014"}},
{"type":"Feature","geometry":{"type":"Point","coordinates":[1.9840609,46.7944988]},"properties":{"historic":"wayside_cross","source":"cadastre-dgi-fr : Direction Général des Impots - Cadastre ; mise à jour : 2014"}},
{"type":"Feature","geometry":{"type":"Point","coordinates":[2.0046487,46.5924754]},"properties":{"barrier":"gate"}},
{"type":"Feature","geometry":{"type":"Point","coordinates":[2.1718847,46.723921]},"properties":{"historic":"wayside_cross"}},
{"type":"Feature","geometry":{"type":"Point","coordinates":[2.1464519,46.5681389]},"properties":{"backrest":"no","colour":"gray","covered":"no","leisure":"picnic_table","material":"stone"}},
{"type":"Feature","geometry":{"type":"Point","coordinates":[2.1515748,46.5728225]},"properties":{"tourism":"picnic_site"}},
{"type":"Feature","geometry":{"type":"Point","coordinates":[2.1477787,46.576367]},"properties":{"historic":"wayside_cross","name":"Croix de Rochepau"}},
{"type":"Feature","geometry":{"type":"Point","coordinates":[2.1339928,46.5884243]},"properties":{"natural":"tree"}},
{"type":"Feature","geometry":{"type":"Point","coordinates":[2.1493196,46.5693124]},"properties":{"historic":"memorial","memorial":"war_memorial","name":"À La Mémoire Des Enfants De Néret Morts Pour La France"}},
{"type":"Feature","geometry":{"type":"Point","coordinates":[2.1488957,46.5696233]},"properties":{"natural":"tree"}},
{"type":"Feature","geometry":{"type":"Point","coordinates":[2.1486865,46.5696767]},"properties":{"natural":"tree"}},
{"type":"Feature","geometry":{"type":"Point","coordinates":[2.1503714,46.5688024]},"properties":{"access":"yes","leisure":"playground","playground":"seesaw"}},
{"type":"Feature","geometry":{"type":"Point","coordinates":[2.1508458,46.5679527]},"properties":{"historic":"wayside_cross","material":"stone","religion":"christian"}},
{"type":"Feature","geometry":{"type":"Point","coordinates":[2.1508843,46.5674903]},"properties":{"historic":"wayside_cross"}},
{"type":"Feature","geometry":{"type":"Point","coordinates":[2.0630431,46.6608455]},"properties":{"name":"Gîte d'Etape","operator":"Mairie de Berthenoux","tourism":"hotel"}},
{"type":"Feature","geometry":{"type":"Point","coordinates":[2.1881814,46.5680594]},"properties":{"barrier":"gate","bicycle":"yes","foot":"yes","motorcar":"yes","motorcycle":"yes","vehicle":"customers"}},
{"type":"Feature","geometry":{"type":"Point","coordinates":[2.1872269,46.5692852]},"properties":{"barrier":"entrance","foot":"yes"}},
{"type":"Feature","geometry":{"type":"Point","coordinates":[2.0086235,46.5949902]},"properties":{"barrier":"gate"}},
{"type":"Feature","geometry":{"type":"Point","coordinates":[2.0611419,46.6613019]},"properties":{"denomination":"catholic","historic":"wayside_cross","name":"Calvaire","religion":"christian"}},
{"type":"Feature","geometry":{"type":"Point","coordinates":[2.0612639,46.6612918]},"properties":{"artist_name":"Jean Sajous","historic":"memorial","memorial":"war_memorial","name":"Monument aux Morts"}},
{"type":"Feature","geometry":{"type":"Point","coordinates":[1.9790586,46.6019116]},"properties":{"denomination":"catholic","historic":"wayside_cross","name":"Calvaire","religion":"christian"}},
{"type":"Feature","geometry":{"type":"Point","coordinates":[1.9808056,46.6019006]},"properties":{"historic":"memorial","memorial":"war_memorial"}},
{"type":"Feature","geometry":{"type":"Point","coordinates":[2.1485525,46.5696615]},"properties":{"denomination":"catholic","historic":"wayside_cross","name":"Calvaire","religion":"christian","source":"cadastre-dgi-fr source : Direction Générale des Finances Publiques - Cadastre. Mise à jour : 2016"}},
{"type":"Feature","geometry":{"type":"Point","coordinates":[2.0712555,46.578335]},"properties":{"denomination":"catholic","historic":"wayside_cross","name":"Calvaire","religion":"christian","source":"cadastre-dgi-fr source : Direction Générale des Impôts - Cadastre. Mise à jour : 2016"}},
{"type":"Feature","geometry":{"type":"Point","coordinates":[2.070833,46.5783212]},"properties":{"historic":"memorial","memorial":"war_memorial","name":"Monument aux Morts","source":"cadastre-dgi-fr source : Direction Générale des Impôts - Cadastre. Mise à jour : 2016"}},
{"type":"Feature","geometry":{"type":"Point","coordinates":[2.0714646,46.6376632]},"properties":{"denomination":"catholic","historic":"wayside_cross","name":"Calvaire","religion":"christian"}},
{"type":"Feature","geometry":{"type":"Point","coordinates":[2.0693372,46.6376746]},"properties":{"historic":"memorial","memorial":"war_memorial","name":"Monument aux Morts"}},
{"type":"Feature","geometry":{"type":"Point","coordinates":[2.0109132,46.6551393]},"properties":{"denomination":"catholic","historic":"wayside_cross","name":"Calvaire","religion":"christian","source":"cadastre-dgi-fr source : Direction Générale des Impôts - Cadastre ; mise à jour : 2016"}},
{"type":"Feature","geometry":{"type":"Point","coordinates":[2.0477585,46.787319]},"properties":{"denomination":"catholic","historic":"wayside_cross","name":"Calavire","religion":"christian","source":"cadastre-dgi-fr source : Direction Générale des Impôts - Cadastre. Mise à jour : 2016"}},
{"type":"Feature","geometry":{"type":"Point","coordinates":[2.0488529,46.7889828]},"properties":{"artist_name":"M. Néret","historic":"memorial","memorial":"war_memorial","name":"Monument aux Morts","source":"cadastre-dgi-fr source : Direction Générale des Impôts - Cadastre. Mise à jour : 2016","start_date":"1922-07-23"}},
{"type":"Feature","geometry":{"type":"Point","coordinates":[2.1212106,46.6781225]},"properties":{"denomination":"catholic","historic":"wayside_cross","name":"Calvaire","religion":"christian","source":"cadastre-dgi-fr source : Direction Générale des Finances Publiques - Cadastre. Mise à jour : 2016"}},
{"type":"Feature","geometry":{"type":"Point","coordinates":[2.1210001,46.678105]},"properties":{"historic":"memorial","memorial":"war_memorial","source":"cadastre-dgi-fr source : Direction Générale des Finances Publiques - Cadastre. Mise à jour : 2016"}},
{"type":"Feature","geometry":{"type":"Point","coordinates":[2.0461315,46.7847703]},"properties":{"denomination":"catholic","historic":"wayside_cross","name":"Calvaire","religion":"christian","source":"cadastre-dgi-fr source : Direction Générale des Impôts - Cadastre. Mise à jour : 2016"}},
{"type":"Feature","geometry":{"type":"Point","coordinates":[1.9840045,46.6016508]},"properties":{"denomination":"catholic","historic":"wayside_cross","name":"Calvaire","religion":"christian","source":"cadastre-dgi-fr source : Direction Générale des Finances Publiques - Cadastre. Mise à jour : 2017"}},
{"type":"Feature","geometry":{"type":"Point","coordinates":[2.1787369,46.6723233]},"properties":{"historic":"memorial"}},
{"type":"Feature","geometry":{"type":"Point","coordinates":[2.1387626,46.6296881]},"properties":{"denomination":"catholic","historic":"wayside_cross","name":"Calvaire","religion":"christian"}},
{"type":"Feature","geometry":{"type":"Point","coordinates":[2.0639899,46.6862502]},"properties":{"denomination":"catholic","description":"calvaire","historic":"wayside_cross","name":"Croix des Laurents","religion":"christian"}},
{"type":"Feature","geometry":{"type":"Point","coordinates":[1.9897435,46.5792493]},"properties":{"historic":"wayside_cross","name":"Croix de L'Abbaye"}},
{"type":"Feature","geometry":{"type":"Point","coordinates":[1.9868598,46.5824357]},"properties":{"artwork_type":"sculpture","name":"Timoty Mark","tourism":"artwork"}},
{"type":"Feature","geometry":{"type":"Point","coordinates":[1.9812735,46.5832802]},"properties":{"crossing:markings":"zebra","highway":"crossing"}},
{"type":"Feature","geometry":{"type":"Point","coordinates":[1.9863518,46.5812039]},"properties":{"artist_name":"Mocenni","artwork_type":"sculpture","check_date":"2024-04-12","name":"Sculpture géométrique","start_date":"2001","tourism":"artwork"}},
{"type":"Feature","geometry":{"type":"Point","coordinates":[1.9862739,46.5814925]},"properties":{"artist_name":"Thierry Jourdan","artwork_type":"sculpture","check_date":"2024-04-12","name":"Tendresse","note":"6ème symposium de sculpture sur pièrre","start_date":"1998","tourism":"artwork"}},
{"type":"Feature","geometry":{"type":"Point","coordinates":[1.9850012,46.5813111]},"properties":{"artwork_type":"sculpture","name":"Les mains jointes","tourism":"artwork"}},
{"type":"Feature","geometry":{"type":"Point","coordinates":[1.9868848,46.5792723]},"properties":{"artwork_type":"mural","name":"Entrée de la maison de Jenny de Vasson","tourism":"artwork"}},
{"type":"Feature","geometry":{"type":"Point","coordinates":[1.9852441,46.5814662]},"properties":{"artwork_type":"sculpture","name":"Envol","tourism":"artwork"}},
{"type":"Feature","geometry":{"type":"Point","coordinates":[1.9903663,46.5834807]},"properties":{"artwork_type":"mural","name":"Trompe l'oeil","tourism":"artwork"}},
{"type":"Feature","geometry":{"type":"Point","coordinates":[1.9890666,46.5784148]},"properties":{"artwork_type":"sculpture","name":"Champignon torsadé","tourism":"artwork"}},
{"type":"Feature","geometry":{"type":"Point","coordinates":[1.9891701,46.5786471]},"properties":{"artwork_type":"sculpture","name":"Champignon torsadé cassé","tourism":"artwork"}},
{"type":"Feature","geometry":{"type":"Point","coordinates":[1.9858006,46.581709]},"properties":{"historic":"memorial","inscription":"Henri de latouche 1758-1851","memorial":"stele","name":"Stèle Henri de la Touche"}},
{"type":"Feature","geometry":{"type":"Point","coordinates":[1.985557,46.581341]},"properties":{"artwork_type":"sculpture","name":"Crème Paille","tourism":"artwork"}},
{"type":"Feature","geometry":{"type":"Point","coordinates":[1.9867044,46.5821007]},"properties":{"artwork_type":"sculpture","name":"Élan","tourism":"artwork"}},
{"type":"Feature","geometry":{"type":"Point","coordinates":[1.9842632,46.5817779]},"properties":{"crossing":"marked","crossing:markings":"zebra","highway":"crossing","kerb":"flush","tactile_paving":"no"}},
{"type":"Feature","geometry":{"type":"Point","coordinates":[1.9869322,46.581275]},"properties":{"artist_name":"Slibodan Bugaric","artwork_type":"sculpture","name":"Skadar","tourism":"artwork"}},
{"type":"Feature","geometry":{"type":"Point","coordinates":[1.9870301,46.5839671]},"properties":{"artwork_type":"sculpture","name":"Femme regarde le Ciel","tourism":"artwork"}},
{"type":"Feature","geometry":{"type":"Point","coordinates":[1.98387,46.5817881]},"properties":{"direction":"forward","highway":"stop"}},
{"type":"Feature","geometry":{"type":"Point","coordinates":[1.9868835,46.5793068]},"properties":{"crossing":"marked","highway":"crossing","kerb":"flush","tactile_paving":"yes","traffic_calming":"table"}},
{"type":"Feature","geometry":{"type":"Point","coordinates":[1.9808416,46.5827964]},"properties":{"highway":"crossing"}},
{"type":"Feature","geometry":{"type":"Point","coordinates":[1.9835721,46.5819778]},"properties":{"crossing":"marked","crossing:island":"no","crossing:markings":"zebra","highway":"crossing","kerb":"raised","tactile_paving":"yes"}},
{"type":"Feature","geometry":{"type":"Point","coordinates":[2.0027805,46.5997584]},"properties":{"historic":"wayside_cross"}},
{"type":"Feature","geometry":{"type":"Point","coordinates":[1.9863611,46.5705789]},"properties":{"historic":"wayside_cross"}},
{"type":"Feature","geometry":{"type":"Point","coordinates":[1.986589,46.5748383]},"properties":{"historic":"wayside_cross"}},
{"type":"Feature","geometry":{"type":"Point","coordinates":[1.982132,46.6047237]},"properties":{"historic":"wayside_cross"}},
{"type":"Feature","geometry":{"type":"Point","coordinates":[2.0331378,46.5684289]},"properties":{"leaf_cycle":"deciduous","leaf_type":"broadleaved","natural":"tree"}},
{"type":"Feature","geometry":{"type":"Point","coordinates":[2.0333253,46.5683455]},"properties":{"leaf_cycle":"deciduous","leaf_type":"broadleaved","natural":"tree"}},
{"type":"Feature","geometry":{"type":"Point","coordinates":[2.0336783,46.5681995]},"properties":{"leaf_cycle":"deciduous","leaf_type":"broadleaved","natural":"tree"}},
{"type":"Feature","geometry":{"type":"Point","coordinates":[2.0337748,46.5681616]},"properties":{"leaf_cycle":"deciduous","leaf_type":"broadleaved","natural":"tree"}},
{"type":"Feature","geometry":{"type":"Point","coordinates":[2.0333501,46.568118]},"properties":{"leaf_cycle":"deciduous","leaf_type":"broadleaved","natural":"tree"}},
{"type":"Feature","geometry":{"type":"Point","coordinates":[2.0334604,46.5680763]},"properties":{"leaf_cycle":"deciduous","leaf_type":"broadleaved","natural":"tree"}},
{"type":"Feature","geometry":{"type":"Point","coordinates":[2.0335652,46.568027]},"properties":{"leaf_cycle":"deciduous","leaf_type":"broadleaved","natural":"tree"}},
{"type":"Feature","geometry":{"type":"Point","coordinates":[2.0340837,46.567826]},"properties":{"leaf_cycle":"deciduous","leaf_type":"broadleaved","natural":"tree"}},
{"type":"Feature","geometry":{"type":"Point","coordinates":[2.0305599,46.5666149]},"properties":{"leaf_cycle":"deciduous","leaf_type":"broadleaved","natural":"tree"}},
{"type":"Feature","geometry":{"type":"Point","coordinates":[2.0288066,46.5641868]},"properties":{"leaf_cycle":"deciduous","leaf_type":"broadleaved","natural":"tree"}},
{"type":"Feature","geometry":{"type":"Point","coordinates":[2.0287627,46.5639818]},"properties":{"leaf_cycle":"deciduous","leaf_type":"broadleaved","natural":"tree"}},
{"type":"Feature","geometry":{"type":"Point","coordinates":[2.0285889,46.5637397]},"properties":{"leaf_cycle":"deciduous","leaf_type":"broadleaved","natural":"tree"}},
{"type":"Feature","geometry":{"type":"Point","coordinates":[2.0285446,46.5634788]},"properties":{"leaf_cycle":"deciduous","leaf_type":"broadleaved","natural":"tree"}},
{"type":"Feature","geometry":{"type":"Point","coordinates":[2.0292068,46.5643406]},"properties":{"leaf_cycle":"deciduous","leaf_type":"broadleaved","natural":"tree"}},
{"type":"Feature","geometry":{"type":"Point","coordinates":[2.0300167,46.5641125]},"properties":{"leaf_cycle":"deciduous","leaf_type":"broadleaved","natural":"tree"}},
{"type":"Feature","geometry":{"type":"Point","coordinates":[2.0312942,46.5689944]},"properties":{"leaf_cycle":"deciduous","leaf_type":"broadleaved","natural":"tree"}},
{"type":"Feature","geometry":{"type":"Point","coordinates":[2.0308766,46.5691721]},"properties":{"leaf_cycle":"deciduous","leaf_type":"broadleaved","natural":"tree"}},
{"type":"Feature","geometry":{"type":"Point","coordinates":[2.030512,46.5693083]},"properties":{"leaf_cycle":"deciduous","leaf_type":"broadleaved","natural":"tree"}},
{"type":"Feature","geometry":{"type":"Point","coordinates":[2.029967,46.5695346]},"properties":{"leaf_cycle":"deciduous","leaf_type":"broadleaved","natural":"tree"}},
{"type":"Feature","geometry":{"type":"Point","coordinates":[2.0289618,46.5683089]},"properties":{"leaf_cycle":"deciduous","leaf_type":"broadleaved","natural":"tree"}},
{"type":"Feature","geometry":{"type":"Point","coordinates":[2.0291429,46.5682755]},"properties":{"leaf_cycle":"deciduous","leaf_type":"broadleaved","natural":"tree"}},
{"type":"Feature","geometry":{"type":"Point","coordinates":[2.0288116,46.5683484]},"properties":{"leaf_cycle":"deciduous","leaf_type":"broadleaved","natural":"tree"}},
{"type":"Feature","geometry":{"type":"Point","coordinates":[2.028119,46.5685098]},"properties":{"leaf_cycle":"deciduous","leaf_type":"broadleaved","natural":"tree"}},
{"type":"Feature","geometry":{"type":"Point","coordinates":[1.9828036,46.5793035]},"properties":{"noexit":"yes"}},
{"type":"Feature","geometry":{"type":"Point","coordinates":[1.985386,46.5889362]},"properties":{"name":"Hôtel de la promenade","tourism":"attraction"}},
{"type":"Feature","geometry":{"type":"Point","coordinates":[1.9797038,46.6017772]},"properties":{"name":"Trompe l'oeil de Montgivray","tourism":"attraction"}},
{"type":"Feature","geometry":{"type":"Point","coordinates":[1.9782876,46.6013749]},"properties":{"leisure":"playground"}},
{"type":"Feature","geometry":{"type":"Point","coordinates":[1.9791948,46.6019604]},"properties":{"historic":"memorial","memorial":"war_memorial","name":"Monument aux morts de Montgivray"}},
{"type":"Feature","geometry":{"type":"Point","coordinates":[1.9787751,46.6028261]},"properties":{"board_type":"nature","information":"board","name":"Espaces naturels sensibles","operator":"Montgivray","tourism":"information"}},
{"type":"Feature","geometry":{"type":"Point","coordinates":[1.9852556,46.5812835]},"properties":{"description":"La statue de George Sand","historic":"memorial","memorial":"statue","name":"Statue De George Sand"}},
{"type":"Feature","geometry":{"type":"Point","coordinates":[1.9861097,46.5820077]},"properties":{"artwork_type":"sculpture","name":"Le postier en bronze","name:en":"The postman in bronze","tourism":"artwork"}},
{"type":"Feature","geometry":{"type":"Point","coordinates":[1.9886615,46.5834504]},"properties":{"artist_name":"Mihai Borodi","artwork_type":"sculpture","name":"Géométrie Spatiale","note":"8èmes rencontres internationales de sculpture sur pierres de La Châtre 2000","tourism":"artwork"}},
{"type":"Feature","geometry":{"type":"Point","coordinates":[1.988573,46.5833988]},"properties":{"historic":"memorial","inscription":"Les hommes du Général KOENIG résistèrent du 36 Mai au 11 Juin 1942, face aux Forces allemandes et italiennes, puis réussirent à rejoindre les lignes anglaises. Ce fut un épisode décisif de la seconde Guerre Mondiale.","memorial":"plaque","name":"Bataille de Bit Hakim"}},
{"type":"Feature","geometry":{"type":"Point","coordinates":[1.988021,46.5844224]},"properties":{"historic":"memorial","inscription":"Espace de souvenir Français","memorial":"stele"}},
{"type":"Feature","geometry":{"type":"Point","coordinates":[1.9849101,46.5852714]},"properties":{"artist_name":"Cazo","artwork_type":"sculpture","name":"La sculpture aux milles et une face avec un chat","name:en":"The sculpture of one thousand face and a cat","tourism":"artwork"}},
{"type":"Feature","geometry":{"type":"Point","coordinates":[1.990182,46.585531]},"properties":{"artwork_type":"sculpture","name":"La femme au violon","tourism":"artwork"}},
{"type":"Feature","geometry":{"type":"Point","coordinates":[1.9904244,46.5857575]},"properties":{"artwork_type":"sculpture","name":"Les moutons en bronze","tourism":"artwork"}},
{"type":"Feature","geometry":{"type":"Point","coordinates":[1.9906052,46.5857104]},"properties":{"artwork_type":"sculpture","name":"La femme sirène","tourism":"artwork"}},
{"type":"Feature","geometry":{"type":"Point","coordinates":[1.9903186,46.5835005]},"properties":{"artwork_type":"sculpture","name":"La femme espionne","tourism":"artwork"}},
{"type":"Feature","geometry":{"type":"Point","coordinates":[1.989952,46.5817761]},"properties":{"artist_name":"Eric Buisson","artwork_type":"sculpture","name":"La vague","tourism":"artwork"}},
{"type":"Feature","geometry":{"type":"Point","coordinates":[1.989002,46.5855304]},"properties":{"artwork_type":"sculpture","name":"Les deux femme fusionante","tourism":"artwork"}},
{"type":"Feature","geometry":{"type":"Point","coordinates":[1.9845726,46.5696476]},"properties":{"artwork_type":"sculpture","name":"Serpent qui se mord la queue","tourism":"artwork"}},
{"type":"Feature","geometry":{"type":"Point","coordinates":[1.9855036,46.5703947]},"properties":{"artwork_type":"sculpture","name":"La femme dansante avec sa robe","tourism":"artwork"}},
{"type":"Feature","geometry":{"type":"Point","coordinates":[1.985683,46.5701245]},"properties":{"board_type":"information","check_date":"2023-11-19","information":"board","name":"Plan de l'hôpital","tourism":"information"}},
{"type":"Feature","geometry":{"type":"Point","coordinates":[1.9823493,46.5785045]},"properties":{"artwork_type":"sculpture","name":"Le violon distordu","tourism":"artwork"}},
{"type":"Feature","geometry":{"type":"Point","coordinates":[1.9818899,46.57858]},"properties":{"artwork_type":"sculpture","name":"La harpe Islandaise","tourism":"artwork"}},
{"type":"Feature","geometry":{"type":"Point","coordinates":[1.9819153,46.578529]},"properties":{"artwork_type":"statue","name":"Le joueur d'orgue","tourism":"artwork"}},
{"type":"Feature","geometry":{"type":"Point","coordinates":[1.9818391,46.5784626]},"properties":{"artwork_type":"sculpture","name":"Le saxophoniste","tourism":"artwork"}},
{"type":"Feature","geometry":{"type":"Point","coordinates":[1.9817863,46.5784298]},"properties":{"artwork_type":"statue","name":"Le violoniste","tourism":"artwork"}},
{"type":"Feature","geometry":{"type":"Point","coordinates":[1.9816186,46.5784179]},"properties":{"artwork_type":"statue","name":"La femme qui tombe","tourism":"artwork"}},
{"type":"Feature","geometry":{"type":"Point","coordinates":[1.981712,46.5783778]},"properties":{"artwork_type":"statue","name":"Le statue distordu","tourism":"artwork"}},
{"type":"Feature","geometry":{"type":"Point","coordinates":[1.9813887,46.5784298]},"properties":{"artwork_type":"statue","name":"L'ange","tourism":"artwork"}},
{"type":"Feature","geometry":{"type":"Point","coordinates":[1.9813603,46.5783931]},"properties":{"artwork_type":"stone","name":"Pierre commémorative du jumelage avec le Vieux Thaan","tourism":"artwork"}},
{"type":"Feature","geometry":{"type":"Point","coordinates":[1.9892667,46.5849649]},"properties":{"board_type":"information","check_date":"2023-09-01","information":"board","note":"Panneau contenant des informations sur la diffusion de films dans le cinéma local","tourism":"information"}},
{"type":"Feature","geometry":{"type":"Point","coordinates":[1.9868854,46.5814614]},"properties":{"board_type":"information","check_date":"2023-08-26","information":"board","note":"Panneau contenant des informations sur la diffusion de films dans le cinéma local","tourism":"information"}},
{"type":"Feature","geometry":{"type":"Point","coordinates":[1.9869141,46.5814762]},"properties":{"board_type":"notice","check_date":"2023-08-26","description":"Cinéma Le Lux","information":"board","note":"Panneau numérique affichant différentes informations concernant la ville et ces alentours.","tourism":"information"}},
{"type":"Feature","geometry":{"type":"Point","coordinates":[1.9807745,46.5849215]},"properties":{"artwork_type":"sculpture","name":"Le champignon distordu","tourism":"artwork"}},
{"type":"Feature","geometry":{"type":"Point","coordinates":[1.9865651,46.5827974]},"properties":{"artwork_type":"sculpture","name":"L'homme aux deux faces","tourism":"artwork"}},
{"type":"Feature","geometry":{"type":"Point","coordinates":[1.9861197,46.5818803]},"properties":{"artwork_type":"sculpture","name":"Il fait le mur !","tourism":"artwork"}},
{"type":"Feature","geometry":{"type":"Point","coordinates":[1.9857427,46.5905036]},"properties":{"addr:city":"Montgivray","addr:postcode":"36400","addr:street":"La Gare","name":"Ancienne gare de La Châtre","tourism":"attraction"}},
{"type":"Feature","geometry":{"type":"Point","coordinates":[1.9908215,46.5806076]},"properties":{"addr:city":"Le P'tit mur","addr:postcode":"36400","addr:street":"Rue du Pont aux Laies","name":"Atelier des artistes","operator":"Le P'tit mur","tourism":"gallery"}},
{"type":"Feature","geometry":{"type":"Point","coordinates":[1.9906403,46.5807767]},"properties":{"historic":"memorial","inscription":"Ici à débuté en 1942 la RÉSISTANCE Libération M.U.R organisée par LANGLOIS Gaston","memorial":"plaque","name":"Plaque commémorative de mouvement MUR"}},
{"type":"Feature","geometry":{"type":"Point","coordinates":[1.9906498,46.5806107]},"properties":{"artist_name":"Benôit Judalet","artwork_type":"sculpture","name":"Périlleuse naissance","tourism":"artwork"}},
{"type":"Feature","geometry":{"type":"Point","coordinates":[1.9907348,46.5821043]},"properties":{"artist_name":"Sylvie Klein","artwork_type":"sculpture","name":"Repos de l'ange","tourism":"artwork"}},
{"type":"Feature","geometry":{"type":"Point","coordinates":[1.9909002,46.5835008]},"properties":{"artwork_type":"bridge","inscription":"Le pont des Cabignats a pris le nom déformé de la famille Escabignat, de riches bourgeois qui firent une donation pour l'aménagement du pont.","name":"Pont des Cabignats","tourism":"artwork"}},
{"type":"Feature","geometry":{"type":"Point","coordinates":[1.9885286,46.5826058]},"properties":{"artwork_type":"sculpture","name":"L'apolon s'ennuie","tourism":"artwork"}},
{"type":"Feature","geometry":{"type":"Point","coordinates":[1.9918164,46.5833272]},"properties":{"artist_name":"François Sontaus","artwork_type":"sculpture","name":"Muse d'Août","tourism":"artwork"}},
{"type":"Feature","geometry":{"type":"Point","coordinates":[1.9984578,46.5845191]},"properties":{"artwork_type":"sculpture","name":"La balerine géométrique","tourism":"artwork"}},
{"type":"Feature","geometry":{"type":"Point","coordinates":[1.9856974,46.5892762]},"properties":{"amenity":"fountain","name":"Vieille Fontaine à pompe du 19e siècle","tourism":"attraction"}},
{"type":"Feature","geometry":{"type":"Point","coordinates":[1.983105,46.7948179]},"properties":{"tourism":"information"}},
{"type":"Feature","geometry":{"type":"Point","coordinates":[1.9722975,46.7946424]},"properties":{"name":"Source de la Théols","natural":"spring"}},
{"type":"Feature","geometry":{"type":"Point","coordinates":[1.985199,46.7950611]},"properties":{"addr:street":"Rue de l'Ouche","amenity":"bench","tourism":"attraction"}},
{"type":"Feature","geometry":{"type":"Point","coordinates":[1.9851829,46.7950556]},"properties":{"artwork_type":"sculpture","tourism":"artwork"}},
{"type":"Feature","geometry":{"type":"Point","coordinates":[1.9852086,46.7950098]},"properties":{"artwork_type":"sculpture","tourism":"artwork"}},
{"type":"Feature","geometry":{"type":"Point","coordinates":[1.9851871,46.7950862]},"properties":{"leisure":"playground"}},
{"type":"Feature","geometry":{"type":"Point","coordinates":[1.9839571,46.7939219]},"properties":{"leisure":"playground"}},
{"type":"Feature","geometry":{"type":"Point","coordinates":[1.9850998,46.7950395]},"properties":{"artwork_type":"sculpture","tourism":"artwork"}},
{"type":"Feature","geometry":{"type":"Point","coordinates":[2.0026696,46.5808876]},"properties":{"name":"Coucher de soleil sur la plage","note":"Peinture sur le mur du bâtiment","tourism":"attraction"}},
{"type":"Feature","geometry":{"type":"Point","coordinates":[2.0059462,46.5797716]},"properties":{"leaf_type":"broadleaved","natural":"tree"}},
{"type":"Feature","geometry":{"type":"Point","coordinates":[1.9830967,46.5715033]},"properties":{"artist_name":"Miguel Isla","artwork_type":"sculpture","material":"stone","name":"Altair","note":"Sculpture confectionnée par Miguel Isla lors du 6ème symposium de sculpture de La Châtre en 1998.","tourism":"artwork"}},
{"type":"Feature","geometry":{"type":"Point","coordinates":[1.9874501,46.5749616]},"properties":{"artwork_type":"sculpture","material":"stone","name":"La Femme Siège","tourism":"artwork"}},
{"type":"Feature","geometry":{"type":"Point","coordinates":[1.9981787,46.576112]},"properties":{"historic":"wayside_cross","name":"Calvaire de La Rochaille"}},
{"type":"Feature","geometry":{"type":"Point","coordinates":[1.9787003,46.5831916]},"properties":{"artwork_type":"statue","name":"La Fourmie","tourism":"artwork"}},
{"type":"Feature","geometry":{"type":"Point","coordinates":[1.9783272,46.5831032]},"properties":{"name":"Stèle d'accueil du Lycée","note":"Il y est écrit le nom du lycée, au dessus il y à une gravure de George Sand.","tourism":"attraction"}},
{"type":"Feature","geometry":{"type":"Point","coordinates":[1.9697566,46.7934656]},"properties":{"information":"board","tourism":"information"}},
{"type":"Feature","geometry":{"type":"Point","coordinates":[2.0121227,46.6243382]},"properties":{"leisure":"pitch","sport":"table_tennis"}},
{"type":"Feature","geometry":{"type":"Point","coordinates":[2.0113235,46.6240426]},"properties":{"access":"yes","historic":"memorial","name":"Monument aux morts de Lourouer-Saint-Laurent"}},
{"type":"Feature","geometry":{"type":"Point","coordinates":[2.0119949,46.6239689]},"properties":{"artwork_type":"sculpture","material":"wood","name":"Grenouille en bois","tourism":"artwork"}},
{"type":"Feature","geometry":{"type":"Point","coordinates":[1.9812608,46.5781743]},"properties":{"board_type":"nature","information":"board","name":"Panneau d'information sur le parc Honoré de Balzac","tourism":"information"}},
{"type":"Feature","geometry":{"type":"Point","coordinates":[1.9820749,46.5780305]},"properties":{"board_type":"nature","check_date":"2023-11-11","information":"board","name":"Panneau d'information sur le parc Honoré de Balzac","tourism":"information"}},
{"type":"Feature","geometry":{"type":"Point","coordinates":[1.9798071,46.5777798]},"properties":{"board_type":"nature","information":"board","name":"Panneau d'information sur le parc Honoré de Balzac","tourism":"information"}},
{"type":"Feature","geometry":{"type":"Point","coordinates":[1.9776703,46.5761829]},"properties":{"board_type":"nature","information":"board","name":"Panneau d'information sur le parc Honoré de Balzac","tourism":"information"}},
{"type":"Feature","geometry":{"type":"Point","coordinates":[1.9794274,46.5756935]},"properties":{"board_type":"nature","check_date":"2023-11-11","information":"board","name":"Panneau d'information sur le parc Honoré de Balzac","tourism":"information"}},
{"type":"Feature","geometry":{"type":"Point","coordinates":[1.9905793,46.579284]},"properties":{"bench":"yes","covered":"no","leisure":"picnic_table","lit":"no","material":"wood"}},
{"type":"Feature","geometry":{"type":"Point","coordinates":[1.9897614,46.5802542]},"properties":{"name":"École de bridge","tourism":"attraction"}},
{"type":"Feature","geometry":{"type":"Point","coordinates":[1.9746459,46.646306]},"properties":{"historic":"wayside_cross"}},
{"type":"Feature","geometry":{"type":"Point","coordinates":[1.9779372,46.6481569]},"properties":{"historic":"memorial","material":"marble","memorial":"plaque"}},
{"type":"Feature","geometry":{"type":"Point","coordinates":[1.9753593,46.6519162]},"properties":{"leisure":"playground","name":"Marelle de l'école","surface":"asphalt"}},
{"type":"Feature","geometry":{"type":"Point","coordinates":[1.9761473,46.6475005]},"properties":{"access":"permissive","entrance":"main"}},
{"type":"Feature","geometry":{"type":"Point","coordinates":[1.9701047,46.7304614]},"properties":{"historic":"wayside_cross","name":"Croix de la Poulinière"}},
{"type":"Feature","geometry":{"type":"Point","coordinates":[1.9709919,46.7261956]},"properties":{"historic":"wayside_cross","name":"Croix de la Roacherie"}},
{"type":"Feature","geometry":{"type":"Point","coordinates":[1.9862319,46.5824393]},"properties":{"artwork_type":"sculpture","material":"stone","tourism":"artwork"}},
{"type":"Feature","geometry":{"type":"Point","coordinates":[2.0090242,46.6585457]},"properties":{"historic":"wayside_cross"}},
{"type":"Feature","geometry":{"type":"Point","coordinates":[2.0237088,46.5858272]},"properties":{"historic":"wayside_cross"}},
{"type":"Feature","geometry":{"type":"Point","coordinates":[2.0298213,46.5821906]},"properties":{"artwork_type":"sculpture","tourism":"artwork"}},
{"type":"Feature","geometry":{"type":"Point","coordinates":[2.1783391,46.6719829]},"properties":{"historic":"wayside_cross"}},
{"type":"Feature","geometry":{"type":"Point","coordinates":[2.1789483,46.6719638]},"properties":{"artwork_type":"sculpture","tourism":"artwork"}},
{"type":"Feature","geometry":{"type":"Point","coordinates":[1.9857681,46.7961998]},"properties":{"artwork_type":"sculpture","tourism":"artwork"}},
{"type":"Feature","geometry":{"type":"Point","coordinates":[1.9860175,46.7962132]},"properties":{"artwork_type":"sculpture","tourism":"artwork"}},
{"type":"Feature","geometry":{"type":"Point","coordinates":[2.0057765,46.5960995]},"properties":{"barrier":"gate"}},
{"type":"Feature","geometry":{"type":"Point","coordinates":[2.0067017,46.5925374]},"properties":{"barrier":"gate"}},
{"type":"Feature","geometry":{"type":"Point","coordinates":[1.9869626,46.5807778]},"properties":{"board_type":"history","historic":"memorial","inscription":"ancienne fontaine; bac à fleurs","material":"stone","memorial":"plaque","name":"Histoire de la Place du Marché","operator":"Ville de La Châtre"}},
{"type":"Feature","geometry":{"type":"Point","coordinates":[1.9879787,46.5803013]},"properties":{"board_type":"history","information":"board","name":"Pays de George Sand","operator":"Ville de La Châtre","tourism":"information"}},
{"type":"Feature","geometry":{"type":"Point","coordinates":[1.9880988,46.5803443]},"properties":{"board_type":"history","information":"board","name":"Place du Docteur Vergne","operator":"Ville de La Châtre","tourism":"information"}},
{"type":"Feature","geometry":{"type":"Point","coordinates":[1.9883412,46.5791892]},"properties":{"board_type":"history","information":"board","name":"Statue de Notre-Dame","operator":"Ville de La Châtre","tourism":"information"}},
{"type":"Feature","geometry":{"type":"Point","coordinates":[1.9879775,46.5812261]},"properties":{"board_type":"history","check_date":"2024-04-12","information":"board","name":"Église Saint-Germain","operator":"Ville de La Châtre","tourism":"information"}},
{"type":"Feature","geometry":{"type":"Point","coordinates":[1.9906504,46.5798744]},"properties":{"board_type":"history","fixme":"Je ne sais plus le nom de cette plaque historique, je pense la changer dès que je retourne à cette endroit (https://goo.gl/maps/jTbrh49GmwkiFVDH7)","information":"board","tourism":"information"}},
{"type":"Feature","geometry":{"type":"Point","coordinates":[1.9915562,46.5797377]},"properties":{"board_type":"history","check_date":"2024-04-12","information":"board","name":"Pont aux Laies","operator":"Ville de La Châtre","tourism":"information"}},
{"type":"Feature","geometry":{"type":"Point","coordinates":[1.9906953,46.5821185]},"properties":{"board_type":"history","information":"board","name":"Fontaine Sainte-Radegonde","operator":"Ville de La Châtre","tourism":"information"}},
{"type":"Feature","geometry":{"type":"Point","coordinates":[1.9900342,46.5820152]},"properties":{"board_type":"history","information":"board","name":"Donjon de Chauvigny","operator":"Ville de La Châtre","tourism":"information"}},
{"type":"Feature","geometry":{"type":"Point","coordinates":[1.9899983,46.5819458]},"properties":{"board_type":"history","information":"board","name":"Parcours touristique de La Châtre","operator":"Ville de La Châtre","tourism":"information"}},
{"type":"Feature","geometry":{"type":"Point","coordinates":[1.9963463,46.603649]},"properties":{"artwork_type":"mural","name":"Ancienne publicité \"Crédit Lyonnais\"","tourism":"artwork"}},
{"type":"Feature","geometry":{"type":"Point","coordinates":[2.0069309,46.6177828]},"properties":{"historic":"wayside_cross"}},
{"type":"Feature","geometry":{"type":"Point","coordinates":[2.0053847,46.623457]},"properties":{"historic":"wayside_cross","name":"Croix de l'Orme Rateau"}},
{"type":"Feature","geometry":{"type":"Point","coordinates":[2.0103253,46.6212987]},"properties":{"historic":"wayside_cross"}},
{"type":"Feature","geometry":{"type":"Point","coordinates":[2.0095204,46.5841772]},"properties":{"natural":"tree"}},
{"type":"Feature","geometry":{"type":"Point","coordinates":[2.0436764,46.7893988]},"properties":{"historic":"wayside_cross"}},
{"type":"Feature","geometry":{"type":"Point","coordinates":[1.9814442,46.5976675]},"properties":{"leisure":"picnic_table"}},
{"type":"Feature","geometry":{"type":"Point","coordinates":[1.9791613,46.6002719]},"properties":{"leisure":"picnic_table"}},
{"type":"Feature","geometry":{"type":"Point","coordinates":[1.9931447,46.5689999]},"properties":{"tourism":"picnic_site"}},
{"type":"Feature","geometry":{"type":"Point","coordinates":[1.994599,46.7229167]},"properties":{"historic":"wayside_cross"}},
{"type":"Feature","geometry":{"type":"Point","coordinates":[2.0159309,46.6573093]},"properties":{"leisure":"pitch","sport":"table_tennis"}},
{"type":"Feature","geometry":{"type":"Point","coordinates":[2.0195531,46.6570822]},"properties":{"addr:city":"Verneuil-sur-Igneraie","addr:housenumber":"44","addr:postcode":"36400","addr:street":"Rue des Potiers","bar":"yes","contact:phone":"+33 9 70 35 54 95","name":"Bar Hôtel Restaurant Prévautel","tobacco":"yes","tourism":"hotel","website":"https://www.prev-hotel.fr/"}},
{"type":"Feature","geometry":{"type":"Point","coordinates":[2.0690111,46.6376266]},"properties":{"board_type":"map","check_date":"2023-09-09","information":"board","tourism":"information"}},
{"type":"Feature","geometry":{"type":"Point","coordinates":[2.0360835,46.611631]},"properties":{"information":"guidepost","lit":"yes","name":"Fenwall Fresenius Kabi","note":"Panneau en pierre","tourism":"information"}},
{"type":"Feature","geometry":{"type":"Point","coordinates":[2.0026267,46.5816565]},"properties":{"access":"customers","leisure":"playground","name":"Aire de jeux Mc-Donald"}},
{"type":"Feature","geometry":{"type":"Point","coordinates":[1.9850117,46.7950546]},"properties":{"information":"guidepost","tourism":"information"}},
{"type":"Feature","geometry":{"type":"Point","coordinates":[1.9846355,46.7952255]},"properties":{"board_type":"history","information":"board","tourism":"information"}},
{"type":"Feature","geometry":{"type":"Point","coordinates":[1.9862491,46.5811937]},"properties":{"artwork_type":"sculpture","check_date":"2024-04-12","material":"steel","name":"Le chevalier avec l'âne","tourism":"artwork"}},
{"type":"Feature","geometry":{"type":"Point","coordinates":[1.9864879,46.5811187]},"properties":{"historic":"memorial","material":"metal","memorial":"plaque"}},
{"type":"Feature","geometry":{"type":"Point","coordinates":[2.0094242,46.683134]},"properties":{"alt_name":"Le Gros Chêne","circumference":"7.50","denotation":"natural_monument","genus":"Quercus","name":"Chêne des Maitres sonneurs","natural":"tree"}},
{"type":"Feature","geometry":{"type":"Point","coordinates":[1.9951982,46.5844233]},"properties":{"addr:city":"La Châtre","addr:housenumber":"13","addr:postcode":"36400","addr:street":"Avenue d'Auvergne","bar":"yes","internet_access":"yes","internet_access:fee":"customers","name":"Berry Hotel","phone":"+33254306035","rooms":"8","stars":"0","tourism":"hotel","website":"https://hotelmania.net/hotel/montgivray/berry-hotel-la-chatre/"}},
{"type":"Feature","geometry":{"type":"Point","coordinates":[1.9868876,46.5836718]},"properties":{"natural":"tree"}},
{"type":"Feature","geometry":{"type":"Point","coordinates":[1.9793771,46.5826754]},"properties":{"artwork_type":"mural","name":"Le sport pour tous !","tourism":"artwork"}},
{"type":"Feature","geometry":{"type":"Point","coordinates":[2.0013714,46.580848]},"properties":{"addr:city":"La Châtre","addr:postcode":"36400","addr:street":"Rue des Mirebeaux","leisure":"fitness_centre","name":"Form and Fitness","opening_hours":"Mo-Su 07:00-22:00","phone":"+33254481095","sport":"fitness","website":"http://www.formandfitness.fr/"}},
{"type":"Feature","geometry":{"type":"Point","coordinates":[2.2000055,46.6217913]},"properties":{"historic":"wayside_cross"}},
{"type":"Feature","geometry":{"type":"Point","coordinates":[1.9892664,46.5853856]},"properties":{"information":"terminal","internet_access:fee":"no","land_property":"public","legal_type:FR":"JEI","luminous:colour":"orange","message":"municipality","operator":"Ville de La Châtre","tourism":"information","visibility":"street"}},
{"type":"Feature","geometry":{"type":"Point","coordinates":[2.1638767,46.566795]},"properties":{"historic":"memorial","inscription":"WW2 memorial to 3 parachutists April 6, 1944. Executed in Buchenwald, September 14 1944."}},
{"type":"Feature","geometry":{"type":"Point","coordinates":[2.1780982,46.7528119]},"properties":{"natural":"tree"}},
{"type":"Feature","geometry":{"type":"Point","coordinates":[2.1781786,46.7528292]},"properties":{"natural":"tree"}},
{"type":"Feature","geometry":{"type":"Point","coordinates":[2.1782057,46.7527459]},"properties":{"natural":"tree"}},
{"type":"Feature","geometry":{"type":"Point","coordinates":[2.1781178,46.7527395]},"properties":{"natural":"tree"}},
{"type":"Feature","geometry":{"type":"Point","coordinates":[2.1783133,46.7528536]},"properties":{"natural":"tree"}},
{"type":"Feature","geometry":{"type":"Point","coordinates":[2.1783479,46.7527683]},"properties":{"natural":"tree"}},
{"type":"Feature","geometry":{"type":"Point","coordinates":[2.1783675,46.7526876]},"properties":{"natural":"tree"}},
{"type":"Feature","geometry":{"type":"Point","coordinates":[2.1782263,46.7526639]},"properties":{"natural":"tree"}},
{"type":"Feature","geometry":{"type":"Point","coordinates":[2.1781506,46.7526498]},"properties":{"natural":"tree"}},
{"type":"Feature","geometry":{"type":"Point","coordinates":[2.1779467,46.7527895]},"properties":{"natural":"tree"}},
{"type":"Feature","geometry":{"type":"Point","coordinates":[2.1779775,46.7527107]},"properties":{"natural":"tree"}},
{"type":"Feature","geometry":{"type":"Point","coordinates":[2.1780028,46.7526261]},"properties":{"natural":"tree"}},
{"type":"Feature","geometry":{"type":"Point","coordinates":[2.1782637,46.7525838]},"properties":{"natural":"tree"}},
{"type":"Feature","geometry":{"type":"Point","coordinates":[2.1781552,46.7525697]},"properties":{"natural":"tree"}},
{"type":"Feature","geometry":{"type":"Point","coordinates":[2.1780196,46.7525415]},"properties":{"natural":"tree"}},
{"type":"Feature","geometry":{"type":"Point","coordinates":[2.1784358,46.752446]},"properties":{"natural":"tree"}},
{"type":"Feature","geometry":{"type":"Point","coordinates":[2.1784639,46.7523691]},"properties":{"natural":"tree"}},
{"type":"Feature","geometry":{"type":"Point","coordinates":[2.1786406,46.7521961]},"properties":{"natural":"tree"}},
{"type":"Feature","geometry":{"type":"Point","coordinates":[2.1784003,46.7525998]},"properties":{"natural":"tree"}},
{"type":"Feature","geometry":{"type":"Point","coordinates":[2.1789454,46.7527984]},"properties":{"natural":"tree"}},
{"type":"Feature","geometry":{"type":"Point","coordinates":[2.1744542,46.7502239]},"properties":{"natural":"tree"}},
{"type":"Feature","geometry":{"type":"Point","coordinates":[2.1744181,46.7502992]},"properties":{"natural":"tree"}},
{"type":"Feature","geometry":{"type":"Point","coordinates":[2.174355,46.7504313]},"properties":{"natural":"tree"}},
{"type":"Feature","geometry":{"type":"Point","coordinates":[2.1743103,46.7505255]},"properties":{"natural":"tree"}},
{"type":"Feature","geometry":{"type":"Point","coordinates":[1.9759586,46.5940633]},"properties":{"natural":"tree"}},
{"type":"Feature","geometry":{"type":"Point","coordinates":[1.9760402,46.5940897]},"properties":{"natural":"tree"}},
{"type":"Feature","geometry":{"type":"Point","coordinates":[1.9869102,46.5748802]},"properties":{"natural":"tree"}},
{"type":"Feature","geometry":{"type":"Point","coordinates":[1.9864757,46.5750424]},"properties":{"natural":"tree"}},
{"type":"Feature","geometry":{"type":"Point","coordinates":[1.9863195,46.5749102]},"properties":{"natural":"tree"}},
{"type":"Feature","geometry":{"type":"Point","coordinates":[1.986298,46.5748433]},"properties":{"natural":"tree"}},
{"type":"Feature","geometry":{"type":"Point","coordinates":[1.9862584,46.5748212]},"properties":{"natural":"tree"}},
{"type":"Feature","geometry":{"type":"Point","coordinates":[1.9862243,46.5747945]},"properties":{"natural":"tree"}},
{"type":"Feature","geometry":{"type":"Point","coordinates":[1.9861605,46.5747783]},"properties":{"natural":"tree"}},
{"type":"Feature","geometry":{"type":"Point","coordinates":[1.9859788,46.5746423]},"properties":{"natural":"tree"}},
{"type":"Feature","geometry":{"type":"Point","coordinates":[2.1458302,46.5973392]},"properties":{"natural":"tree"}},
{"type":"Feature","geometry":{"type":"Point","coordinates":[2.1458639,46.5809248]},"properties":{"natural":"tree"}},
{"type":"Feature","geometry":{"type":"Point","coordinates":[1.9943551,46.5844096]},"properties":{"natural":"tree"}},
{"type":"Feature","geometry":{"type":"Point","coordinates":[1.9944136,46.5843636]},"properties":{"natural":"tree"}},
{"type":"Feature","geometry":{"type":"Point","coordinates":[1.9825549,46.563499]},"properties":{"natural":"tree"}},
{"type":"Feature","geometry":{"type":"Point","coordinates":[1.9824414,46.5636092]},"properties":{"natural":"tree"}},
{"type":"Feature","geometry":{"type":"Point","coordinates":[1.9824477,46.5633216]},"properties":{"natural":"tree"}},
{"type":"Feature","geometry":{"type":"Point","coordinates":[1.9827685,46.5638334]},"properties":{"natural":"tree"}},
{"type":"Feature","geometry":{"type":"Point","coordinates":[1.9829699,46.5636267]},"properties":{"natural":"tree"}},
{"type":"Feature","geometry":{"type":"Point","coordinates":[1.983207,46.56368]},"properties":{"natural":"tree"}},
{"type":"Feature","geometry":{"type":"Point","coordinates":[1.9834088,46.5851676]},"properties":{"natural":"tree"}},
{"type":"Feature","geometry":{"type":"Point","coordinates":[2.1853855,46.7932743]},"properties":{"natural":"tree"}},
{"type":"Feature","geometry":{"type":"Point","coordinates":[2.1850931,46.7931568]},"properties":{"natural":"tree"}},
{"type":"Feature","geometry":{"type":"Point","coordinates":[2.1842853,46.7926633]},"properties":{"natural":"tree"}},
{"type":"Feature","geometry":{"type":"Point","coordinates":[2.1844085,46.7927242]},"properties":{"natural":"tree"}},
{"type":"Feature","geometry":{"type":"Point","coordinates":[2.1982718,46.5625209]},"properties":{"natural":"tree"}},
{"type":"Feature","geometry":{"type":"Point","coordinates":[1.9758621,46.6512605]},"properties":{"natural":"tree"}},
{"type":"Feature","geometry":{"type":"Point","coordinates":[1.9757736,46.6513385]},"properties":{"natural":"tree"}},
{"type":"Feature","geometry":{"type":"Point","coordinates":[1.9749533,46.6519913]},"properties":{"natural":"tree"}},
{"type":"Feature","geometry":{"type":"Point","coordinates":[1.9750508,46.6519316]},"properties":{"natural":"tree"}},
{"type":"Feature","geometry":{"type":"Point","coordinates":[1.9746867,46.6522856]},"properties":{"natural":"tree"}},
{"type":"Feature","geometry":{"type":"Point","coordinates":[1.9742642,46.6522899]},"properties":{"natural":"tree"}},
{"type":"Feature","geometry":{"type":"Point","coordinates":[1.974109,46.6523988]},"properties":{"natural":"tree"}},
{"type":"Feature","geometry":{"type":"Point","coordinates":[1.9739915,46.6524711]},"properties":{"natural":"tree"}},
{"type":"Feature","geometry":{"type":"Point","coordinates":[1.9738861,46.652535]},"properties":{"natural":"tree"}},
{"type":"Feature","geometry":{"type":"Point","coordinates":[1.9749668,46.6514902]},"properties":{"natural":"tree"}},
{"type":"Feature","geometry":{"type":"Point","coordinates":[1.9747871,46.6511864]},"properties":{"natural":"tree"}},
{"type":"Feature","geometry":{"type":"Point","coordinates":[1.9755185,46.650906]},"properties":{"natural":"tree"}},
{"type":"Feature","geometry":{"type":"Point","coordinates":[1.9754059,46.6508629]},"properties":{"natural":"tree"}},
{"type":"Feature","geometry":{"type":"Point","coordinates":[1.9758863,46.6508424]},"properties":{"natural":"tree"}},
{"type":"Feature","geometry":{"type":"Point","coordinates":[1.9754173,46.6506526]},"properties":{"natural":"tree"}},
{"type":"Feature","geometry":{"type":"Point","coordinates":[1.9753119,46.6506213]},"properties":{"natural":"tree"}},
{"type":"Feature","geometry":{"type":"Point","coordinates":[1.9751294,46.6505743]},"properties":{"natural":"tree"}},
{"type":"Feature","geometry":{"type":"Point","coordinates":[1.9755613,46.6504823]},"properties":{"natural":"tree"}},
{"type":"Feature","geometry":{"type":"Point","coordinates":[1.9757883,46.6503149]},"properties":{"natural":"tree"}},
{"type":"Feature","geometry":{"type":"Point","coordinates":[1.9751645,46.6502008]},"properties":{"natural":"tree"}},
{"type":"Feature","geometry":{"type":"Point","coordinates":[1.975055,46.6503458]},"properties":{"natural":"tree"}},
{"type":"Feature","geometry":{"type":"Point","coordinates":[1.982324,46.5844429]},"properties":{"direction":"backward","highway":"stop"}},
{"type":"Feature","geometry":{"type":"Point","coordinates":[1.9807037,46.5826537]},"properties":{"direction":"forward","highway":"stop"}},
{"type":"Feature","geometry":{"type":"Point","coordinates":[2.0508261,46.6697361]},"properties":{"access":"yes","leisure":"horse_riding","name":"Domaine équestre de Calypso"}},
{"type":"Feature","geometry":{"type":"Point","coordinates":[2.1890756,46.5682348]},"properties":{"backrest":"no","colour":"brown","covered":"no","leisure":"picnic_table","material":"wood"}},
{"type":"Feature","geometry":{"type":"Point","coordinates":[2.1903041,46.5661098]},"properties":{"leisure":"pitch","sport":"boules"}},
{"type":"Feature","geometry":{"type":"Point","coordinates":[2.1874659,46.5678965]},"properties":{"backrest":"no","colour":"brown","covered":"no","leisure":"picnic_table","material":"wood"}},
{"type":"Feature","geometry":{"type":"Point","coordinates":[2.1891644,46.5682489]},"properties":{"backrest":"no","colour":"brown","covered":"yes","leisure":"picnic_table","material":"wood"}},
{"type":"Feature","geometry":{"type":"Point","coordinates":[2.1874567,46.569505]},"properties":{"access":"yes","leisure":"sports_centre","name":"Piscine intercommunale de la CDC Berry-Grand-Sud","sport":"swimming"}},
{"type":"Feature","geometry":{"type":"Point","coordinates":[1.9860656,46.5812508]},"properties":{"fee":"yes","museum":"person","name":"Musée George Sand et de la Vallée Noire","opening_hours":"Apr-Jun,Sep-Oct We-Mo 14:00-18:00; Jul-Aug Mo-Su 10:00-12:00,14:00-18:00; Nov-Dec We-Su 14:00-17:00","tourism":"museum"}},
{"type":"Feature","geometry":{"type":"Point","coordinates":[1.9853767,46.5813145]},"properties":{"leaf_type":"needleleaved","natural":"tree"}},
{"type":"Feature","geometry":{"type":"Point","coordinates":[1.9851235,46.5812468]},"properties":{"natural":"tree"}},
{"type":"Feature","geometry":{"type":"Point","coordinates":[1.9905759,46.5795983]},"properties":{"backrest":"no","colour":"brown","covered":"no","leisure":"picnic_table","material":"wood"}},
{"type":"Feature","geometry":{"type":"Point","coordinates":[1.9903969,46.5795217]},"properties":{"backrest":"no","colour":"brown","covered":"no","leisure":"picnic_table","material":"wood"}},
{"type":"Feature","geometry":{"type":"Point","coordinates":[1.9904295,46.579343]},"properties":{"leisure":"bandstand"}},
{"type":"Feature","geometry":{"type":"Point","coordinates":[1.9904035,46.5833825]},"properties":{"crossing":"marked","crossing:island":"no","crossing:markings":"yes","highway":"crossing","tactile_paving":"no"}},
{"type":"Feature","geometry":{"type":"Point","coordinates":[2.062662,46.6624731]},"properties":{"denomination":"catholic","historic":"wayside_cross","inscription":"Calvaire offert par Mr l'abbé René Debourges curé depuis 25 ans. Mr Constant Revelon maire.","material":"stone","religion":"christian","start_date":"4.9.1977"}},
{"type":"Feature","geometry":{"type":"Point","coordinates":[2.0628004,46.6607548]},"properties":{"access":"yes","leisure":"playground"}},
{"type":"Feature","geometry":{"type":"Point","coordinates":[2.0685887,46.6618098]},"properties":{"denomination":"catholic","historic":"wayside_cross","inscription":"Réédifiée à la mémoire de Michel Pommier, Maire. Priez pour lui.","material":"stone","religion":"christian","start_date":"1870"}},
{"type":"Feature","geometry":{"type":"Point","coordinates":[2.0606119,46.6610968]},"properties":{"description":"Pierre gravée : Espace René Debourges","natural":"stone"}},
{"type":"Feature","geometry":{"type":"Point","coordinates":[2.0684474,46.6624173]},"properties":{"barrier":"gate","locked":"yes","vehicle":"permit"}},
{"type":"Feature","geometry":{"type":"Point","coordinates":[2.1425636,46.6281436]},"properties":{"description":"sentiers de randonnée","information":"map","tourism":"information"}},
{"type":"Feature","geometry":{"type":"Point","coordinates":[2.1900718,46.5664894]},"properties":{"description":"Village Vacances - 5 châlets","name":"Châlets du Camping Étang Merlin","tourism":"chalet"}},
{"type":"Feature","geometry":{"type":"Point","coordinates":[2.1892506,46.565903]},"properties":{"board_type":"nature","information":"board","tourism":"information"}},
{"type":"Feature","geometry":{"type":"Point","coordinates":[2.1882385,46.5681117]},"properties":{"board_type":"notice","description":"Camping Municipal l'étang Merlin - Tarifs, plan, dives renseignements","information":"board","tourism":"information"}},
{"type":"Feature","geometry":{"type":"Point","coordinates":[2.1883971,46.568189]},"properties":{"backrest":"no","colour":"brown","covered":"yes","leisure":"picnic_table","material":"wood"}},
{"type":"Feature","geometry":{"type":"Point","coordinates":[1.9870989,46.5796126]},"properties":{"crossing":"marked","highway":"crossing","kerb":"lowered","tactile_paving":"yes"}},
{"type":"Feature","geometry":{"type":"Point","coordinates":[2.1481721,46.5695243]},"properties":{"board_type":"geography","description":"Le centre bourg de Néret","information":"board","tourism":"information"}},
{"type":"Feature","geometry":{"type":"Point","coordinates":[2.1500466,46.5691241]},"properties":{"backrest":"no","colour":"gray","covered":"no","leisure":"picnic_table","material":"stone"}},
{"type":"Feature","geometry":{"type":"Point","coordinates":[2.1501048,46.5690946]},"properties":{"historic":"memorial","memorial":"stele","name":"Justes Parmis Les Nations"}},
{"type":"Feature","geometry":{"type":"Point","coordinates":[2.1498464,46.5692277]},"properties":{"artist_name":"FO.RE.PA.BE.","artwork_type":"stone","material":"stone","name":"Parc Émilie Chenon","tourism":"artwork"}},
{"type":"Feature","geometry":{"type":"Point","coordinates":[2.1465224,46.5681155]},"properties":{"board_type":"nature","description":"Espace Naturel Sensible, le sentier de Ferrières","information":"board","name":"Lavoir","tourism":"information"}},
{"type":"Feature","geometry":{"type":"Point","coordinates":[2.090347,46.5891143]},"properties":{"historic":"wayside_cross","religion":"christian"}},
{"type":"Feature","geometry":{"type":"Point","coordinates":[2.0685242,46.5765962]},"properties":{"historic":"wayside_cross","religion":"christian"}},
{"type":"Feature","geometry":{"type":"Point","coordinates":[2.0685396,46.576423]},"properties":{"backrest":"no","colour":"brown","covered":"no","leisure":"picnic_table","material":"wood"}},
{"type":"Feature","geometry":{"type":"Point","coordinates":[2.0685478,46.5763896]},"properties":{"board_type":"geography","description":"Montlevicq","information":"board","tourism":"information"}},
{"type":"Feature","geometry":{"type":"Point","coordinates":[1.9832412,46.5815856]},"properties":{"backrest":"no","colour":"brown","covered":"no","leisure":"picnic_table","material":"wood"}},
{"type":"Feature","geometry":{"type":"Point","coordinates":[1.9829103,46.5814243]},"properties":{"backrest":"no","colour":"brown","covered":"no","leisure":"picnic_table","material":"wood"}},
{"type":"Feature","geometry":{"type":"Point","coordinates":[1.9851891,46.5816196]},"properties":{"crossing":"marked","crossing:island":"no","crossing:markings":"zebra","highway":"crossing","kerb":"flush","tactile_paving":"no"}},
{"type":"Feature","geometry":{"type":"Point","coordinates":[1.9864111,46.5816345]},"properties":{"board_type":"rules","description":"Informations de la mairie","information":"board","tourism":"information"}},
{"type":"Feature","geometry":{"type":"Point","coordinates":[1.9873246,46.5857783]},"properties":{"board_type":"notice","description":"Le cimetière de La Châtre","information":"board","tourism":"information"}},
{"type":"Feature","geometry":{"type":"Point","coordinates":[1.9869714,46.5861427]},"properties":{"board_type":"notice","description":"Le cimetière de La Châtre","information":"board","tourism":"information"}},
{"type":"Feature","geometry":{"type":"Point","coordinates":[2.1782274,46.7525825]},"properties":{"historic":"memorial","memorial":"war_memorial","name":"Aux Enfants De Lignières Morts Pour La France"}},
{"type":"Feature","geometry":{"type":"Point","coordinates":[2.1782592,46.7523455]},"properties":{"board_type":"geography","description":"Plan de Lignières","information":"board","tourism":"information"}},
{"type":"Feature","geometry":{"type":"Point","coordinates":[2.1861276,46.7543858]},"properties":{"historic":"wayside_cross","religion":"christian"}},
{"type":"Feature","geometry":{"type":"Point","coordinates":[1.9861731,46.5813642]},"properties":{"board_type":"geography","description":"Les randonnées pédestres au pays de Georges Sand - La Châtre","information":"board","tourism":"information"}},
{"type":"Feature","geometry":{"type":"Point","coordinates":[2.1872363,46.5680169]},"properties":{"backrest":"no","colour":"brown","covered":"no","leisure":"picnic_table","material":"wood"}},
{"type":"Feature","geometry":{"type":"Point","coordinates":[2.1548623,46.5702441]},"properties":{"backrest":"no","colour":"brown","covered":"no","leisure":"picnic_table","material":"wood"}},
{"type":"Feature","geometry":{"type":"Point","coordinates":[1.9910669,46.5787357]},"properties":{"board_type":"geography","description":"Compostelle par Vézelay - GR654","information":"board","tourism":"information"}},
{"type":"Feature","geometry":{"type":"Point","coordinates":[1.9900684,46.5792091]},"properties":{"leisure":"picnic_table"}},
{"type":"Feature","geometry":{"type":"Point","coordinates":[1.9883827,46.5791885]},"properties":{"artwork_subject":"Vierge à l'enfant","artwork_type":"sculpture","material":"stone","name":"Statue De Notre Dame","tourism":"artwork"}},
{"type":"Feature","geometry":{"type":"Point","coordinates":[1.9869771,46.5815337]},"properties":{"description":"Plan de La Châtre","information":"map","map_size":"city","map_type":"street","tourism":"information"}},
{"type":"Feature","geometry":{"type":"Point","coordinates":[1.9880018,46.580414]},"properties":{"natural":"tree"}},
{"type":"Feature","geometry":{"type":"Point","coordinates":[1.9870599,46.5807525]},"properties":{"natural":"tree"}},
{"type":"Feature","geometry":{"type":"Point","coordinates":[1.9872549,46.5807778]},"properties":{"natural":"tree"}},
{"type":"Feature","geometry":{"type":"Point","coordinates":[1.9870055,46.5807442]},"properties":{"natural":"tree"}},
{"type":"Feature","geometry":{"type":"Point","coordinates":[1.9871465,46.5807674]},"properties":{"natural":"tree"}},
{"type":"Feature","geometry":{"type":"Point","coordinates":[1.9880117,46.5802929]},"properties":{"natural":"tree"}},
{"type":"Feature","geometry":{"type":"Point","coordinates":[1.9871916,46.5807794]},"properties":{"natural":"tree"}},
{"type":"Feature","geometry":{"type":"Point","coordinates":[2.1893919,46.5660183]},"properties":{"capacity:persons":"40","name":"Gite de groupe","tourism":"chalet"}},
{"type":"Feature","geometry":{"type":"Point","coordinates":[1.9847405,46.7953357]},"properties":{"leaf_cycle":"semi_deciduous","leaf_type":"broadleaved","natural":"tree"}},
{"type":"Feature","geometry":{"type":"Point","coordinates":[1.9847056,46.7952979]},"properties":{"leaf_cycle":"semi_deciduous","leaf_type":"broadleaved","natural":"tree"}},
{"type":"Feature","geometry":{"type":"Point","coordinates":[1.9846609,46.7952518]},"properties":{"leaf_cycle":"semi_deciduous","leaf_type":"broadleaved","natural":"tree"}},
{"type":"Feature","geometry":{"type":"Point","coordinates":[1.9846203,46.7952123]},"properties":{"leaf_cycle":"semi_deciduous","leaf_type":"broadleaved","natural":"tree"}},
{"type":"Feature","geometry":{"type":"Point","coordinates":[1.9828582,46.7947759]},"properties":{"leisure":"picnic_table"}},
{"type":"Feature","geometry":{"type":"Point","coordinates":[1.982941,46.7946236]},"properties":{"leisure":"picnic_table"}},
{"type":"Feature","geometry":{"type":"Point","coordinates":[1.9830735,46.7945729]},"properties":{"leisure":"picnic_table"}},
{"type":"Feature","geometry":{"type":"Point","coordinates":[1.9833746,46.7945863]},"properties":{"leisure":"picnic_table"}},
{"type":"Feature","geometry":{"type":"Point","coordinates":[2.0153299,46.7626417]},"properties":{"name":"Maison l'Aventure","tourism":"guest_house","website":"https://maisonlaventure.be/"}},
{"type":"Feature","geometry":{"type":"Point","coordinates":[2.1350987,46.7421366]},"properties":{"denomination":"catholic","historic":"wayside_cross","religion":"christian"}},
{"type":"Feature","geometry":{"type":"Point","coordinates":[2.0458375,46.734299]},"properties":{"denomination":"catholic","historic":"wayside_cross","religion":"christian"}},
{"type":"Feature","geometry":{"type":"Point","coordinates":[2.0187774,46.7392154]},"properties":{"historic":"memorial","memorial":"war_memorial"}},
{"type":"Feature","geometry":{"type":"Point","coordinates":[2.0188176,46.7392113]},"properties":{"historic":"wayside_cross"}},
{"type":"Feature","geometry":{"type":"Point","coordinates":[2.0004541,46.7074386]},"properties":{"direction":"forward","highway":"stop"}},
{"type":"Feature","geometry":{"type":"Point","coordinates":[1.9765131,46.6476188]},"properties":{"information":"map","map_type":"scheme","tourism":"information"}},
{"type":"Feature","geometry":{"type":"Point","coordinates":[1.9767049,46.6477431]},"properties":{"information":"map","map_type":"scheme","tourism":"information"}},
{"type":"Feature","geometry":{"type":"Point","coordinates":[2.0048833,46.6511658]},"properties":{"denomination":"catholic","historic":"wayside_cross","religion":"christian"}},
{"type":"Feature","geometry":{"type":"Point","coordinates":[2.0052754,46.6507917]},"properties":{"tourism":"picnic_site"}},
{"type":"Feature","geometry":{"type":"Point","coordinates":[2.1962697,46.5647133]},"properties":{"historic":"wayside_cross"}},
{"type":"Feature","geometry":{"type":"Point","coordinates":[2.0804308,46.7806285]},"properties":{"historic":"wayside_cross"}},
{"type":"Feature","geometry":{"type":"Point","coordinates":[2.1325141,46.7605111]},"properties":{"historic":"wayside_cross"}},
{"type":"Feature","geometry":{"type":"Point","coordinates":[2.0001453,46.6004531]},"properties":{"natural":"tree"}},
{"type":"Feature","geometry":{"type":"Point","coordinates":[2.0000972,46.600393]},"properties":{"addr:city":"Montgivray","name":"Monument au pilote d'avion et de course automobile André Boillot","tourism":"attraction","website":"https://www.aerosteles.net/steleen-montgivray-boillot"}},
{"type":"Feature","geometry":{"type":"Point","coordinates":[2.025473,46.586486]},"properties":{"historic":"castle","name":"Château des Aubiers"}},
{"type":"Feature","geometry":{"type":"LineString","coordinates":[[2.1645868,46.7657428],[2.1636388,46.7655022],[2.1639553,46.7651384],[2.1642289,46.7646846],[2.1646661,46.7642584],[2.1650147,46.7638578],[2.1653634,46.7632754],[2.1654841,46.7628656],[2.1656479,46.7624048],[2.1658489,46.7620701],[2.1660769,46.7618092],[2.1663612,46.7616603],[2.1704,46.7619576],[2.1700734,46.7634058],[2.1743596,46.7638688],[2.1749657,46.7639497],[2.1753815,46.7641077],[2.1742362,46.7659156],[2.1737748,46.7663602],[2.173638,46.766599],[2.1731901,46.766713],[2.173233,46.7674074],[2.1721601,46.7673597],[2.1720958,46.7670841],[2.1715057,46.7672347],[2.1714762,46.767435],[2.1712965,46.7675471],[2.1716157,46.7676242],[2.1719617,46.7678594],[2.1718168,46.7679145],[2.1719027,46.7680817],[2.1718383,46.7682158],[2.1709773,46.7682838],[2.170862,46.7682415],[2.1707144,46.7685502],[2.1673778,46.7677528],[2.1671337,46.768293],[2.166447,46.768146],[2.1662861,46.7680504],[2.1662539,46.7679035],[2.1663129,46.7677528],[2.166388,46.7676022],[2.1663827,46.7675066],[2.1662807,46.7674515],[2.1659696,46.767378],[2.1658248,46.7673009],[2.1657979,46.767198],[2.1658409,46.7670694],[2.1660125,46.766731299999999],[2.1661198,46.7666652],[2.166211,46.7666248],[2.1664202,46.7662077],[2.1645868,46.7657428]]},"properties":{"leisure":"sports_centre","name":"Hippodrome de Lignières","sport":"horse_racing","wikidata":"Q109038790"}},
{"type":"Feature","geometry":{"type":"LineString","coordinates":[[2.0605151,46.5713906],[2.0608766,46.5718777],[2.0608089,46.5723771],[2.0608511,46.5725392],[2.0605547,46.572466],[2.0597253,46.5726714],[2.0590889,46.5728676],[2.0588863,46.5729827],[2.058095,46.5727881],[2.0579,46.5725783],[2.0578008,46.5723492],[2.0579372,46.5719099],[2.0583275,46.5714532],[2.0592703,46.5712895],[2.0602526,46.5713825],[2.0598467,46.5707355],[2.0594144,46.5700653],[2.0582783,46.5704324],[2.0578475,46.5706559],[2.0576195,46.5705759],[2.0575266,46.5704248],[2.0574506,46.5702093],[2.0574718,46.5699945],[2.0576253,46.5697943],[2.0580307,46.569535],[2.0584221,46.5696693],[2.0589145,46.5698083],[2.0591944,46.5699403],[2.0596804,46.5698624],[2.059861,46.5696866],[2.0600195,46.5694247],[2.0602718,46.5688965],[2.0601998,46.5675009],[2.0602049,46.5665023],[2.060208,46.5663853],[2.0602603,46.5659935],[2.0606398,46.56602],[2.0618766,46.5659961],[2.0630625,46.5658547],[2.0632266,46.5658622],[2.0632643,46.5657797],[2.0631245,46.5656841],[2.0632593,46.5656596],[2.0634105,46.5657012],[2.0633789,46.565833],[2.0637607,46.566056],[2.0642631,46.5661676],[2.0676458,46.5663063],[2.0674804,46.5665389],[2.0649169,46.5671024],[2.0629992,46.566732],[2.0626258,46.5673108],[2.0619846,46.5680237],[2.0606002,46.5693855],[2.0608786,46.5695191],[2.0616259,46.5693937],[2.0633101,46.5692493],[2.0634686,46.569464],[2.0643809,46.5692632],[2.0662793,46.5699652],[2.0664761,46.5699601],[2.0663911,46.5703744],[2.0644482,46.5697661],[2.0641543,46.5696388],[2.0634527,46.5697834],[2.0635091,46.5701197],[2.0641714,46.5703414],[2.0644094,46.5705329],[2.0642452,46.5706886],[2.0633731,46.5707763],[2.0633003,46.5710448],[2.0630548,46.5711609],[2.0627677,46.5712069],[2.0625169,46.5712975],[2.0624938,46.5713914],[2.063304,46.5722939],[2.0643941,46.5728885],[2.0642757,46.5731992],[2.0641905,46.5730588],[2.0636924,46.5728049],[2.0628684,46.5723629],[2.0627348,46.5720972],[2.0623656,46.5717752],[2.0619135,46.5713879],[2.0616514,46.5710043],[2.0611446,46.5708],[2.0607861,46.5705848],[2.0605925,46.5700728],[2.060232,46.5699856],[2.0599898,46.5702317],[2.059998,46.5706589],[2.0605151,46.5713906]]},"properties":{"natural":"wood"}},
{"type":"Feature","geometry":{"type":"LineString","coordinates":[[1.9948175,46.5839843],[1.9947062,46.5839618],[1.9939211,46.5836891],[1.9937658,46.5836284],[1.9934273,46.5834961],[1.9929807,46.5833216]]},"properties":{"cycleway:both":"no","highway":"unclassified","lane_markings":"no","name":"Rue du Maquis","surface":"asphalt"}},
{"type":"Feature","geometry":{"type":"LineString","coordinates":[[1.9971632,46.5685575],[1.9974009,46.5685546],[1.9980403,46.5684973],[1.9981977,46.5684366],[1.9985863,46.568206],[1.9988365,46.568338],[2.0002115,46.56745],[1.9984829,46.5671362],[1.9973396,46.5672491],[1.9971438,46.5684348],[1.9971632,46.5685575]]},"properties":{"caravans":"yes","name":"Val Vert en Berry","tents":"yes","tourism":"camp_site"}},
{"type":"Feature","geometry":{"type":"LineString","coordinates":[[2.0148887,46.6832982],[2.0141554,46.6838134],[2.0137991,46.6829847],[2.0143309,46.6825956],[2.0147285,46.6822992],[2.0148125,46.6822378],[2.014712,46.6820012],[2.0146418,46.6818401],[2.0145983,46.6816479],[2.0146068,46.6815313],[2.01466,46.6813485],[2.0148713,46.6802884],[2.0149707,46.6796245],[2.012476,46.6729932],[2.0122561,46.6724518],[2.0113762,46.6700166],[2.0109927,46.6684746],[2.0104051,46.6685848],[2.0091224,46.6677917],[2.0080742,46.6670767],[2.0066467,46.6662291],[2.0061712,46.6659803],[2.0050102,46.6658553],[2.0047989,46.6647762],[2.0039979,46.6648181],[2.0036027,46.6629608],[2.0023849,46.6638037],[2.0013741,46.6637949],[1.9999887,46.664389],[1.9992894,46.6650983],[1.9994801,46.6661514],[1.9989953,46.6664317],[1.9979321,46.6673469],[1.9977867,46.6681062],[1.9980721,46.6689295],[1.998955,46.6693527],[2.0023061,46.6719257],[2.0023162,46.6730262],[2.0019317,46.6742293],[2.002013,46.6746526],[2.0003368,46.6754817],[1.9999373,46.6765869],[2.0000668,46.6771118],[2.0045113,46.6814835],[2.0048132,46.6821488],[2.0045193,46.6827368],[2.0036014,46.6844575],[2.0069068,46.6849365],[2.0100689,46.685346],[2.0120346,46.6858575],[2.0122956,46.686002],[2.0124396,46.6861016],[2.0124923,46.6861763],[2.0124589,46.6863005],[2.0123813,46.6864324],[2.0123113,46.6866011],[2.0118183,46.6884275],[2.0118192,46.6884791],[2.011852,46.688513],[2.0118869,46.6885362],[2.01194,46.6885536],[2.0119935,46.6885977],[2.0120288,46.6886623],[2.0120467,46.688705],[2.0120805,46.6887426],[2.0121308,46.6887614],[2.0133068,46.6889247],[2.0133517,46.6891891],[2.0140717,46.6892385],[2.0144017,46.6881397],[2.0150281,46.6867436],[2.0150399,46.6866679],[2.014999,46.6865848],[2.0149392,46.686492200000007],[2.0146543,46.6861105],[2.0145243,46.6858703],[2.0145135,46.6858323],[2.0144393,46.6855717],[2.0143952,46.6849632],[2.0158842,46.6839822],[2.0153962,46.6836469],[2.0148887,46.6832982]]},"properties":{"CLC:code":"311","CLC:id":"FR-119077","CLC:year":"2006","landuse":"forest","leaf_type":"broadleaved","name":"Forêt de Saint-Chartier","source":"Union européenne - SOeS, CORINE Land Cover, 2006."}},
{"type":"Feature","geometry":{"type":"LineString","coordinates":[[2.1987658,46.7746647],[2.1977177,46.7779085],[2.1977784,46.7779241],[2.1985961,46.7783643],[2.1992507,46.7785143],[2.2000492,46.7787791],[2.2006701,46.7789177],[2.2016465,46.7791342],[2.2021399,46.7791247],[2.2025946,46.7789628],[2.2029282,46.7786588],[2.20288,46.7789858],[2.2038142,46.7792065],[2.204251,46.7792501],[2.2046127,46.7792796],[2.2054811,46.7790129],[2.2058036,46.7792943],[2.2061523,46.7794825],[2.2063808,46.7794464],[2.2065647,46.7793023],[2.2067282,46.7789592],[2.206855,46.7786808],[2.2070696,46.7782712],[2.2069489,46.7780563],[2.2061925,46.7777808],[2.2055192,46.7773602],[2.2050874,46.7770607],[2.2048594,46.7770295],[2.2046743,46.7769873],[2.2046475,46.7768715],[2.2047924,46.7767999],[2.205023,46.7768862],[2.2056534,46.777305],[2.2063212,46.7776596],[2.2070508,46.7779333],[2.2072324,46.7780712],[2.2072339,46.7779029],[2.207673,46.7772509],[2.2078393,46.7769019],[2.2077718,46.77635],[2.2092256,46.7759928],[2.2092831,46.7754541],[2.2091617,46.7752698],[2.2076771,46.7746436],[2.2066469,46.7742376],[2.2064283,46.774171],[2.2063039,46.7741941],[2.2057981,46.7742475],[2.2055782,46.7741373],[2.2049949,46.7738337],[2.2045455,46.7736594],[2.2040174,46.773585],[2.2010702,46.7733524],[2.2006786,46.7732973],[2.2002012,46.7733561],[2.1996111,46.7735435],[2.19908,46.7737786],[2.1989137,46.7740137],[2.1988815,46.7741644],[2.1987658,46.7746647]]},"properties":{"CLC:code":"512","CLC:id":"FR-115901","CLC:year":"2006","name":"Étang de la Chelouze","natural":"water","source":"Union européenne - SOeS, CORINE Land Cover, 2006.","water":"pond"}},
{"type":"Feature","geometry":{"type":"LineString","coordinates":[[1.9846561,46.5817596],[1.9846761,46.5817761],[1.9846901,46.5817953],[1.9846974,46.5818162],[1.9846975,46.5818377],[1.9846902,46.5818595],[1.9846756,46.5818794],[1.9846462,46.5819013],[1.9846083,46.5819158],[1.9845656,46.5819213],[1.9845226,46.5819174],[1.9844871,46.5819061],[1.9844585,46.5818889],[1.9844349,46.5818621],[1.9844255,46.5818335],[1.9844304,46.581802],[1.9844502,46.5817735],[1.9844786,46.5817531],[1.9845147,46.5817394],[1.984555,46.5817338],[1.9845959,46.5817366],[1.9846162,46.5817414],[1.9846454,46.5817533],[1.9846561,46.5817596]]},"properties":{"cycleway:right":"no","highway":"primary","junction":"roundabout","lane_markings":"no","lit":"yes","maxspeed":"50","name":"Place Jean-Louis Boncoeur","sidewalk":"right","source":"cadastre-dgi-fr source : Direction Générale des Impôts - Cadastre;mise à jour : 2010","surface":"asphalt","width":"7"}},
{"type":"Feature","geometry":{"type":"LineString","coordinates":[[1.9844255,46.5818335],[1.9842632,46.5817779]]},"properties":{"cycleway:right":"no","highway":"primary","lanes":"1","maxspeed":"50","name":"Avenue Gambetta","oneway":"yes","ref":"D 927","sidewalk":"right","source":"cadastre-dgi-fr source : Direction Générale des Impôts - Cadastre;mise à jour : 2010","surface":"asphalt","width":"4"}},
{"type":"Feature","geometry":{"type":"LineString","coordinates":[[1.9879974,46.5813391],[1.9880386,46.5813309],[1.9880552,46.5813266],[1.9880822,46.5813196],[1.9882947,46.5812659],[1.9884344,46.58122],[1.9885082,46.5811932]]},"properties":{"cycleway:both":"no","highway":"residential","lane_markings":"no","lanes":"2","lit":"yes","name":"Place Maget","sidewalk":"no","surface":"asphalt","width":"6"}},
{"type":"Feature","geometry":{"type":"LineString","coordinates":[[1.9802543,46.5771242],[1.9802136,46.5771776],[1.9801622,46.577243],[1.9801291,46.577285],[1.9801168,46.5773237],[1.9801239,46.577365],[1.9801792,46.5774516],[1.9803078,46.5775684],[1.980785,46.5778472],[1.9808489,46.5778618],[1.9808913,46.577854],[1.9809468,46.5778338],[1.9810311,46.5778012],[1.9811689,46.5776718],[1.981169,46.5776335],[1.9811574,46.5776046],[1.9809606,46.5774625],[1.9807188,46.5773371],[1.9805655,46.5771803],[1.9804988,46.5771289],[1.9804288,46.5770831],[1.9803878,46.5770733],[1.9803319,46.5770708],[1.9802862,46.5770876],[1.9802543,46.5771242]]},"properties":{"multipolygon":"inner","natural":"water","water":"lake"}},
{"type":"Feature","geometry":{"type":"LineString","coordinates":[[1.9790329,46.5763178],[1.9789951,46.5763506],[1.9789929,46.5763867],[1.9790246,46.576457],[1.9790661,46.5765193],[1.9791003,46.5765936],[1.9791496,46.5767796],[1.9791915,46.5768451],[1.9792655,46.5769315],[1.9793106,46.5770001],[1.9793642,46.5771095],[1.9794039,46.5771446],[1.9794937,46.5771664],[1.9795937,46.5771732],[1.9796705,46.5771538],[1.979727,46.5771217],[1.9797678,46.5770752],[1.9797822,46.5770588],[1.9798922,46.5769464],[1.9801429,46.5767446],[1.9802546,46.5767141],[1.9802993,46.5767018],[1.9803068,46.5766979],[1.9803083,46.5766934],[1.9803151,46.5766841],[1.9803228,46.5766735],[1.9803289,46.5766651],[1.9803002,46.5766064],[1.9802151,46.5765091],[1.9800639,46.5763952],[1.9798666,46.576292],[1.9796852,46.5761933],[1.9794565,46.5761422],[1.9793453,46.5761316],[1.9793288,46.57613],[1.9793097,46.5761487],[1.979275,46.5761826],[1.9791886,46.5762453],[1.9790329,46.5763178]]},"properties":{"multipolygon":"inner","natural":"water","water":"lake"}},
{"type":"Feature","geometry":{"type":"LineString","coordinates":[[1.9806808,46.5826199],[1.9808292,46.5825886],[1.9810638,46.5825355],[1.9811963,46.5825042],[1.9814872,46.5824389],[1.9817993,46.5823688],[1.9818562,46.5823561],[1.982382,46.5822389],[1.9825679,46.5821965]]},"properties":{"highway":"residential","maxspeed":"50","name":"Avenue George Sand","surface":"asphalt"}},
{"type":"Feature","geometry":{"type":"LineString","coordinates":[[1.9817191,46.5837792],[1.9813746,46.5833934],[1.9812735,46.5832802],[1.9811881,46.5831845],[1.9810906,46.5830753],[1.9808416,46.5827964],[1.9807037,46.5826537],[1.9806808,46.5826199]]},"properties":{"highway":"residential","name":"Rue Frédéric Chopin"}},
{"type":"Feature","geometry":{"type":"LineString","coordinates":[[2.0131115,46.5636032],[2.0127191,46.563778],[2.0122409,46.5639529],[2.0111366,46.5642488],[2.0107326,46.5643571],[2.0106402,46.5643819],[2.0099267,46.5645731],[2.0093179,46.564774],[2.0084923,46.5650465],[2.0077751,46.5653867],[2.0067148,46.5660204],[2.0061891,46.5663983],[2.005211,46.5669918],[2.0044775,46.5673037],[2.0041088,46.5674476],[2.0038953,46.5675222],[2.0036906,46.5675878],[2.0033476,46.567672],[2.0028912,46.567787],[2.0024993,46.5678914],[2.0022945,46.5679469],[2.0017865,46.568087],[2.0016898,46.5681143],[2.0013878,46.5682153],[2.0012762,46.5682563],[2.000995,46.5683752],[2.0007427,46.5685096],[2.0006631,46.5685664],[2.0004711,46.5687286],[2.0004139,46.568777],[2.0002724,46.5689611],[2.0001224,46.5692237]]},"properties":{"cycleway:both":"no","highway":"tertiary","lane_markings":"no","lanes":"2","name":"Route de Briantes","ref":"D 83a","surface":"asphalt"}},
{"type":"Feature","geometry":{"type":"LineString","coordinates":[[2.0181401,46.5603037],[2.017678,46.5605176],[2.0171866,46.5607764],[2.0156561,46.5620958],[2.015319,46.5623312],[2.0148463,46.5625953],[2.0141023,46.563011],[2.0137929,46.5631959],[2.013387,46.563462],[2.0131115,46.5636032]]},"properties":{"cycleway:both":"no","highway":"tertiary","lane_markings":"no","lanes":"2","ref":"D 83a","surface":"asphalt"}},
{"type":"Feature","geometry":{"type":"LineString","coordinates":[[1.9901251,46.5827978],[1.9901746,46.5829894],[1.9902308,46.5833543]]},"properties":{"cycleway:right":"no","highway":"unclassified","lane_markings":"no","name":"Rue Venose","oneway":"yes","surface":"asphalt","width":"5"}},
{"type":"Feature","geometry":{"type":"LineString","coordinates":[[1.9900249,46.5820617],[1.9900603,46.582379],[1.9900925,46.5826862],[1.9901251,46.5827978]]},"properties":{"cycleway:right":"no","highway":"unclassified","lane_markings":"no","name":"Rue Venose","oneway":"yes","surface":"asphalt","width":"5.5"}},
{"type":"Feature","geometry":{"type":"LineString","coordinates":[[1.990942,46.583462],[1.9908776,46.5834526],[1.9904644,46.5833924],[1.9904035,46.5833825],[1.9902308,46.5833543]]},"properties":{"cycleway:both":"no","highway":"unclassified","lane_markings":"no","name":"Rue du Maquis","oneway":"no","surface":"asphalt","width":"3.5"}},
{"type":"Feature","geometry":{"type":"LineString","coordinates":[[2.172274,46.5641017],[2.1722808,46.5640555],[2.1723197,46.5639826],[2.1723814,46.5638582],[2.172423,46.5637715],[2.1724512,46.563671],[2.1724646,46.5635271],[2.1725142,46.5635281],[2.1725652,46.5634027],[2.172651,46.5632662],[2.1726952,46.5632155],[2.1726952,46.563197],[2.1726939,46.5631786],[2.1725652,46.563126],[2.1725102,46.5631223],[2.1724418,46.5631205],[2.1723639,46.5631059],[2.1714279,46.5627673],[2.170363,46.5623608],[2.1702853,46.5623284],[2.1701847,46.5623127],[2.1701096,46.5623054],[2.17006,46.5623192],[2.1700197,46.56236],[2.1700077,46.5624234],[2.1700372,46.5624852],[2.1700788,46.5625396],[2.1700908,46.5625838],[2.1700706,46.5626264],[2.170068,46.5626714],[2.1700868,46.5627092],[2.1700773,46.5627408],[2.1700398,46.5627638],[2.1699071,46.5627609],[2.1698238,46.5627593],[2.1697904,46.5627655],[2.169773,46.5628134],[2.1698186,46.5628457],[2.1699165,46.5628817],[2.170025,46.5629178],[2.1705158,46.5630967],[2.1706031,46.5631371],[2.1706957,46.5631989],[2.1708794,46.5633353],[2.1711235,46.5635364],[2.1712965,46.5636488],[2.1716759,46.5638814],[2.1719,46.5640085],[2.1720529,46.5640859],[2.1721695,46.5641246],[2.1722487,46.5641403],[2.172274,46.5641017]]},"properties":{"name":"Étang d'Acre","natural":"water"}},
{"type":"Feature","geometry":{"type":"LineString","coordinates":[[1.9787652,46.6478523],[1.9787793,46.6477784],[1.9788441,46.6477842],[1.97883,46.6478581],[1.9787652,46.6478523]]},"properties":{"access":"yes","amenity":"lavoir","building":"yes","historic":"building","multipolygon":"outer","name":"Lavoir de la place du Maronier","shelter":"yes","water":"yes"}},
{"type":"Feature","geometry":{"type":"LineString","coordinates":[[1.9737628,46.6481897],[1.97372,46.6481356],[1.9735423,46.648202],[1.9735851,46.648256],[1.9737628,46.6481897]]},"properties":{"access":"private","historic":"wayside_shrine","source":"cadastre-dgi-fr source : Direction Générale des Impôts - Cadastre. Mise à jour : 2011"}},
{"type":"Feature","geometry":{"type":"LineString","coordinates":[[1.9791583,46.6481011],[1.9790823,46.6481812],[1.97904,46.648161],[1.9790146,46.6481488],[1.9786469,46.6479691],[1.978653,46.6479239],[1.9786550999999999,46.6479089],[1.9786572,46.6478933],[1.9786606,46.6478681],[1.9788056,46.6478823],[1.9788048,46.6479047],[1.9791583,46.6481011]]},"properties":{"access":"yes","leisure":"garden","name":"Jardin public du lavoir","source":"cadastre-dgi-fr source : Direction Générale des Impôts - Cadastre. Mise à jour : 2011"}},
{"type":"Feature","geometry":{"type":"LineString","coordinates":[[1.9768004,46.6485035],[1.976907,46.6484795],[1.9769493,46.6485683],[1.9770573,46.648544],[1.9770758,46.6485829],[1.9770678,46.6485847],[1.9768613,46.6486311],[1.9768004,46.6485035]]},"properties":{"building":"yes","email":"lacroixverte36400@gmail.com","name":"La Croix Verte","phone":"+332 54 31 02 71","rooms":"3","source":"cadastre-dgi-fr source : Direction Générale des Impôts - Cadastre. Mise à jour : 2011","tourism":"guest_house","website":"https://www.maisonlacroixverte.com/"}},
{"type":"Feature","geometry":{"type":"LineString","coordinates":[[1.9795665,46.6471183],[1.9796664,46.6471828],[1.9794855,46.6473405],[1.9793888,46.6474247],[1.9790525,46.6473089],[1.9788752,46.6474426],[1.9785512,46.6472517],[1.9787733,46.6469848],[1.9785646,46.6469],[1.9782023,46.6472795],[1.9780683,46.6471742],[1.978502,46.646698],[1.9786064,46.6467198],[1.9786325,46.6467288],[1.9789088,46.6468219],[1.9790016,46.6468524],[1.9790695,46.6468843],[1.9795665,46.6471183]]},"properties":{"leaf_type":"broadleaved","name":"Bois du maronnier","natural":"wood","source":"cadastre-dgi-fr source : Direction Générale des Impôts - Cadastre. Mise à jour : 2011"}},
{"type":"Feature","geometry":{"type":"LineString","coordinates":[[1.9737847,46.6483908],[1.9735877,46.6484118],[1.9734442,46.648377],[1.9733347,46.6483009],[1.9733051,46.6482175],[1.9733598,46.6481094],[1.9734935,46.6480395],[1.973685,46.6480024],[1.9738367,46.6480145],[1.9738538,46.6480374],[1.9738395,46.6480695],[1.9737088,46.6480857],[1.9735684,46.6480965],[1.9735113,46.6481255],[1.9734676,46.6481721],[1.9734451,46.6482282],[1.973535,46.6483135],[1.9736553,46.6483387],[1.9737867,46.6482849],[1.9739043,46.6482457],[1.973955,46.6482435],[1.9739835,46.64828],[1.9739694,46.6483066],[1.9737847,46.6483908]]},"properties":{"natural":"water","source":"cadastre-dgi-fr source : Direction Générale des Impôts - Cadastre. Mise à jour : 2011"}},
{"type":"Feature","geometry":{"type":"LineString","coordinates":[[1.9758784,46.6521483],[1.9758849,46.6519867],[1.9762727,46.652036],[1.9762689,46.6521699],[1.9758784,46.6521483]]},"properties":{"leisure":"pitch","name":"Terrain de pétanque","source":"cadastre-dgi-fr source : Direction Générale des Impôts - Cadastre. Mise à jour : 2011","sport":"boules"}},
{"type":"Feature","geometry":{"type":"LineString","coordinates":[[1.9769754,46.6739192],[1.9774327,46.6735803],[1.97681,46.6726356],[1.9753733,46.6726961],[1.9748947,46.673533],[1.9749399,46.6742765],[1.9755694,46.6742413],[1.9759586,46.6749879],[1.976289,46.6750807],[1.9771599,46.6748273],[1.9771683,46.6743864],[1.9769754,46.6739192]]},"properties":{"natural":"wood","source":"cadastre-dgi-fr source : Direction Générale des Impôts - Cadastre. Mise à jour : 2011"}},
{"type":"Feature","geometry":{"type":"LineString","coordinates":[[1.9750982,46.6785823],[1.9748375,46.6772154],[1.9744688,46.6766372],[1.9755639,46.6764511],[1.9753795,46.6771615],[1.9768643,46.6783892],[1.9754174,46.6786394],[1.9750982,46.6785823]]},"properties":{"natural":"wood","source":"cadastre-dgi-fr source : Direction Générale des Impôts - Cadastre. Mise à jour : 2011"}},
{"type":"Feature","geometry":{"type":"LineString","coordinates":[[1.9754446,46.6822223],[1.9759532,46.68224],[1.9766244,46.6806252],[1.976218,46.6805449],[1.9754446,46.6822223]]},"properties":{"natural":"wood","source":"cadastre-dgi-fr source : Direction Générale des Impôts - Cadastre. Mise à jour : 2011"}},
{"type":"Feature","geometry":{"type":"LineString","coordinates":[[1.9789124,46.6709626],[1.9794053,46.670773],[1.9790345,46.6699939],[1.9803853,46.6699244],[1.9804057,46.6688425],[1.9820814,46.6688371],[1.9824519,46.6696366],[1.9806504,46.6700186],[1.9809662,46.6705727],[1.9812791,46.6704938],[1.982303,46.6712379],[1.9820608,46.6715012],[1.9808081,46.6710918],[1.9808228,46.6707506],[1.9800042,46.670773],[1.9795654,46.6708417],[1.9796194,46.6710456],[1.9790847,46.6712601],[1.9789124,46.6709626]]},"properties":{"natural":"wood","source":"cadastre-dgi-fr source : Direction Générale des Impôts - Cadastre. Mise à jour : 2011"}},
{"type":"Feature","geometry":{"type":"LineString","coordinates":[[1.9750797,46.6628408],[1.9750311,46.6616562],[1.9757136,46.6613233],[1.9757932,46.6615036],[1.9759453,46.6628567],[1.9750797,46.6628408]]},"properties":{"natural":"wood","source":"cadastre-dgi-fr source : Direction Générale des Impôts - Cadastre. Mise à jour : 2011"}},
{"type":"Feature","geometry":{"type":"LineString","coordinates":[[1.9851542,46.6496505],[1.984814,46.6495822],[1.9848114,46.6492163],[1.9848646,46.6489097],[1.9849094,46.6485443],[1.9848372,46.6483476],[1.9853045,46.6482212],[1.9857447,46.648016],[1.9861466,46.6478302],[1.9863073,46.6483772],[1.9863314,46.648485],[1.9862929,46.6486876],[1.985594,46.648931],[1.9856619,46.6490259],[1.9857395,46.6490251],[1.9858323,46.6490398],[1.9859771,46.6490712],[1.9860848,46.6491025],[1.986245,46.6492389],[1.9859195,46.6494374],[1.9857036,46.6496152],[1.9854838,46.6496802],[1.9851542,46.6496505]]},"properties":{"natural":"wood","source":"cadastre-dgi-fr source : Direction Générale des Impôts - Cadastre. Mise à jour : 2011"}},
{"type":"Feature","geometry":{"type":"LineString","coordinates":[[1.9714509,46.671451],[1.9714767,46.6705633],[1.9717026,46.6705809],[1.971697,46.6708934],[1.9728265,46.6708865],[1.9728497,46.6712631],[1.9728114,46.6714413],[1.9727802,46.6714978],[1.9727361,46.6715229],[1.9726964,46.6715314],[1.9726014,46.6715307],[1.9725163,46.6715196],[1.9721105,46.6714822],[1.9714509,46.671451]]},"properties":{"natural":"wood","source":"cadastre-dgi-fr source : Direction Générale des Impôts - Cadastre. Mise à jour : 2011"}},
{"type":"Feature","geometry":{"type":"LineString","coordinates":[[1.9916837,46.6521074],[1.9916391,46.6524227],[1.9915858,46.6527358],[1.9925508,46.6528815],[1.9928806,46.6530021],[1.9932176,46.6532468],[1.9937747,46.6533889],[1.9937546,46.6539571],[1.9945236,46.6539312],[1.9944932,46.6535259],[1.9947506,46.6534563],[1.9947272,46.6531882],[1.9941099,46.653222],[1.9940865,46.6524378],[1.9942992,46.6524352],[1.9943829,46.6522502],[1.9916837,46.6521074]]},"properties":{"natural":"wood","source":"cadastre-dgi-fr source : Direction Générale des Impôts - Cadastre. Mise à jour : 2011"}},
{"type":"Feature","geometry":{"type":"LineString","coordinates":[[1.9703179,46.6748805],[1.9707036,46.6739449],[1.9701018,46.6737761],[1.9703476,46.6733292],[1.9707292,46.6732265],[1.9712686,46.673558],[1.9716091,46.6737407],[1.9717921,46.6741017],[1.9725557,46.6741498],[1.97256,46.6740202],[1.9731118,46.6739503],[1.9732416,46.6746129],[1.9724108,46.6746299],[1.9723569,46.6743436],[1.971871,46.6743147],[1.9712009,46.6752396],[1.9703179,46.6748805]]},"properties":{"natural":"wood","source":"cadastre-dgi-fr source : Direction Générale des Impôts - Cadastre. Mise à jour : 2011"}},
{"type":"Feature","geometry":{"type":"LineString","coordinates":[[1.9728502,46.6681235],[1.9728607,46.668065],[1.9729697,46.6674549],[1.9740622,46.6680201],[1.973876,46.6684512],[1.9733887,46.6682524],[1.9728502,46.6681235]]},"properties":{"natural":"wood","source":"cadastre-dgi-fr source : Direction Générale des Impôts - Cadastre. Mise à jour : 2011"}},
{"type":"Feature","geometry":{"type":"LineString","coordinates":[[1.9936853,46.6554708],[1.9939399,46.6547849],[1.994213,46.6548445],[1.9947033,46.6548432],[1.9947891,46.654965],[1.9946001,46.6550625],[1.994567,46.6552903],[1.9946497,46.6554893],[1.9936853,46.6554708]]},"properties":{"natural":"wood"}},
{"type":"Feature","geometry":{"type":"LineString","coordinates":[[1.9809466,46.6414716],[1.9812607,46.6412307],[1.9816772,46.6409375],[1.9818253,46.6408004],[1.9820262,46.6405965],[1.9821965,46.6404624],[1.9825979,46.6400812],[1.9828806,46.6397474],[1.9826535,46.6396055],[1.9822469,46.640016],[1.9818871,46.6404013],[1.9814727,46.6408429],[1.9812126,46.6410993],[1.9810872,46.6412208],[1.9809466,46.6414716]]},"properties":{"natural":"wood"}},
{"type":"Feature","geometry":{"type":"LineString","coordinates":[[1.981717,46.6403843],[1.9816271,46.6402629],[1.9818819,46.6399416],[1.9820731,46.6395752],[1.9829035,46.6390743],[1.9829955,46.6391329],[1.9828413,46.6392791],[1.9826415,46.6394848],[1.9825323,46.639592],[1.981717,46.6403843]]},"properties":{"natural":"wood"}},
{"type":"Feature","geometry":{"type":"LineString","coordinates":[[1.9968585,46.6552595],[1.9968702,46.6545571],[1.9971585,46.6545398],[1.9971808,46.6533403],[1.9981938,46.6533777],[1.9983867,46.6538202],[1.9984837,46.6543762],[1.9979676,46.6543883],[1.9979236,46.655224],[1.9973963,46.6552445],[1.9968585,46.6552595]]},"properties":{"natural":"wood","source":"cadastre-dgi-fr source : Direction Générale des Impôts - Cadastre. Mise à jour : 2011"}},
{"type":"Feature","geometry":{"type":"LineString","coordinates":[[1.9936295,46.6574741],[1.9918814,46.6575825],[1.9917837,46.6570363],[1.9912437,46.6570315],[1.9910163,46.6566825],[1.9902256,46.6566135],[1.990696,46.6564814],[1.9906988,46.6563327],[1.9911487,46.6563367],[1.9911169,46.6561133],[1.994276,46.6565874],[1.9941043,46.6571065],[1.9936295,46.6574741]]},"properties":{"natural":"wood"}},
{"type":"Feature","geometry":{"type":"LineString","coordinates":[[1.9911682,46.6553197],[1.9914644,46.6541127],[1.9926141,46.6542319],[1.9922098,46.6550612],[1.9925404,46.6550939],[1.9924178,46.6554894],[1.9911682,46.6553197]]},"properties":{"natural":"wood"}},
{"type":"Feature","geometry":{"type":"LineString","coordinates":[[1.9947272,46.6567393],[1.9950019,46.6559088],[1.9958609,46.6561742],[1.9953875,46.6568542],[1.9947272,46.6567393]]},"properties":{"natural":"wood"}},
{"type":"Feature","geometry":{"type":"LineString","coordinates":[[1.9851976,46.6379768],[1.9861054,46.6384599],[1.9863923,46.638306],[1.9856219,46.637852],[1.9857299,46.6377188],[1.9855704,46.6375665],[1.9852723,46.6374576],[1.9843065,46.6383265],[1.9841464,46.6386437],[1.9848939,46.6381585],[1.9851976,46.6379768]]},"properties":{"natural":"wood","source":"cadastre-dgi-fr source : Direction Générale des Impôts - Cadastre. Mise à jour : 2011"}},
{"type":"Feature","geometry":{"type":"LineString","coordinates":[[1.9879283,46.64649],[1.9886814,46.6470942],[1.9892549,46.646968],[1.9892737,46.6466459],[1.9895702,46.6465875],[1.9898934,46.6467894],[1.990301,46.6464088],[1.9901152,46.6463764],[1.9892847,46.6459089],[1.98948,46.6458013],[1.9894101,46.6457305],[1.989749,46.6456601],[1.9896786,46.6456255],[1.9895209,46.6455971],[1.9893903,46.6456005],[1.9888046,46.6457565],[1.9880336,46.6459849],[1.9881708,46.6463397],[1.9881644,46.6463862],[1.9881349,46.6464245],[1.9880316,46.646461],[1.9879283,46.64649]]},"properties":{"name":"Bois du Caroir de la Place","natural":"wood","source":"cadastre-dgi-fr source : Direction Générale des Impôts - Cadastre. Mise à jour : 2011"}},
{"type":"Feature","geometry":{"type":"LineString","coordinates":[[2.0073507,46.7014861],[2.0073556,46.7014941],[2.0073666,46.7015028],[2.0073873,46.701509],[2.0074092,46.7015117],[2.0074551,46.7015135],[2.0076113,46.7015148],[2.0085374,46.7015229],[2.0096301,46.7015324],[2.0096473,46.7015326],[2.009661,46.7015305],[2.0096656,46.7015287],[2.0096724,46.7015248],[2.009674,46.70152],[2.0096725,46.7015137],[2.0096694,46.7015064],[2.0096629,46.7014984],[2.0094264,46.7012596],[2.0094075,46.7012316],[2.009405,46.7011996],[2.0094346,46.7006761],[2.0095149,46.6996646],[2.0095154,46.699652],[2.0095122,46.6996414],[2.0095068,46.6996379],[2.0094984,46.6996357],[2.0094873,46.6996354],[2.0094762,46.6996374],[2.0093404,46.6996826],[2.0093329,46.6996861],[2.0093271,46.6996902],[2.0093235,46.6996956],[2.0093224,46.6997015],[2.0092868,46.699975],[2.0092854,46.6999865],[2.0092603,46.7003378],[2.0092244,46.7005641],[2.0092135,46.7005922],[2.0091966,46.7006109],[2.009178,46.7006186],[2.0091522,46.7006243],[2.0091313,46.7006253],[2.0090911,46.7006171],[2.0090644,46.700603],[2.0090456,46.7005716],[2.0090409,46.7005401],[2.0090551,46.7003487],[2.0090518,46.7000886],[2.0090501,46.7000386],[2.0090475,46.6999464],[2.0090569,46.6998126],[2.0090582,46.6997874],[2.0090545,46.6997622],[2.0090401,46.6997503],[2.0090082,46.6997452],[2.0089644,46.6997472],[2.0089338,46.6997581],[2.0089158,46.6997728],[2.008752,46.6999733],[2.0087241,46.7000105],[2.0087111,46.7000517],[2.0086714,46.7002496],[2.0085372,46.700588],[2.0085051,46.700641],[2.0084566,46.7006895],[2.0080798,46.7009738],[2.0075443,46.701328],[2.007451,46.7013994],[2.0073651,46.7014631],[2.0073547,46.7014741],[2.0073507,46.7014861]]},"properties":{"name":"Étang de Civrenne","natural":"water","source":"cadastre-dgi-fr source : Direction Générale des Impôts - Cadastre. Mise à jour : 2011;Étang de Civrenne","water":"pond","wikidata":"Q61986643","wikipedia":"fr:Étang Civrenne"}},
{"type":"Feature","geometry":{"type":"LineString","coordinates":[[2.0087492,46.6991715],[2.008691,46.6991755],[2.0086327,46.6991866],[2.0085659,46.6991849],[2.0085208,46.699182],[2.0079031,46.6991369],[2.0078304,46.6991215],[2.007776,46.6990989],[2.0077406,46.6990756],[2.0077266,46.6990511],[2.0077461,46.6990221],[2.0077891,46.6989939],[2.00787,46.6989589],[2.0079063,46.6989431],[2.0079242,46.6989261],[2.007942,46.698899],[2.0079599,46.6988464],[2.0080072,46.6986443],[2.0081059,46.6979724],[2.0081157,46.6979316],[2.0081402,46.6979087],[2.0081956,46.6978885],[2.0082511,46.6978883],[2.0083044,46.6978918],[2.0086269,46.6979575],[2.0089331,46.6980417],[2.0092964,46.6981707],[2.0094596,46.6982497],[2.0097726,46.6984105],[2.0098281,46.698457],[2.0098878,46.6985227],[2.0099305,46.6985962],[2.0100445,46.6988293],[2.0100543,46.6988579],[2.0100654,46.6988978],[2.0100991,46.6991568],[2.0101008,46.6991915],[2.0100973,46.699209],[2.0100879,46.6992252],[2.0100743,46.6992443],[2.010052,46.6992578],[2.0100259,46.6992643],[2.0099833,46.6992682],[2.0099408,46.6992663],[2.0095888,46.6992247],[2.0088789,46.6991798],[2.0087492,46.6991715]]},"properties":{"natural":"water","source":"cadastre-dgi-fr source : Direction Générale des Impôts - Cadastre. Mise à jour : 2011;BDOrtho IGN 2020","water":"pond"}},
{"type":"Feature","geometry":{"type":"LineString","coordinates":[[2.0069929,46.7055899],[2.0069778,46.7056467],[2.0069837,46.7056823],[2.0069992,46.7057138],[2.0070309,46.7057367],[2.0070861,46.705747],[2.0071734,46.7057384],[2.0073106,46.7057108],[2.0074192,46.7056965],[2.0075041,46.7056932],[2.0075751,46.705699],[2.0076065,46.7057084],[2.0076238,46.7057229],[2.0076339,46.7057364],[2.0076465,46.7057431],[2.0076821,46.7057465],[2.0077129,46.7057476],[2.0078326,46.7057414],[2.0079,46.7057211],[2.0079524,46.7056921],[2.0080115,46.7056802],[2.0080605,46.7056787],[2.0085918,46.7056542],[2.0089688,46.7056413],[2.0090192,46.7056346],[2.0090714,46.7056245],[2.0092376,46.7055807],[2.0092535,46.7055737],[2.0092694,46.7055635],[2.0092772,46.7055416],[2.0092802,46.7055173],[2.0092755,46.7055021],[2.0092672,46.7054868],[2.009257,46.7054786],[2.0092399,46.7054728],[2.0090648,46.7054228],[2.0090342,46.7054126],[2.0090092,46.7053998],[2.0089918,46.7053873],[2.0089782,46.7053721],[2.0087508,46.7051394],[2.0087332,46.7051213],[2.0087136,46.7050941],[2.0084858,46.704738999999999],[2.0083549,46.7044602],[2.0083301,46.70438],[2.0083129,46.7043247],[2.0083052,46.7042998],[2.0082888,46.7042709],[2.0082586,46.7042419],[2.0082112,46.7042158],[2.0081187,46.7041896],[2.0080094,46.7041805],[2.0078917,46.704188],[2.0078025,46.7042079],[2.0077222,46.7042357],[2.0076644,46.7042585],[2.0076164,46.7042894],[2.0075634,46.7043296],[2.0075039,46.7043905],[2.0074519,46.704449],[2.0074116,46.7045128],[2.0073468,46.7046566],[2.0072867,46.7048487],[2.0072483,46.7050028],[2.007221,46.7050774],[2.0070927,46.7053545],[2.0069929,46.7055899]]},"properties":{"natural":"water","source":"cadastre-dgi-fr source : Direction Générale des Impôts - Cadastre. Mise à jour : 2011;BDOrtho IGN 2020","water":"pond"}},
{"type":"Feature","geometry":{"type":"LineString","coordinates":[[1.9979535,46.647626],[1.9979463,46.6475783],[1.9979999,46.6475395],[1.9980892,46.6475571],[1.9980787,46.6476094],[1.9980144,46.6476387],[1.9980161,46.6476191],[1.9979535,46.647626]]},"properties":{"natural":"water","source":"cadastre-dgi-fr source : Direction Générale des Impôts - Cadastre. Mise à jour : 2011"}},