{"type":"FeatureCollection","features":[
{"type":"Feature","geometry":{"type":"Point","coordinates":[4.1723033,44.2659911]},"properties":{"building":"yes","heritage":"3","heritage:operator":"mhs","historic":"castle","mhs:inscription_date":"1997-07-25","name":"Château de Montalet","ref:mhs":"PA30000005","source:heritage":"data.gouv.fr, Ministère de la Culture - 2016","wikidata":"Q2969942","wikipedia":"fr:Château de Montalet (Molières-sur-Cèze)"}},
{"type":"Feature","geometry":{"type":"Point","coordinates":[4.1676782,44.3101964]},"properties":{"name":"Grotte de la Cocalière","natural":"cave_entrance","tourism":"attraction","wikidata":"Q3117188"}},
{"type":"Feature","geometry":{"type":"Point","coordinates":[4.1918923,44.4019365]},"properties":{"source":"cadastre-dgi-fr source : Direction Générale des Impôts - Cadastre. Mise à jour : 2009"}},
{"type":"Feature","geometry":{"type":"Point","coordinates":[4.1923835,44.401105]},"properties":{"source":"cadastre-dgi-fr source : Direction Générale des Impôts - Cadastre. Mise à jour : 2009"}},
{"type":"Feature","geometry":{"type":"Point","coordinates":[4.1911928,44.3958224]},"properties":{"hiking":"yes","information":"guidepost","mtb":"yes","tourism":"information"}},
{"type":"Feature","geometry":{"type":"Point","coordinates":[4.1905599,44.4015041]},"properties":{"description":"Belvédère","tourism":"viewpoint"}},
{"type":"Feature","geometry":{"type":"Point","coordinates":[4.15569,44.3685]},"properties":{"natural":"spring"}},
{"type":"Feature","geometry":{"type":"Point","coordinates":[4.1339947,44.3959498]},"properties":{"natural":"spring"}},
{"type":"Feature","geometry":{"type":"Point","coordinates":[4.1035271,44.396418]},"properties":{"name":"Trou 074 (entrée artificielle de la fontaine de Champclos)","natural":"cave_entrance"}},
{"type":"Feature","geometry":{"type":"Point","coordinates":[4.1619666,44.3226544]},"properties":{"name":"Goule de Sauvas","natural":"cave_entrance"}},
{"type":"Feature","geometry":{"type":"Point","coordinates":[4.2997608,44.4258841]},"properties":{"historic":"memorial","memorial":"war_memorial","ref:FR:MemorialGenWeb":"50126","source":"BDTopo IGN"}},
{"type":"Feature","geometry":{"type":"Point","coordinates":[4.2965067,44.4273748]},"properties":{"historic":"wayside_cross"}},
{"type":"Feature","geometry":{"type":"Point","coordinates":[4.302001,44.4259955]},"properties":{"historic":"wayside_cross"}},
{"type":"Feature","geometry":{"type":"Point","coordinates":[4.1993069,44.3972068]},"properties":{"tourism":"viewpoint"}},
{"type":"Feature","geometry":{"type":"Point","coordinates":[4.192922,44.4011593]},"properties":{"natural":"cave_entrance"}},
{"type":"Feature","geometry":{"type":"Point","coordinates":[4.1950011,44.4036819]},"properties":{"tourism":"viewpoint"}},
{"type":"Feature","geometry":{"type":"Point","coordinates":[4.27514,44.378475]},"properties":{"leisure":"horse_riding","name":"Centre équestre Le Rouret","sport":"equestrian","website":"https://centreequestredurouret.com/"}},
{"type":"Feature","geometry":{"type":"Point","coordinates":[4.295966,44.4194281]},"properties":{"name":"Camping de la Barque","tourism":"camp_site"}},
{"type":"Feature","geometry":{"type":"Point","coordinates":[4.2953501,44.4191092]},"properties":{"name":"Camping de la Barque","source":"local knowlegde","tourism":"camp_site"}},
{"type":"Feature","geometry":{"type":"Point","coordinates":[4.0801755,44.2693982]},"properties":{"ele":"415","mountain_pass":"yes","name":"Col De Trélis","natural":"saddle"}},
{"type":"Feature","geometry":{"type":"Point","coordinates":[4.1838977999999999,44.320038]},"properties":{"name":"Grotte de la Cotepatière (résurgence)","natural":"cave_entrance"}},
{"type":"Feature","geometry":{"type":"Point","coordinates":[4.1903547,44.32024]},"properties":{"name":"Peyraou de Chadouillet (résurgence)","natural":"cave_entrance"}},
{"type":"Feature","geometry":{"type":"Point","coordinates":[4.1868259,44.3207887]},"properties":{"name":"Event de Peyrejal (résurgence)","natural":"cave_entrance"}},
{"type":"Feature","geometry":{"type":"Point","coordinates":[4.213633,44.3478136]},"properties":{"name":"Grotte du Runladou","natural":"cave_entrance"}},
{"type":"Feature","geometry":{"type":"Point","coordinates":[4.2000633,44.4068466]},"properties":{"name":"Grotte des Barres","natural":"cave_entrance"}},
{"type":"Feature","geometry":{"type":"Point","coordinates":[4.1988274,44.4043428]},"properties":{"name":"Grotte du Renard","natural":"cave_entrance"}},
{"type":"Feature","geometry":{"type":"Point","coordinates":[4.1804115,44.3912437]},"properties":{"information":"guidepost","tourism":"information"}},
{"type":"Feature","geometry":{"type":"Point","coordinates":[4.1923097,44.394267]},"properties":{"information":"guidepost","tourism":"information"}},
{"type":"Feature","geometry":{"type":"Point","coordinates":[4.1780184,44.3948476]},"properties":{"check_date":"2023-06-01","information":"map","tourism":"information"}},
{"type":"Feature","geometry":{"type":"Point","coordinates":[4.1713935,44.3959559]},"properties":{"board_type":"board","check_date":"2023-06-01","information":"board","tourism":"information"}},
{"type":"Feature","geometry":{"type":"Point","coordinates":[4.179391,44.3966605]},"properties":{"information":"guidepost","tourism":"information"}},
{"type":"Feature","geometry":{"type":"Point","coordinates":[4.1805082,44.3969072]},"properties":{"information":"guidepost","tourism":"information"}},
{"type":"Feature","geometry":{"type":"Point","coordinates":[4.1917933,44.3972617]},"properties":{"information":"guidepost","tourism":"information"}},
{"type":"Feature","geometry":{"type":"Point","coordinates":[4.1732209,44.4013915]},"properties":{"information":"guidepost","tourism":"information"}},
{"type":"Feature","geometry":{"type":"Point","coordinates":[4.1891316,44.4024985]},"properties":{"information":"guidepost","tourism":"information"}},
{"type":"Feature","geometry":{"type":"Point","coordinates":[4.1769837,44.4038643]},"properties":{"information":"guidepost","tourism":"information"}},
{"type":"Feature","geometry":{"type":"Point","coordinates":[4.17701,44.4044433]},"properties":{"tourism":"viewpoint"}},
{"type":"Feature","geometry":{"type":"Point","coordinates":[4.2528663,44.2346816]},"properties":{"historic":"memorial"}},
{"type":"Feature","geometry":{"type":"Point","coordinates":[4.1130329,44.4123633]},"properties":{"addr:housenumber":"343","source":"cadastre-dgi-fr source : Direction Générale des Finances Publiques - Cadastre. Mise à jour : 2022"}},
{"type":"Feature","geometry":{"type":"Point","coordinates":[4.0871094,44.3938944]},"properties":{"name":"Croix de Brancillon","tourism":"picnic_site"}},
{"type":"Feature","geometry":{"type":"Point","coordinates":[4.2199338,44.3110024]},"properties":{"name":"Chambres d'hôtes Le Mas de Cruzières","tourism":"guest_house"}},
{"type":"Feature","geometry":{"type":"Point","coordinates":[4.3070468,44.4486254]},"properties":{"historic":"wayside_cross"}},
{"type":"Feature","geometry":{"type":"Point","coordinates":[4.1733108,44.3948371]},"properties":{"name":"Bois de Païolive","tourism":"viewpoint"}},
{"type":"Feature","geometry":{"type":"Point","coordinates":[4.1318748,44.4101025]},"properties":{"name":"La Magnanerie","tourism":"guest_house"}},
{"type":"Feature","geometry":{"type":"Point","coordinates":[4.3114887,44.3807232]},"properties":{"ele":"469","expected_lwn_route_relations":"4","lwn_ref":"Col de la Cize","mountain_pass":"yes","name":"Col de la Cize","natural":"saddle","network:type":"node_network"}},
{"type":"Feature","geometry":{"type":"Point","coordinates":[4.2522826,44.3052934]},"properties":{"historic":"ruins","name":"Château de Cruzieres"}},
{"type":"Feature","geometry":{"type":"Point","coordinates":[4.2433348,44.2971811]},"properties":{"name":"Grotte de Saint-Privas","natural":"cave_entrance"}},
{"type":"Feature","geometry":{"type":"Point","coordinates":[4.1200233,44.2570031]},"properties":{"name":"Mas Blanc","tourism":"guest_house"}},
{"type":"Feature","geometry":{"type":"Point","coordinates":[4.1136187,44.2558481]},"properties":{"historic":"ruins","name":"Chaleyrac"}},
{"type":"Feature","geometry":{"type":"Point","coordinates":[4.1134862,44.2529631]},"properties":{"historic":"ruins","name":"l'Auglanet"}},
{"type":"Feature","geometry":{"type":"Point","coordinates":[4.2788756,44.4069384]},"properties":{"name":"La Bergerie","tourism":"hotel"}},
{"type":"Feature","geometry":{"type":"Point","coordinates":[4.2748764,44.4146299]},"properties":{"barrier":"lift_gate","entrance":"main"}},
{"type":"Feature","geometry":{"type":"Point","coordinates":[4.1720221,44.4448332]},"properties":{"name":"Mas de la Giralde","tourism":"guest_house"}},
{"type":"Feature","geometry":{"type":"Point","coordinates":[4.2109322,44.3836423]},"properties":{"archaeological_site":"megalith","historic":"archaeological_site","megalith_type":"dolmen"}},
{"type":"Feature","geometry":{"type":"Point","coordinates":[4.2110464,44.384714]},"properties":{"archaeological_site":"megalith","historic":"archaeological_site","megalith_type":"dolmen"}},
{"type":"Feature","geometry":{"type":"Point","coordinates":[4.2092697,44.3857058]},"properties":{"archaeological_site":"megalith","historic":"archaeological_site","megalith_type":"dolmen"}},
{"type":"Feature","geometry":{"type":"Point","coordinates":[4.2818014,44.3543742]},"properties":{"ele":"371","mountain_pass":"yes","name":"Col de la Serre","natural":"saddle"}},
{"type":"Feature","geometry":{"type":"Point","coordinates":[4.2314169,44.4265782]},"properties":{"name":"Auberge des Murets","tourism":"guest_house"}},
{"type":"Feature","geometry":{"type":"Point","coordinates":[4.2977793,44.2458274]},"properties":{"historic":"castle","name":"Château du Pont","source":"cadastre-dgi-fr source : Direction Générale des Impôts - Cadastre. Mise à jour : 2013"}},
{"type":"Feature","geometry":{"type":"Point","coordinates":[4.1698306,44.2343518]},"properties":{"natural":"tree"}},
{"type":"Feature","geometry":{"type":"Point","coordinates":[4.1699381,44.2344068]},"properties":{"natural":"tree"}},
{"type":"Feature","geometry":{"type":"Point","coordinates":[4.1698637,44.2344669]},"properties":{"natural":"tree"}},
{"type":"Feature","geometry":{"type":"Point","coordinates":[4.1697384,44.2345964]},"properties":{"natural":"tree"}},
{"type":"Feature","geometry":{"type":"Point","coordinates":[4.1696664,44.2346532]},"properties":{"natural":"tree"}},
{"type":"Feature","geometry":{"type":"Point","coordinates":[4.1696014,44.2347082]},"properties":{"natural":"tree"}},
{"type":"Feature","geometry":{"type":"Point","coordinates":[4.169547,44.2347683]},"properties":{"natural":"tree"}},
{"type":"Feature","geometry":{"type":"Point","coordinates":[4.169482,44.2348225]},"properties":{"natural":"tree"}},
{"type":"Feature","geometry":{"type":"Point","coordinates":[4.2248192,44.4361907]},"properties":{"tourism":"picnic_site"}},
{"type":"Feature","geometry":{"type":"Point","coordinates":[4.1296393,44.4062019]},"properties":{"addr:housenumber":"7","addr:postcode":"07140","addr:street":"Montée du Carmel","name":"Le Carmel","tourism":"hotel","website":"http://le-carmel.com/en"}},
{"type":"Feature","geometry":{"type":"Point","coordinates":[4.2931579,44.255982]},"properties":{"description":"Monument aux Morts","historic":"memorial","memorial":"war_memorial"}},
{"type":"Feature","geometry":{"type":"Point","coordinates":[4.2010555,44.4234135]},"properties":{"historic":"ruins","name":"Capitelle"}},
{"type":"Feature","geometry":{"type":"Point","coordinates":[4.2012244,44.4230611]},"properties":{"historic":"ruins","name":"Capitelle"}},
{"type":"Feature","geometry":{"type":"Point","coordinates":[4.2927277,44.2586899]},"properties":{"leisure":"playground"}},
{"type":"Feature","geometry":{"type":"Point","coordinates":[4.1302982,44.4055418]},"properties":{"information":"office","name":"Office de Tourisme Cévennes d'Ardèche","opening_hours":"Mo-Sa 09:00-13:00,14:30-18:30; PH,Su 09:00-13:00","source":"BDTopo IGN","tourism":"information"}},
{"type":"Feature","geometry":{"type":"Point","coordinates":[4.1857117,44.412945]},"properties":{"historic":"memorial","memorial":"stele","name":"Stèle Jules Froment","source:name":"BDTopo IGN"}},
{"type":"Feature","geometry":{"type":"Point","coordinates":[4.1643237,44.4055102]},"properties":{"tourism":"viewpoint"}},
{"type":"Feature","geometry":{"type":"Point","coordinates":[4.2581789,44.4351154]},"properties":{"historic":"archaeological_site","name":"Dolmen"}},
{"type":"Feature","geometry":{"type":"Point","coordinates":[4.2601747,44.4329768]},"properties":{"historic":"archaeological_site","name":"Dolmen"}},
{"type":"Feature","geometry":{"type":"Point","coordinates":[4.1968314,44.2604504]},"properties":{"information":"office","name":"Office de Tourisme","opening_hours":"Mo-Fr 09:30-12:00,14:00-17:00","tourism":"information"}},
{"type":"Feature","geometry":{"type":"Point","coordinates":[4.1480715,44.312251]},"properties":{"tourism":"viewpoint"}},
{"type":"Feature","geometry":{"type":"Point","coordinates":[4.2540225,44.4191403]},"properties":{"ele":"165","hiking":"yes","information":"guidepost","name":"Le Blachas","survey:date":"2024-01-25","tourism":"information"}},
{"type":"Feature","geometry":{"type":"Point","coordinates":[4.2950429,44.2390296]},"properties":{"historic":"wayside_cross"}},
{"type":"Feature","geometry":{"type":"Point","coordinates":[4.2948269,44.239174]},"properties":{"ele":"115","hiking":"yes","information":"guidepost","name":"Rochegude","tourism":"information"}},
{"type":"Feature","geometry":{"type":"Point","coordinates":[4.1663313,44.2668673]},"properties":{"ele":"138","hiking":"yes","information":"guidepost","name":"Molieres La Bassin","tourism":"information"}},
{"type":"Feature","geometry":{"type":"Point","coordinates":[4.1615556,44.2603458]},"properties":{"ele":"143","hiking":"yes","information":"guidepost","name":"Molières La Borie","tourism":"information"}},
{"type":"Feature","geometry":{"type":"Point","coordinates":[4.173148,44.2654883]},"properties":{"ele":"275","hiking":"yes","information":"guidepost","name":"Château de Montalet","tourism":"information"}},
{"type":"Feature","geometry":{"type":"Point","coordinates":[4.1768641,44.260795]},"properties":{"ele":"300","information":"guidepost","name":"Le Petit Montèze","tourism":"information"}},
{"type":"Feature","geometry":{"type":"Point","coordinates":[4.1730586,44.2654899]},"properties":{"tourism":"picnic_site"}},
{"type":"Feature","geometry":{"type":"Point","coordinates":[4.162882,44.2526784]},"properties":{"ele":"400","hiking":"yes","information":"guidepost","name":"Mas Loubet","tourism":"information"}},
{"type":"Feature","geometry":{"type":"Point","coordinates":[4.1573958,44.2567989]},"properties":{"ele":"185","hiking":"yes","information":"guidepost","name":"Molieres La Chapelle","tourism":"information"}},
{"type":"Feature","geometry":{"type":"Point","coordinates":[4.1511235,44.2500801]},"properties":{"ele":"380","hiking":"yes","information":"guidepost","name":"Plateau du Mas Neuf","tourism":"information"}},
{"type":"Feature","geometry":{"type":"Point","coordinates":[4.1572309,44.2572576]},"properties":{"historic":"wayside_cross"}},
{"type":"Feature","geometry":{"type":"Point","coordinates":[4.2923169,44.4287695]},"properties":{"archaeological_site":"megalith","heritage":"2","heritage:operator":"mhs","historic":"archaeological_site","megalith_type":"dolmen","mhs:inscription_date":"1889","name":"Dolmen du Calvaire nr. 1","ref:mhs":"PA00116771","source:heritage":"data.gouv.fr, Ministère de la Culture - 2016","website":"http://www.t4t35.fr/Megalithes/AfficheSite.aspx?NumSite=9251","wikidata":"Q1235875","wikipedia":"fr:Dolmen du Calvaire"}},
{"type":"Feature","geometry":{"type":"Point","coordinates":[4.2685987,44.432772]},"properties":{"alt_name":"Exurgence Pérenne","intermittent":"no","name":"Résurgence de Bourbouillet","natural":"spring"}},
{"type":"Feature","geometry":{"type":"Point","coordinates":[4.1705505,44.2360828]},"properties":{"light_source":"floodlight"}},
{"type":"Feature","geometry":{"type":"Point","coordinates":[4.1706493,44.2361748]},"properties":{"light_source":"floodlight"}},
{"type":"Feature","geometry":{"type":"Point","coordinates":[4.1710345,44.236239]},"properties":{"light_source":"floodlight"}},
{"type":"Feature","geometry":{"type":"Point","coordinates":[4.1711552,44.2363526]},"properties":{"light_source":"floodlight"}},
{"type":"Feature","geometry":{"type":"Point","coordinates":[4.196327,44.2573465]},"properties":{"light_source":"floodlight"}},
{"type":"Feature","geometry":{"type":"Point","coordinates":[4.196169,44.2573673]},"properties":{"light_source":"floodlight"}},
{"type":"Feature","geometry":{"type":"Point","coordinates":[4.1958867,44.2574046]},"properties":{"light_source":"floodlight"}},
{"type":"Feature","geometry":{"type":"Point","coordinates":[4.1957277,44.2574256]},"properties":{"light_source":"floodlight"}},
{"type":"Feature","geometry":{"type":"Point","coordinates":[4.3007168,44.4506496]},"properties":{"access":"yes","fee":"no","leisure":"garden","name":"Les Jardins Suspendus du Récatadou","tourism":"attraction","website":"http://mairiedelabeaume.fr/patrimoine/histoire/les-jardins-suspendus"}},
{"type":"Feature","geometry":{"type":"Point","coordinates":[4.2974275,44.2601057]},"properties":{"name":"Gîtes de la guinguette","tourism":"chalet","website":"http://gites-de-la-guinguette.fr"}},
{"type":"Feature","geometry":{"type":"Point","coordinates":[4.29432,44.25901]},"properties":{"boules":"petanque","leisure":"pitch","source":"data.gouv.fr:Le ministère des droits des femmes, de la ville, de la jeunesse et des sports - 2014","sport":"boules"}},
{"type":"Feature","geometry":{"type":"Point","coordinates":[4.1490203,44.3437308]},"properties":{"name":"Fontaine des Rousses","natural":"spring"}},
{"type":"Feature","geometry":{"type":"Point","coordinates":[4.1530114,44.347475]},"properties":{"name":"Fontaine de Mentaresse","natural":"spring"}},
{"type":"Feature","geometry":{"type":"Point","coordinates":[4.2334558,44.4059666]},"properties":{"leisure":"horse_riding","source":"BDOrtho IGN","sport":"equestrian"}},
{"type":"Feature","geometry":{"type":"Point","coordinates":[4.2011289,44.4075881]},"properties":{"tourism":"viewpoint"}},
{"type":"Feature","geometry":{"type":"Point","coordinates":[4.176103,44.3107762]},"properties":{"barrier":"door","entrance":"exit","name":"Grotte de la Cocalière (sortie)","natural":"cave_entrance"}},
{"type":"Feature","geometry":{"type":"Point","coordinates":[4.1818227,44.3190192]},"properties":{"name":"Aven de la Courcalhère","natural":"cave_entrance"}},
{"type":"Feature","geometry":{"type":"Point","coordinates":[4.18305,44.32193]},"properties":{"name":"Event de Peyrejal (entrée artificielle)","natural":"cave_entrance"}},
{"type":"Feature","geometry":{"type":"Point","coordinates":[4.2642427,44.4276586]},"properties":{"archaeological_site":"megalith","historic":"archaeological_site","megalith_type":"dolmen","name":"Dolmen de Font Méjanne 1","source":"GPS","website":"http://www.t4t35.fr/Megalithes/AfficheSite.aspx?NumSite=9780"}},
{"type":"Feature","geometry":{"type":"Point","coordinates":[4.2642725,44.4278618]},"properties":{"archaeological_site":"megalith","historic":"archaeological_site","megalith_type":"dolmen","name":"Dolmen de Font Méjanne 2","source":"GPS","website":"http://www.t4t35.fr/Megalithes/AfficheSite.aspx?NumSite=9781"}},
{"type":"Feature","geometry":{"type":"Point","coordinates":[4.2642456,44.4291117]},"properties":{"archaeological_site":"megalith","historic":"archaeological_site","megalith_type":"dolmen","name":"Dolmen de Font Méjanne 3","source":"GPS","website":"http://www.t4t35.fr/Megalithes/AfficheSite.aspx?NumSite=9782"}},
{"type":"Feature","geometry":{"type":"Point","coordinates":[4.1693798,44.3108105]},"properties":{"alt_name":"Dolmen de la Grotte de Cocalière","archaeological_site":"megalith","historic":"archaeological_site","megalith_type":"dolmen","name":"Dolmen de la Cocalière","name:t4t35.fr":"DLCOCA","ref:megalithic.co.uk":"6342103","ref:t4t35.fr":"9274","source":"GPS","website":"http://www.t4t35.fr/Megalithes/AfficheSite.aspx?NumSite=9274"}},
{"type":"Feature","geometry":{"type":"Point","coordinates":[4.1459497,44.379016]},"properties":{"historic":"archaeological_site","megalith_type":"dolmen","name":"Dolmen des Champs Grands nr. 3","source":"GPS","website":"http://www.t4t35.fr/Megalithes/AfficheSite.aspx?NumSite=32779"}},
{"type":"Feature","geometry":{"type":"Point","coordinates":[4.1464647,44.3787514]},"properties":{"historic":"archaeological_site","megalith_type":"dolmen","name":"Dolmen des Champs Grands nr. 1","website":"http://www.t4t35.fr/Megalithes/AfficheSite.aspx?NumSite=9287"}},
{"type":"Feature","geometry":{"type":"Point","coordinates":[4.1461374,44.3802043]},"properties":{"historic":"archaeological_site","megalith_type":"dolmen","name":"Dolmen des Champs Grands nr. 6","website":"http://www.t4t35.fr/Megalithes/AfficheSite.aspx?NumSite=33258"}},
{"type":"Feature","geometry":{"type":"Point","coordinates":[4.2939123,44.4287879]},"properties":{"archaeological_site":"megalith","historic":"archaeological_site","megalith_type":"dolmen","name":"Dolmen de Calvaire nr. 2","source":"GPS","website":"http://www.t4t35.fr/Megalithes/AfficheSite.aspx?NumSite=28971"}},
{"type":"Feature","geometry":{"type":"Point","coordinates":[4.1466974,44.3341371]},"properties":{"addr:street":"Les Monèdes","name":"Le Mas des Monèdes","tourism":"guest_house","website":"https://www.lemasdesmonedes.fr/"}},
{"type":"Feature","geometry":{"type":"Point","coordinates":[4.1715308,44.4011706]},"properties":{"denomination":"catholic","historic":"wayside_cross","religion":"christian"}},
{"type":"Feature","geometry":{"type":"Point","coordinates":[4.3049062,44.2297875]},"properties":{"name":"Grotte des Camisards","natural":"cave_entrance"}},
{"type":"Feature","geometry":{"type":"Point","coordinates":[4.3104589,44.2193311]},"properties":{"historic":"yes","name":"Dolmen du tonnerre"}},
{"type":"Feature","geometry":{"type":"Point","coordinates":[4.2588182,44.4293744]},"properties":{"historic":"archaeological_site","name":"Dolmen Font Méjane ruine"}},
{"type":"Feature","geometry":{"type":"Point","coordinates":[4.3079525,44.4176047]},"properties":{"denomination":"catholic","historic":"wayside_cross","religion":"christian"}},
{"type":"Feature","geometry":{"type":"Point","coordinates":[4.2794252,44.3837895]},"properties":{"ele":"175","hiking":"yes","information":"guidepost","name":"Le Rouret","tourism":"information"}},
{"type":"Feature","geometry":{"type":"Point","coordinates":[4.2672935,44.3890195]},"properties":{"denomination":"catholic","historic":"wayside_cross","religion":"christian"}},
{"type":"Feature","geometry":{"type":"Point","coordinates":[4.2626935,44.3899051]},"properties":{"denomination":"catholic","historic":"wayside_cross","religion":"christian"}},
{"type":"Feature","geometry":{"type":"Point","coordinates":[4.2631576,44.3902462]},"properties":{"denomination":"catholic","historic":"wayside_cross","religion":"christian"}},
{"type":"Feature","geometry":{"type":"Point","coordinates":[4.2962252,44.3825762]},"properties":{"ele":"315","hiking":"yes","information":"guidepost","name":"Notre-Dame des Songes","survey:date":"2024-01-29","tourism":"information"}},
{"type":"Feature","geometry":{"type":"Point","coordinates":[4.2884012,44.388388]},"properties":{"denomination":"catholic","hiking":"yes","historic":"wayside_cross","religion":"christian"}},
{"type":"Feature","geometry":{"type":"Point","coordinates":[4.2865102,44.3884301]},"properties":{"denomination":"catholic","historic":"wayside_cross","religion":"christian"}},
{"type":"Feature","geometry":{"type":"Point","coordinates":[4.2516969,44.403348]},"properties":{"denomination":"catholic","historic":"wayside_cross","religion":"christian"}},
{"type":"Feature","geometry":{"type":"Point","coordinates":[4.3011132,44.4502385]},"properties":{"tourism":"viewpoint"}},
{"type":"Feature","geometry":{"type":"Point","coordinates":[4.1728451,44.4212043]},"properties":{"tourism":"picnic_site"}},
{"type":"Feature","geometry":{"type":"Point","coordinates":[4.1450773,44.3136318]},"properties":{"description":"Petit site en bordure du Gard, à environ 30' de Seynes, avec un dénivelé de 180 m. Utilisé par vent de nord, vol de pente, thermique et dynamique.","free_flying:paragliding":"yes","free_flying:site":"takeoff;toplanding","leisure":"pitch","name":"Site de vol libre Saint-Sebastien","official_name":"Saint-Sebastien","operator":"Parapente Sud","sport":"free_flying","website":"https://parapente-sud.com/"}},
{"type":"Feature","geometry":{"type":"Point","coordinates":[4.3018296,44.2266286]},"properties":{"name":"Aven","natural":"cave_entrance"}},
{"type":"Feature","geometry":{"type":"Point","coordinates":[4.2572114,44.4082016]},"properties":{"natural":"cave_entrance"}},
{"type":"Feature","geometry":{"type":"Point","coordinates":[4.1242178,44.2745399]},"properties":{"ele":"175","information":"guidepost","name":"Le Poujol","tourism":"information"}},
{"type":"Feature","geometry":{"type":"Point","coordinates":[4.1223603,44.2736891]},"properties":{"ele":"180","information":"guidepost","name":"Mas des Terres","tourism":"information"}},
{"type":"Feature","geometry":{"type":"Point","coordinates":[4.1225387,44.2738389]},"properties":{"colour":"black","historic":"wayside_cross","material":"metal"}},
{"type":"Feature","geometry":{"type":"Point","coordinates":[4.125524,44.2739176]},"properties":{"description":"Randonnées: La Chapelle Lachamp - Le Chambeau","information":"board","tourism":"information"}},
{"type":"Feature","geometry":{"type":"Point","coordinates":[4.1246818,44.2744458]},"properties":{"historic":"wayside_cross"}},
{"type":"Feature","geometry":{"type":"Point","coordinates":[4.121038,44.2729209]},"properties":{"description":"Randonnée: Sentier le Chambeau","information":"board","tourism":"information"}},
{"type":"Feature","geometry":{"type":"Point","coordinates":[4.0954051,44.2611354]},"properties":{"ele":"637","information":"guidepost","name":"La Chapelle Lachamp","tourism":"information"}},
{"type":"Feature","geometry":{"type":"Point","coordinates":[4.0953602,44.2611133]},"properties":{"tourism":"picnic_site"}},
{"type":"Feature","geometry":{"type":"Point","coordinates":[4.0952301,44.2612036]},"properties":{"tourism":"picnic_site"}},
{"type":"Feature","geometry":{"type":"Point","coordinates":[4.1073896,44.2523689]},"properties":{"ele":"380","information":"guidepost","name":"Croix Blanche du Champ Beau","tourism":"information"}},
{"type":"Feature","geometry":{"type":"Point","coordinates":[4.108834,44.251343]},"properties":{"ele":"375","information":"guidepost","name":"Les Pins du Champ Beau","tourism":"information"}},
{"type":"Feature","geometry":{"type":"Point","coordinates":[4.1074741,44.2523305]},"properties":{"historic":"wayside_cross"}},
{"type":"Feature","geometry":{"type":"Point","coordinates":[4.1194515,44.2640428]},"properties":{"ele":"230","information":"guidepost","name":"Les Bois Barbeau","tourism":"information"}},
{"type":"Feature","geometry":{"type":"Point","coordinates":[4.1207296,44.2648092]},"properties":{"ele":"220","information":"guidepost","name":"Robiac le Petit Pont","tourism":"information"}},
{"type":"Feature","geometry":{"type":"Point","coordinates":[4.121435,44.2654825]},"properties":{"ele":"235","information":"guidepost","name":"Robiac Bas du Grand Mas","tourism":"information"}},
{"type":"Feature","geometry":{"type":"Point","coordinates":[4.1349761,44.2739486]},"properties":{"ele":"236","information":"guidepost","name":"Molières Grottes des Cranes","tourism":"information"}},
{"type":"Feature","geometry":{"type":"Point","coordinates":[4.1262965,44.2727243]},"properties":{"historic":"wayside_cross"}},
{"type":"Feature","geometry":{"type":"Point","coordinates":[4.1884085,44.2531045]},"properties":{"ele":"291","hiking":"yes","information":"guidepost","name":"Serre du Bois de la Ville","tourism":"information"}},
{"type":"Feature","geometry":{"type":"Point","coordinates":[4.193887,44.2577422]},"properties":{"information":"board","name":"La Tour Guisquet","tourism":"information"}},
{"type":"Feature","geometry":{"type":"Point","coordinates":[4.1946795,44.2557789]},"properties":{"description":"Randonnée: Sentier de Découverte du Bois de la Ville","information":"board","tourism":"information"}},
{"type":"Feature","geometry":{"type":"Point","coordinates":[4.0926196,44.4161894]},"properties":{"artwork_type":"statue","tourism":"artwork"}},
{"type":"Feature","geometry":{"type":"Point","coordinates":[4.0924409,44.4161094]},"properties":{"artwork_type":"statue","tourism":"artwork"}},
{"type":"Feature","geometry":{"type":"Point","coordinates":[4.1255949,44.2851232]},"properties":{"ele":"152","information":"guidepost","name":"Foussignargues","tourism":"information"}},
{"type":"Feature","geometry":{"type":"Point","coordinates":[4.1252972,44.2839778]},"properties":{"leisure":"playground"}},
{"type":"Feature","geometry":{"type":"Point","coordinates":[4.1252409,44.2842044]},"properties":{"tourism":"picnic_site"}},
{"type":"Feature","geometry":{"type":"Point","coordinates":[4.1247567,44.2845577]},"properties":{"description":"Randonnée: Sentier la Tour de Castillon","information":"board","tourism":"information"}},
{"type":"Feature","geometry":{"type":"Point","coordinates":[4.1244027,44.284598]},"properties":{"tourism":"picnic_site"}},
{"type":"Feature","geometry":{"type":"Point","coordinates":[4.1247715,44.2846402]},"properties":{"tourism":"picnic_site"}},
{"type":"Feature","geometry":{"type":"Point","coordinates":[4.145796,44.2874599]},"properties":{"ele":"358","information":"guidepost","name":"Castillon La Fagède","tourism":"information"}},
{"type":"Feature","geometry":{"type":"Point","coordinates":[4.136643,44.2895998]},"properties":{"ele":"360","information":"guidepost","name":"Castillon Le Maupas","tourism":"information"}},
{"type":"Feature","geometry":{"type":"Point","coordinates":[4.1349089,44.2907047]},"properties":{"ele":"325","information":"guidepost","name":"Châtaigneraie de Castillon","tourism":"information"}},
{"type":"Feature","geometry":{"type":"Point","coordinates":[4.1284783,44.2832443]},"properties":{"ele":"209","information":"guidepost","name":"La Nouvelle","tourism":"information"}},
{"type":"Feature","geometry":{"type":"Point","coordinates":[4.1334565,44.2878516]},"properties":{"ele":"322","information":"guidepost","name":"Les Planasses","tourism":"information"}},
{"type":"Feature","geometry":{"type":"Point","coordinates":[4.1617377,44.2847046]},"properties":{"ele":"305","information":"guidepost","name":"Montagnac","tourism":"information"}},
{"type":"Feature","geometry":{"type":"Point","coordinates":[4.1659166,44.2906797]},"properties":{"ele":"295","information":"guidepost","name":"Les trois Pierres","tourism":"information"}},
{"type":"Feature","geometry":{"type":"Point","coordinates":[4.1477097,44.2894428]},"properties":{"ele":"423","information":"guidepost","name":"Col de L'Espé","tourism":"information"}},
{"type":"Feature","geometry":{"type":"Point","coordinates":[4.1533441,44.291626]},"properties":{"ele":"420","information":"guidepost","name":"Reboul","tourism":"information"}},
{"type":"Feature","geometry":{"type":"Point","coordinates":[4.1540679,44.2926467]},"properties":{"historic":"wayside_cross"}},
{"type":"Feature","geometry":{"type":"Point","coordinates":[4.1301949,44.2898988]},"properties":{"ele":"302","information":"guidepost","name":"Castillon Le Pré Jaune","tourism":"information"}},
{"type":"Feature","geometry":{"type":"Point","coordinates":[4.1339259,44.2911919]},"properties":{"ele":"364","information":"guidepost","name":"Castillon","tourism":"information"}},
{"type":"Feature","geometry":{"type":"Point","coordinates":[4.1467428,44.2894908]},"properties":{"ele":"438","information":"guidepost","name":"Les Faïsses de Reboul","tourism":"information"}},
{"type":"Feature","geometry":{"type":"Point","coordinates":[4.124117,44.287638]},"properties":{"historic":"wayside_cross"}},
{"type":"Feature","geometry":{"type":"Point","coordinates":[4.0895533,44.2922849]},"properties":{"ele":"210","information":"guidepost","name":"La Cantonnade","tourism":"information"}},
{"type":"Feature","geometry":{"type":"Point","coordinates":[4.0864822,44.2910514]},"properties":{"ele":"255","information":"guidepost","name":"Le Crassier Cantonnade","tourism":"information"}},
{"type":"Feature","geometry":{"type":"Point","coordinates":[4.0893642,44.2908939]},"properties":{"check_date":"2022-02-18","description":"Randonnée: Sentier le Ronc Rouge","information":"board","tourism":"information"}},
{"type":"Feature","geometry":{"type":"Point","coordinates":[4.0917608,44.2878344]},"properties":{"ele":"298","information":"guidepost","name":"Bessèges - Le Grand Baldy","tourism":"information"}},
{"type":"Feature","geometry":{"type":"Point","coordinates":[4.0848769,44.2874591]},"properties":{"ele":"300","information":"guidepost","name":"Bessèges - Le Terril","tourism":"information"}},
{"type":"Feature","geometry":{"type":"Point","coordinates":[4.091409,44.2882709]},"properties":{"information":"board","name":"Dolmen","tourism":"information"}},
{"type":"Feature","geometry":{"type":"Point","coordinates":[4.0913665,44.288277]},"properties":{"alt_name":"Dolmen de Saint-Laurent","archaeological_site":"megalith","historic":"archaeological_site","megalith_type":"dolmen","name":"Dolmen de Bessèges","name:t4t35.fr":"DLBESS","ref:megalithic.co.uk":"6334830","ref:t4t35.fr":"32854"}},
{"type":"Feature","geometry":{"type":"Point","coordinates":[4.0972197,44.2861993]},"properties":{"ele":"329","information":"guidepost","name":"Bessèges - Le Baldy","tourism":"information"}},
{"type":"Feature","geometry":{"type":"Point","coordinates":[4.1013691,44.2832487]},"properties":{"information":"board","name":"La Capitelle","tourism":"information"}},
{"type":"Feature","geometry":{"type":"Point","coordinates":[4.0974356,44.2843211]},"properties":{"information":"board","name":"La Grotte des Fées","tourism":"information"}},
{"type":"Feature","geometry":{"type":"Point","coordinates":[4.0974625,44.2842299]},"properties":{"access":"yes","fee":"no","name":"La Grotte des Fées","natural":"cave_entrance"}},
{"type":"Feature","geometry":{"type":"Point","coordinates":[4.0916783,44.2853311]},"properties":{"ele":"383","information":"guidepost","name":"Patte d'Oie du Ronc Rouge","tourism":"information"}},
{"type":"Feature","geometry":{"type":"Point","coordinates":[4.0845704,44.2846581]},"properties":{"ele":"406","information":"guidepost","name":"La Rompude","tourism":"information"}},
{"type":"Feature","geometry":{"type":"Point","coordinates":[4.0820518,44.2912995]},"properties":{"ele":"340","information":"guidepost","name":"Bessèges - Plaine de l'Homme Mort","tourism":"information"}},
{"type":"Feature","geometry":{"type":"Point","coordinates":[4.0827371,44.2962373]},"properties":{"information":"board","name":"La Grotte du Valette","tourism":"information"}},
{"type":"Feature","geometry":{"type":"Point","coordinates":[4.1318681,44.309353]},"properties":{"ele":"210","information":"guidepost","name":"Les Issards","tourism":"information"}},
{"type":"Feature","geometry":{"type":"Point","coordinates":[4.141001,44.3110689]},"properties":{"historic":"wayside_cross"}},
{"type":"Feature","geometry":{"type":"Point","coordinates":[4.1421329,44.3141771]},"properties":{"ele":"382","information":"guidepost","name":"La Gourgue de Courry","tourism":"information"}},
{"type":"Feature","geometry":{"type":"Point","coordinates":[4.1410721,44.311018]},"properties":{"ele":"343","information":"guidepost","name":"Pierre Morte","tourism":"information"}},
{"type":"Feature","geometry":{"type":"Point","coordinates":[4.1463842,44.31311]},"properties":{"ele":"425","information":"guidepost","name":"Plateau Saint-Sébastien","tourism":"information"}},
{"type":"Feature","geometry":{"type":"Point","coordinates":[4.148192,44.3122185]},"properties":{"information":"map","map_size":"region","map_type":"toposcope","tourism":"information"}},
{"type":"Feature","geometry":{"type":"Point","coordinates":[4.1477642,44.312374]},"properties":{"information":"map","map_size":"region","map_type":"toposcope","tourism":"information"}},
{"type":"Feature","geometry":{"type":"Point","coordinates":[4.1450217,44.3134247]},"properties":{"historic":"wayside_cross","name":"Croix Saint-Flavien"}},
{"type":"Feature","geometry":{"type":"Point","coordinates":[4.1478635,44.3122665]},"properties":{"description":"La Chapelle Saint Sébastien XVIII","information":"board","tourism":"information"}},
{"type":"Feature","geometry":{"type":"Point","coordinates":[4.1450713,44.3134209]},"properties":{"description":"Croix Saint Flavien","information":"board","tourism":"information"}},
{"type":"Feature","geometry":{"type":"Point","coordinates":[4.1411311,44.3174626]},"properties":{"ele":"340","information":"guidepost","name":"Châtaigneraie du Grand Châtaignier","tourism":"information"}},
{"type":"Feature","geometry":{"type":"Point","coordinates":[4.1410198,44.3191542]},"properties":{"ele":"320","information":"guidepost","name":"Col du Grand Châtaignier","tourism":"information"}},
{"type":"Feature","geometry":{"type":"Point","coordinates":[4.1397109,44.3190103]},"properties":{"ele":"298","information":"guidepost","name":"Côte du Grand Châtaignier","tourism":"information"}},
{"type":"Feature","geometry":{"type":"Point","coordinates":[4.1307993,44.3082657]},"properties":{"ele":"200","information":"guidepost","name":"Gagnières Ancienne Voie Férrée","tourism":"information"}},
{"type":"Feature","geometry":{"type":"Point","coordinates":[4.1360497,44.3175912]},"properties":{"ele":"229","information":"guidepost","name":"Gagnières La Maisonnette","tourism":"information"}},
{"type":"Feature","geometry":{"type":"Point","coordinates":[4.1298632,44.3079164]},"properties":{"description":"Randonnée: Sentier la Chapelle Saint Sébastien","information":"board","tourism":"information"}},
{"type":"Feature","geometry":{"type":"Point","coordinates":[4.1615609,44.2603598]},"properties":{"descent":"Randonnée: Le Château de Montalet","information":"board","tourism":"information"}},
{"type":"Feature","geometry":{"type":"Point","coordinates":[4.1589765,44.2606011]},"properties":{"tourism":"picnic_site"}},
{"type":"Feature","geometry":{"type":"Point","coordinates":[4.1552044,44.2993717]},"properties":{"historic":"wayside_cross"}},
{"type":"Feature","geometry":{"type":"Point","coordinates":[4.1548919,44.2995359]},"properties":{"description":"Monument aux Morts","historic":"memorial","memorial":"war_memorial","source":"BDTopo IGN"}},
{"type":"Feature","geometry":{"type":"Point","coordinates":[4.1491815,44.3032925]},"properties":{"ele":"300","information":"guidepost","name":"L'Aulanet","tourism":"information"}},
{"type":"Feature","geometry":{"type":"Point","coordinates":[4.1491601,44.3033299]},"properties":{"historic":"wayside_cross"}},
{"type":"Feature","geometry":{"type":"Point","coordinates":[4.1441966,44.305666]},"properties":{"ele":"390","information":"guidepost","name":"Le Pouchanne","tourism":"information"}},
{"type":"Feature","geometry":{"type":"Point","coordinates":[4.1752083,44.3020688]},"properties":{"information":"board","name":"Dolmens des Pins d'Ismael","tourism":"information"}},
{"type":"Feature","geometry":{"type":"Point","coordinates":[4.175616,44.3011032]},"properties":{"information":"guidepost","tourism":"information"}},
{"type":"Feature","geometry":{"type":"Point","coordinates":[4.1768673,44.3016666]},"properties":{"archaeological_site":"tumulus","historic":"archaeological_site","ref":"9"}},
{"type":"Feature","geometry":{"type":"Point","coordinates":[4.1755168,44.3021561]},"properties":{"archaeological_site":"tumulus","historic":"archaeological_site","ref":"4"}},
{"type":"Feature","geometry":{"type":"Point","coordinates":[4.1747537,44.3022147]},"properties":{"archaeological_site":"tumulus","historic":"archaeological_site","ref":"1"}},
{"type":"Feature","geometry":{"type":"Point","coordinates":[4.1753639,44.3022444]},"properties":{"archaeological_site":"tumulus","historic":"archaeological_site","ref":"3"}},
{"type":"Feature","geometry":{"type":"Point","coordinates":[4.1752378,44.302254]},"properties":{"archaeological_site":"tumulus","historic":"archaeological_site","ref":"2"}},
{"type":"Feature","geometry":{"type":"Point","coordinates":[4.1721801,44.2997614]},"properties":{"information":"board","name":"Dolmen n°7 - Les Usclades","tourism":"information"}},
{"type":"Feature","geometry":{"type":"Point","coordinates":[4.1722069,44.2997873]},"properties":{"archaeological_site":"tumulus","historic":"archaeological_site","ref":"7"}},
{"type":"Feature","geometry":{"type":"Point","coordinates":[4.1589354,44.2989897]},"properties":{"historic":"wayside_cross"}},
{"type":"Feature","geometry":{"type":"Point","coordinates":[4.1604039,44.3006157]},"properties":{"historic":"wayside_cross"}},
{"type":"Feature","geometry":{"type":"Point","coordinates":[4.101991,44.2796502]},"properties":{"description":"Randonnée: Sentier de la Mine au Bois Dormant","information":"board","name":"Gare de la Valette","tourism":"information"}},
{"type":"Feature","geometry":{"type":"Point","coordinates":[4.1095508,44.2790328]},"properties":{"ele":"198","information":"guidepost","name":"La Valette - Pont de la Berle","tourism":"information"}},
{"type":"Feature","geometry":{"type":"Point","coordinates":[4.1014546,44.279703]},"properties":{"ele":"198","information":"guidepost","name":"La Valette","tourism":"information"}},
{"type":"Feature","geometry":{"type":"Point","coordinates":[4.1132965,44.2814745]},"properties":{"description":"Le Vieux Buis","information":"board","tourism":"information"}},
{"type":"Feature","geometry":{"type":"Point","coordinates":[4.0902912,44.28394]},"properties":{"ele":"340","information":"guidepost","name":"L'Arbousset","tourism":"information"}},
{"type":"Feature","geometry":{"type":"Point","coordinates":[4.0877794,44.2824423]},"properties":{"ele":"340","information":"guidepost","name":"La Font","tourism":"information"}},
{"type":"Feature","geometry":{"type":"Point","coordinates":[4.0876908,44.2824423]},"properties":{"historic":"wayside_cross"}},
{"type":"Feature","geometry":{"type":"Point","coordinates":[4.0904656,44.2839813]},"properties":{"description":"L'Arbousset Ruines","information":"board","tourism":"information"}},
{"type":"Feature","geometry":{"type":"Point","coordinates":[4.085179,44.280883]},"properties":{"ele":"298","information":"guidepost","name":"Le Besson","tourism":"information"}},
{"type":"Feature","geometry":{"type":"Point","coordinates":[4.0866756,44.2788177]},"properties":{"historic":"memorial","memorial":"war_memorial"}},
{"type":"Feature","geometry":{"type":"Point","coordinates":[4.089276,44.2771202]},"properties":{"ele":"319","information":"guidepost","name":"Forêt Douglas Skamokawa","tourism":"information"}},
{"type":"Feature","geometry":{"type":"Point","coordinates":[4.0859125,44.278015]},"properties":{"ele":"265","information":"guidepost","name":"Rochessadoule - Le Piallet","tourism":"information"}},
{"type":"Feature","geometry":{"type":"Point","coordinates":[4.0853841,44.2784702]},"properties":{"ele":"260","information":"guidepost","name":"Rochessadoule - Passerelle du Rieusset","tourism":"information"}},
{"type":"Feature","geometry":{"type":"Point","coordinates":[4.0848665,44.275315]},"properties":{"ele":"325","information":"guidepost","name":"Saint-Denis Galerie","tourism":"information"}},
{"type":"Feature","geometry":{"type":"Point","coordinates":[4.084963,44.2752199]},"properties":{"description":"Galerie Saint Denis","information":"board","tourism":"information"}},
{"type":"Feature","geometry":{"type":"Point","coordinates":[4.0897074,44.2790608]},"properties":{"description":"Le Plan Incliné","information":"board","tourism":"information"}},
{"type":"Feature","geometry":{"type":"Point","coordinates":[4.0969331,44.2801382]},"properties":{"ele":"243","information":"guidepost","name":"Le Brossard","tourism":"information"}},
{"type":"Feature","geometry":{"type":"Point","coordinates":[4.101643,44.2777608]},"properties":{"ele":"240","information":"guidepost","name":"Le Crassier Valette","tourism":"information"}},
{"type":"Feature","geometry":{"type":"Point","coordinates":[4.152166,44.3022154]},"properties":{"leaf_cycle":"evergreen","leaf_type":"needleleaved","natural":"tree"}},
{"type":"Feature","geometry":{"type":"Point","coordinates":[4.3086705,44.4506689]},"properties":{"denomination":"catholic","historic":"wayside_cross","religion":"christian"}},
{"type":"Feature","geometry":{"type":"Point","coordinates":[4.30829,44.4486733]},"properties":{"check_date":"2023-02-27","information":"map","map_size":"city","map_type":"scheme","tourism":"information"}},
{"type":"Feature","geometry":{"type":"Point","coordinates":[4.308337,44.44867]},"properties":{"ele":"125","hiking":"yes","information":"guidepost","mtb":"yes","name":"Le Sablas","survey:date":"2023-02-27","tourism":"information"}},
{"type":"Feature","geometry":{"type":"Point","coordinates":[4.2923427,44.4208449]},"properties":{"denomination":"catholic","historic":"wayside_cross","religion":"christian"}},
{"type":"Feature","geometry":{"type":"Point","coordinates":[4.1267478,44.4142861]},"properties":{"denomination":"catholic","historic":"wayside_cross","religion":"christian"}},
{"type":"Feature","geometry":{"type":"Point","coordinates":[4.2237059,44.3417628]},"properties":{"archaeological_site":"megalith","heritage":"2","heritage:operator":"mhs","historic":"archaeological_site","megalith_type":"dolmen","mhs:inscription_date":"1889","name":"Dolmen du Bois des Roches","ref:mhs":"PA00116644","source:heritage":"data.gouv.fr, Ministère de la Culture - 2016","wikidata":"Q3034142","wikipedia":"fr:Dolmen du Bois des Roches"}},
{"type":"Feature","geometry":{"type":"Point","coordinates":[4.1856226,44.3803316]},"properties":{"archaeological_site":"megalith","heritage":"2","heritage:operator":"mhs","historic":"archaeological_site","megalith_type":"dolmen","mhs:inscription_date":"1889","name":"Dolmen de la Lauze","ref:mhs":"PA00116643","source:heritage":"data.gouv.fr, Ministère de la Culture - 2016","wikidata":"Q3034078","wikipedia":"fr:Dolmen de la Lauze"}},
{"type":"Feature","geometry":{"type":"Point","coordinates":[4.2936614,44.4095722]},"properties":{"leisure":"picnic_table"}},
{"type":"Feature","geometry":{"type":"Point","coordinates":[4.1561392,44.2200515]},"properties":{"addr:city":"Les Mages","addr:postcode":"30960","addr:street":"Les Claux","description":"Située à proximité du village de « Les Mages », La Villa des Claux, au caractère méditerranéen affirmé, vous propose 3 chambres premium de 2 personnes, indépendantes, très confortables et climatisées.","email":"contact@lavilladesclaux.com","internet_access":"yes","internet_access:fee":"no","name":"La Villa des Claux","phone":"+33466304476","rooms":"3","tourism":"guest_house","website":"http://www.lavilladesclaux.com/"}},
{"type":"Feature","geometry":{"type":"Point","coordinates":[4.2228017,44.3423622]},"properties":{"name":"Aven de la Charrette","natural":"cave_entrance"}},
{"type":"Feature","geometry":{"type":"Point","coordinates":[4.159326,44.3830905]},"properties":{"name":"Dragonnière de Banne","natural":"cave_entrance"}},
{"type":"Feature","geometry":{"type":"Point","coordinates":[4.1937973,44.3105596]},"properties":{"name":"Baume de Chazelles","natural":"cave_entrance"}},
{"type":"Feature","geometry":{"type":"Point","coordinates":[4.2599058,44.4372635]},"properties":{"name":"Aven du Réméjadou","natural":"cave_entrance","sinkhole":"pit"}},
{"type":"Feature","geometry":{"type":"Point","coordinates":[4.1441163,44.3883063]},"properties":{"name":"Fontaine du Vedel","natural":"cave_entrance"}},
{"type":"Feature","geometry":{"type":"Point","coordinates":[4.1445345,44.4404239]},"properties":{"name":"Fontaine du Vignal","natural":"cave_entrance"}},
{"type":"Feature","geometry":{"type":"Point","coordinates":[4.1046057,44.3955215]},"properties":{"name":"Fontaine de Champclos","natural":"cave_entrance"}},
{"type":"Feature","geometry":{"type":"Point","coordinates":[4.1593453,44.3738326]},"properties":{"name":"Fontaine du Périer","natural":"cave_entrance"}},
{"type":"Feature","geometry":{"type":"Point","coordinates":[4.0920305,44.300141]},"properties":{"light_source":"floodlight"}},
{"type":"Feature","geometry":{"type":"Point","coordinates":[4.092136,44.3002368]},"properties":{"light_source":"floodlight"}},
{"type":"Feature","geometry":{"type":"Point","coordinates":[4.0919407,44.3003454]},"properties":{"light_source":"floodlight"}},
{"type":"Feature","geometry":{"type":"Point","coordinates":[4.0918362,44.3002505]},"properties":{"light_source":"floodlight"}},
{"type":"Feature","geometry":{"type":"Point","coordinates":[4.132745,44.4028529]},"properties":{"check_date":"2024-08-07","name":"Le Vanseen","tourism":"hotel"}},
{"type":"Feature","geometry":{"type":"Point","coordinates":[4.1952678,44.3963456]},"properties":{"name":"Grotte de la Tardive","natural":"cave_entrance"}},
{"type":"Feature","geometry":{"type":"Point","coordinates":[4.1830885,44.4035218]},"properties":{"natural":"cave_entrance"}},
{"type":"Feature","geometry":{"type":"Point","coordinates":[4.1789808,44.3966006]},"properties":{"information":"guidepost","name":"Carrefour des 3 seigneurs","tourism":"information"}},
{"type":"Feature","geometry":{"type":"Point","coordinates":[4.153181,44.3390813]},"properties":{"leisure":"pitch","sport":"boules"}},
{"type":"Feature","geometry":{"type":"Point","coordinates":[4.1526443,44.3388867]},"properties":{"leisure":"playground"}},
{"type":"Feature","geometry":{"type":"Point","coordinates":[4.1526901,44.3390331]},"properties":{"leisure":"playground"}},
{"type":"Feature","geometry":{"type":"Point","coordinates":[4.152663,44.338951]},"properties":{"leisure":"playground"}},
{"type":"Feature","geometry":{"type":"Point","coordinates":[4.1525874,44.3387918]},"properties":{"leisure":"picnic_table"}},
{"type":"Feature","geometry":{"type":"Point","coordinates":[4.1665354,44.2717894]},"properties":{"ele":"164","hiking":"yes","information":"guidepost","name":"Les Granges","tourism":"information"}},
{"type":"Feature","geometry":{"type":"Point","coordinates":[4.1668305,44.2715445]},"properties":{"hiking":"yes","information":"guidepost","tourism":"information"}},
{"type":"Feature","geometry":{"type":"Point","coordinates":[4.169455,44.2711575]},"properties":{"description":"Randonnée: Sentier du Montgrillet","information":"board","tourism":"information"}},
{"type":"Feature","geometry":{"type":"Point","coordinates":[4.1689119,44.2710394]},"properties":{"description":"Monument aux Morts","historic":"memorial","memorial":"war_memorial","source":"BDTopo IGN"}},
{"type":"Feature","geometry":{"type":"Point","coordinates":[4.1665395,44.2720218]},"properties":{"information":"board","name":"Le Sentier du Montgrillet","tourism":"information"}},
{"type":"Feature","geometry":{"type":"Point","coordinates":[4.1657482,44.2746558]},"properties":{"information":"board","name":"Le Four à Chaux et sa Carrière","tourism":"information"}},
{"type":"Feature","geometry":{"type":"Point","coordinates":[4.1662377,44.2727919]},"properties":{"information":"board","name":"L'Olivier","tourism":"information"}},
{"type":"Feature","geometry":{"type":"Point","coordinates":[4.1681032,44.2769056]},"properties":{"information":"board","name":"Bergerie","tourism":"information"}},
{"type":"Feature","geometry":{"type":"Point","coordinates":[4.1673629,44.2761672]},"properties":{"information":"board","name":"Chemin et Murets","tourism":"information"}},
{"type":"Feature","geometry":{"type":"Point","coordinates":[4.1674648,44.2765791]},"properties":{"information":"board","name":"Le Mazet","tourism":"information"}},
{"type":"Feature","geometry":{"type":"Point","coordinates":[4.1666427,44.2767769]},"properties":{"information":"board","name":"Abris en Pierres Sèches","tourism":"information"}},
{"type":"Feature","geometry":{"type":"Point","coordinates":[4.1659574,44.276847]},"properties":{"information":"board","name":"La Simèque","tourism":"information"}},
{"type":"Feature","geometry":{"type":"Point","coordinates":[4.1659668,44.2767068]},"properties":{"ele":"230","hiking":"yes","information":"guidepost","name":"Les Faysses","tourism":"information"}},
{"type":"Feature","geometry":{"type":"Point","coordinates":[4.166231,44.2768287]},"properties":{"information":"board","name":"L'Eau","tourism":"information"}},
{"type":"Feature","geometry":{"type":"Point","coordinates":[4.1689736,44.2846932]},"properties":{"ele":"220","hiking":"yes","information":"guidepost","name":"Ruisseau de Font de Bourboul","tourism":"information"}},
{"type":"Feature","geometry":{"type":"Point","coordinates":[4.1689534,44.2847335]},"properties":{"information":"board","name":"Seuil","tourism":"information"}},
{"type":"Feature","geometry":{"type":"Point","coordinates":[4.1692606,44.2855198]},"properties":{"information":"board","name":"La Font de Bourboul","tourism":"information"}},
{"type":"Feature","geometry":{"type":"Point","coordinates":[4.1663168,44.2814577]},"properties":{"information":"board","name":"Escaliers","tourism":"information"}},
{"type":"Feature","geometry":{"type":"Point","coordinates":[4.1677022,44.2801605]},"properties":{"information":"board","name":"Réserve d'Eau","tourism":"information"}},
{"type":"Feature","geometry":{"type":"Point","coordinates":[4.1667473,44.2791034]},"properties":{"information":"board","name":"La Place Charbonnière","tourism":"information"}},
{"type":"Feature","geometry":{"type":"Point","coordinates":[4.1688663,44.2782757]},"properties":{"ele":"280","hiking":"yes","information":"guidepost","name":"Les Calades","tourism":"information"}},
{"type":"Feature","geometry":{"type":"Point","coordinates":[4.1686209,44.278173]},"properties":{"information":"board","name":"Les Calades","tourism":"information"}},
{"type":"Feature","geometry":{"type":"Point","coordinates":[4.1912064,44.2789767]},"properties":{"ele":"238","hiking":"yes","information":"guidepost","name":"Dieuse","tourism":"information"}},
{"type":"Feature","geometry":{"type":"Point","coordinates":[4.193898,44.2739903]},"properties":{"ele":"233","hiking":"yes","information":"guidepost","name":"Pommière","tourism":"information"}},
{"type":"Feature","geometry":{"type":"Point","coordinates":[4.187973,44.2771984]},"properties":{"ele":"260","hiking":"yes","information":"guidepost","name":"Chemin royal de Belvezet","tourism":"information"}},
{"type":"Feature","geometry":{"type":"Point","coordinates":[4.1877504,44.2526345]},"properties":{"ele":"285","hiking":"yes","information":"board","name":"Le Cap Barré","tourism":"information"}},
{"type":"Feature","geometry":{"type":"Point","coordinates":[4.1927138,44.2542684]},"properties":{"cave:access":"yes","name":"Grotte du Loup","natural":"cave_entrance"}},
{"type":"Feature","geometry":{"type":"Point","coordinates":[4.1092541,44.4027398]},"properties":{"historic":"wayside_cross"}},
{"type":"Feature","geometry":{"type":"Point","coordinates":[4.1001757,44.3844854]},"properties":{"historic":"wayside_cross"}},
{"type":"Feature","geometry":{"type":"Point","coordinates":[4.1010403,44.3843257]},"properties":{"tourism":"picnic_site"}},
{"type":"Feature","geometry":{"type":"Point","coordinates":[4.1010208,44.384305]},"properties":{"historic":"wayside_cross"}},
{"type":"Feature","geometry":{"type":"Point","coordinates":[4.1105021,44.3945777]},"properties":{"name":"Baume bâtie","natural":"cave_entrance"}},
{"type":"Feature","geometry":{"type":"Point","coordinates":[4.1088531,44.4046855]},"properties":{"information":"guidepost","name":"Serre du Cocu","tourism":"information"}},
{"type":"Feature","geometry":{"type":"Point","coordinates":[4.0836041,44.3969737]},"properties":{"ele":"909","name":"Sommet du Serre de Barre","natural":"peak"}},
{"type":"Feature","geometry":{"type":"Point","coordinates":[4.0838151,44.3968043]},"properties":{"information":"guidepost","name":"Tour de guet","tourism":"information"}},
{"type":"Feature","geometry":{"type":"Point","coordinates":[4.1093554,44.4236136]},"properties":{"description":"Le Nacier, zone de baignade en période estivale.","natural":"beach","surface":"stone"}},
{"type":"Feature","geometry":{"type":"Point","coordinates":[4.1522861,44.3023141]},"properties":{"leaf_cycle":"evergreen","leaf_type":"broadleaved","natural":"tree"}},
{"type":"Feature","geometry":{"type":"Point","coordinates":[4.1487514,44.4519788]},"properties":{"historic":"wayside_cross"}},
{"type":"Feature","geometry":{"type":"Point","coordinates":[4.1458455,44.4497954]},"properties":{"natural":"spring"}},
{"type":"Feature","geometry":{"type":"Point","coordinates":[4.2163856,44.4087397]},"properties":{"name":"Informations escalade","tourism":"information"}},
{"type":"Feature","geometry":{"type":"Point","coordinates":[4.1507523,44.3348635]},"properties":{"information":"guidepost","tourism":"information"}},
{"type":"Feature","geometry":{"type":"Point","coordinates":[4.1476202,44.3330634]},"properties":{"historic":"wayside_cross","start_date":"1865"}},
{"type":"Feature","geometry":{"type":"Point","coordinates":[4.147542,44.3330598]},"properties":{"hiking":"yes","information":"guidepost","tourism":"information"}},
{"type":"Feature","geometry":{"type":"Point","coordinates":[4.1468163,44.3327766]},"properties":{"destination":"Lavoir de Sauvas","hiking":"yes","information":"guidepost","tourism":"information"}},
{"type":"Feature","geometry":{"type":"Point","coordinates":[4.1486725,44.3305625]},"properties":{"destination":"La Gadilhe","hiking":"yes","information":"guidepost","tourism":"information"}},
{"type":"Feature","geometry":{"type":"Point","coordinates":[4.141594,44.3335334]},"properties":{"information":"guidepost","name":"Le Chemin du Loup","tourism":"information"}},
{"type":"Feature","geometry":{"type":"Point","coordinates":[4.141607,44.3337725]},"properties":{"information":"guidepost","name":"La Croix Rouge","tourism":"information"}},
{"type":"Feature","geometry":{"type":"Point","coordinates":[4.1417247,44.3337994]},"properties":{"historic":"wayside_cross"}},
{"type":"Feature","geometry":{"type":"Point","coordinates":[4.1401905,44.3350724]},"properties":{"direction":"135-270","tourism":"viewpoint"}},
{"type":"Feature","geometry":{"type":"Point","coordinates":[4.1482299,44.3386787]},"properties":{"destination":"Le Tomple","information":"guidepost","tourism":"information"}},
{"type":"Feature","geometry":{"type":"Point","coordinates":[4.1482213,44.3383854]},"properties":{"information":"guidepost","tourism":"information"}},
{"type":"Feature","geometry":{"type":"Point","coordinates":[4.3093734,44.4478646]},"properties":{"name":"Point de vue Labeaume","name:de":"Aussichtspunkt Labeaume","name:en":"Point of View Labeaume","name:fr":"Point de vue Labeaume","tourism":"viewpoint"}},
{"type":"Feature","geometry":{"type":"Point","coordinates":[4.0978366,44.2355623]},"properties":{"information":"guidepost","name":"Croix de Mercoirol","tourism":"information"}},
{"type":"Feature","geometry":{"type":"Point","coordinates":[4.1580064,44.4473443]},"properties":{"addr:street":"Gramaize","name":"Gîtes l'Ôlive","tourism":"apartment","website":"https://www.gites-lolive.com/"}},
{"type":"Feature","geometry":{"type":"Point","coordinates":[4.1252849,44.2698636]},"properties":{"natural":"tree"}},
{"type":"Feature","geometry":{"type":"Point","coordinates":[4.1340818,44.4044449]},"properties":{"alt_name":"Musée Archéologique-Musée Léopold-Ollier-Maison de l'Olivier","contact:facebook":"https://www.facebook.com/MuseedesVans","contact:instagram":"https://www.instagram.com/musee_des_vans/","fee":"yes","name":"Musée des Vans","opening_hours":"We-Su 10:00-13:00,15:00-18:00;Mo-Tu off","phone":"+33 4 75 37 08 62","ref:FR:museofile":"M0977","source":"Ministère de la Culture - Muséofile - 09/2019","tourism":"museum","website":"https://www.les-vans.fr/vivre-ici/structures-culturelles/musee/"}},
{"type":"Feature","geometry":{"type":"Point","coordinates":[4.1296715,44.405318]},"properties":{"artwork_type":"statue","material":"metal","name":"Léopold Ollier","subject:wikidata":"Q2342701","subject:wikimedia_commons":"File:Ollier_Leopold_Louis.JPG","subject:wikipedia":"fr:Louis Léopold Ollier","tourism":"artwork"}},
{"type":"Feature","geometry":{"type":"Point","coordinates":[4.1300789,44.4052813]},"properties":{"historic":"memorial","memorial":"war_memorial","ref:FR:MemorialGenWeb":"15775"}},
{"type":"Feature","geometry":{"type":"Point","coordinates":[4.1222788,44.288283]},"properties":{"addr:street":"La Nouvelle Foussignargues","name":"Au Grand Bonheur","tourism":"guest_house"}},
{"type":"Feature","geometry":{"type":"Point","coordinates":[4.1311229,44.4048315]},"properties":{"name":"Hôtel Les Cévennes","tourism":"hotel"}},
{"type":"Feature","geometry":{"type":"Point","coordinates":[4.133191,44.4053624]},"properties":{"name":"Arts et Légendes","tourism":"gallery"}},
{"type":"Feature","geometry":{"type":"Point","coordinates":[4.1325687,44.4063016]},"properties":{"name":"Hôtel Le Vivarais","tourism":"hotel"}},
{"type":"Feature","geometry":{"type":"Point","coordinates":[4.2278299,44.4029069]},"properties":{"natural":"cave_entrance"}},
{"type":"Feature","geometry":{"type":"Point","coordinates":[4.2240489,44.4109606]},"properties":{"natural":"cave_entrance"}},
{"type":"Feature","geometry":{"type":"Point","coordinates":[4.2262585,44.4100296]},"properties":{"archaeological_site":"megalith","historic":"archaeological_site","megalith_type":"dolmen"}},
{"type":"Feature","geometry":{"type":"Point","coordinates":[4.2270643,44.413576]},"properties":{"archaeological_site":"megalith","historic":"archaeological_site","megalith_type":"dolmen"}},
{"type":"Feature","geometry":{"type":"Point","coordinates":[4.2095696,44.4249867]},"properties":{"name":"Grotte de Saint-Arnaud","natural":"cave_entrance","wikidata":"Q93616858"}},
{"type":"Feature","geometry":{"type":"Point","coordinates":[4.2044758,44.398299]},"properties":{"name":"Grotte Nègre","natural":"cave_entrance"}},
{"type":"Feature","geometry":{"type":"Point","coordinates":[4.2029082,44.3992929]},"properties":{"name":"Grotte des Cayres","natural":"cave_entrance"}},
{"type":"Feature","geometry":{"type":"Point","coordinates":[4.2043962,44.406571]},"properties":{"natural":"cave_entrance"}},
{"type":"Feature","geometry":{"type":"Point","coordinates":[4.2084038,44.4069159]},"properties":{"name":"Baume Escure","natural":"cave_entrance"}},
{"type":"Feature","geometry":{"type":"Point","coordinates":[4.2048218,44.415355]},"properties":{"natural":"cave_entrance"}},
{"type":"Feature","geometry":{"type":"Point","coordinates":[4.2091003,44.4157052]},"properties":{"natural":"cave_entrance"}},
{"type":"Feature","geometry":{"type":"Point","coordinates":[4.1786668,44.4074765]},"properties":{"name":"Grotte de Fromentin","natural":"cave_entrance"}},
{"type":"Feature","geometry":{"type":"Point","coordinates":[4.267613,44.4424071]},"properties":{"name":"Puits du Mort","natural":"cave_entrance"}},
{"type":"Feature","geometry":{"type":"Point","coordinates":[4.1823095,44.3993162]},"properties":{"natural":"cave_entrance"}},
{"type":"Feature","geometry":{"type":"Point","coordinates":[4.2517794,44.4442632]},"properties":{"natural":"cave_entrance"}},
{"type":"Feature","geometry":{"type":"Point","coordinates":[4.2573161,44.4431842]},"properties":{"name":"Ranc de Boeuf","natural":"cave_entrance"}},
{"type":"Feature","geometry":{"type":"Point","coordinates":[4.1780645,44.3929901]},"properties":{"natural":"cave_entrance"}},
{"type":"Feature","geometry":{"type":"Point","coordinates":[4.1791266,44.395267]},"properties":{"natural":"cave_entrance"}},
{"type":"Feature","geometry":{"type":"Point","coordinates":[4.1667585,44.3924895]},"properties":{"natural":"cave_entrance"}},
{"type":"Feature","geometry":{"type":"Point","coordinates":[4.1670893,44.3892738]},"properties":{"natural":"cave_entrance"}},
{"type":"Feature","geometry":{"type":"Point","coordinates":[4.1710977,44.3890132]},"properties":{"name":"Aven de Cassignole","natural":"cave_entrance"}},
{"type":"Feature","geometry":{"type":"Point","coordinates":[4.1777403,44.3917636]},"properties":{"natural":"cave_entrance"}},
{"type":"Feature","geometry":{"type":"Point","coordinates":[4.1786463,44.3914999]},"properties":{"natural":"cave_entrance"}},
{"type":"Feature","geometry":{"type":"Point","coordinates":[4.1793982,44.3914032]},"properties":{"natural":"cave_entrance"}},
{"type":"Feature","geometry":{"type":"Point","coordinates":[4.179216,44.390916]},"properties":{"natural":"cave_entrance"}},
{"type":"Feature","geometry":{"type":"Point","coordinates":[4.1702242,44.393855]},"properties":{"name":"Grotte des Assiettes","natural":"cave_entrance"}},
{"type":"Feature","geometry":{"type":"Point","coordinates":[4.1948249,44.3946411]},"properties":{"natural":"cave_entrance"}},
{"type":"Feature","geometry":{"type":"Point","coordinates":[4.1966825,44.3944928]},"properties":{"natural":"cave_entrance"}},
{"type":"Feature","geometry":{"type":"Point","coordinates":[4.1975845,44.3946508]},"properties":{"name":"Grotte de la Padelle","natural":"cave_entrance"}},
{"type":"Feature","geometry":{"type":"Point","coordinates":[4.1956548,44.4041853]},"properties":{"natural":"cave_entrance"}},
{"type":"Feature","geometry":{"type":"Point","coordinates":[4.1903414,44.4020926]},"properties":{"name":"Grotte de la Gleysasse","natural":"cave_entrance"}},
{"type":"Feature","geometry":{"type":"Point","coordinates":[4.1553232,44.3708601]},"properties":{"name":"Grotte du Manaval","natural":"cave_entrance"}},
{"type":"Feature","geometry":{"type":"Point","coordinates":[4.1570825,44.3696419]},"properties":{"natural":"cave_entrance"}},
{"type":"Feature","geometry":{"type":"Point","coordinates":[4.1957688,44.3355584]},"properties":{"name":"Aven de Chalvet","natural":"cave_entrance"}},
{"type":"Feature","geometry":{"type":"Point","coordinates":[4.2026615,44.3317096]},"properties":{"name":"Grotte de l'Ayrot","natural":"cave_entrance"}},
{"type":"Feature","geometry":{"type":"Point","coordinates":[4.2211024,44.330467]},"properties":{"name":"Aven de Clairago","natural":"cave_entrance"}},
{"type":"Feature","geometry":{"type":"Point","coordinates":[4.3051681,44.3973834]},"properties":{"board_type":"geology","information":"board","tourism":"information"}},
{"type":"Feature","geometry":{"type":"Point","coordinates":[4.3067694,44.3976028]},"properties":{"archaeological_site":"megalith","historic":"archaeological_site","megalith_type":"dolmen","name":"Dolmen de la Combe de Bonne Fille","wheelchair":"no"}},
{"type":"Feature","geometry":{"type":"Point","coordinates":[4.3109073,44.4444866]},"properties":{"ele":"185","hiking":"yes","information":"guidepost","name":"Champagnac","tourism":"information"}},
{"type":"Feature","geometry":{"type":"Point","coordinates":[4.3103595,44.4488922]},"properties":{"ele":"125","hiking":"yes","information":"guidepost","name":"La Beaume","survey:date":"2023-02-27","tourism":"information"}},
{"type":"Feature","geometry":{"type":"Point","coordinates":[4.3002382,44.4516982]},"properties":{"ele":"170","hiking":"yes","information":"guidepost","name":"Récatadou","survey:date":"2023-02-27","tourism":"information"}},
{"type":"Feature","geometry":{"type":"Point","coordinates":[4.3003964,44.4510931]},"properties":{"board_type":"nature","information":"board","tourism":"information"}},
{"type":"Feature","geometry":{"type":"Point","coordinates":[4.3081172,44.4491755]},"properties":{"natural":"tree"}},
{"type":"Feature","geometry":{"type":"Point","coordinates":[4.3081132,44.4490319]},"properties":{"natural":"tree"}},
{"type":"Feature","geometry":{"type":"Point","coordinates":[4.3081547,44.449121]},"properties":{"natural":"tree"}},
{"type":"Feature","geometry":{"type":"Point","coordinates":[4.308258,44.4490472]},"properties":{"natural":"tree"}},
{"type":"Feature","geometry":{"type":"Point","coordinates":[4.3082473,44.4489381]},"properties":{"natural":"tree"}},
{"type":"Feature","geometry":{"type":"Point","coordinates":[4.3082727,44.4488414]},"properties":{"natural":"tree"}},
{"type":"Feature","geometry":{"type":"Point","coordinates":[4.3080407,44.4489056]},"properties":{"natural":"tree"}},
{"type":"Feature","geometry":{"type":"Point","coordinates":[4.3079992,44.448805]},"properties":{"natural":"tree"}},
{"type":"Feature","geometry":{"type":"Point","coordinates":[4.3054035,44.4480961]},"properties":{"historic":"memorial","memorial":"war_memorial","name":"Monument aux morts de Labeaume","ref:FR:MemorialGenWeb":"15774"}},
{"type":"Feature","geometry":{"type":"Point","coordinates":[4.3069216,44.4477821]},"properties":{"information":"map","map_size":"city","map_type":"scheme","tourism":"information"}},
{"type":"Feature","geometry":{"type":"Point","coordinates":[4.3060854,44.4476657]},"properties":{"alt_name":"Maison de Labeaume Point Info","fee":"no","information":"office","name":"Maison de labeaume","source":"data.gouv.fr:DATAtourisme - 05/2020","tourism":"information","wheelchair":"yes"}},
{"type":"Feature","geometry":{"type":"Point","coordinates":[4.2599958,44.433483]},"properties":{"historic":"archaeological_site","name":"Dolmen"}},
{"type":"Feature","geometry":{"type":"Point","coordinates":[4.2689489,44.4326839]},"properties":{"name":"Grotte de Bourbouillet","natural":"cave_entrance"}},
{"type":"Feature","geometry":{"type":"Point","coordinates":[4.172807,44.4331567]},"properties":{"addr:postcode":"07140","addr:street":"Champetier Haut","email":"contact@chantepierre.fr","internet_access":"wlan","name":"Gîte Chantepierre","phone":"+33 6 84 42 96 42","tourism":"guest_house","website":"https://www.chantepierre.fr/"}},
{"type":"Feature","geometry":{"type":"Point","coordinates":[4.1674901,44.4370293]},"properties":{"historic":"wayside_cross"}},
{"type":"Feature","geometry":{"type":"Point","coordinates":[4.2669847,44.440956]},"properties":{"historic":"archaeological_site","name":"Dolmen"}},
{"type":"Feature","geometry":{"type":"Point","coordinates":[4.2867999,44.2242012]},"properties":{"name":"Grotte Popeye","natural":"cave_entrance"}},
{"type":"Feature","geometry":{"type":"Point","coordinates":[4.2945063,44.43]},"properties":{"denomination":"catholic","historic":"wayside_cross","ref":"VIII","religion":"christian"}},
{"type":"Feature","geometry":{"type":"Point","coordinates":[4.296235,44.4283824]},"properties":{"denomination":"catholic","historic":"wayside_cross","religion":"christian"}},
{"type":"Feature","geometry":{"type":"Point","coordinates":[4.2968023,44.4260321]},"properties":{"denomination":"catholic","historic":"wayside_cross","religion":"christian"}},
{"type":"Feature","geometry":{"type":"Point","coordinates":[4.2766468,44.4502554]},"properties":{"ele":"238","hiking":"yes","information":"guidepost","mtb":"yes","name":"Falaise de Lunel","survey:date":"2021-12-13","tourism":"information"}},
{"type":"Feature","geometry":{"type":"Point","coordinates":[4.269205,44.4327264]},"properties":{"ele":"175","hiking":"yes","information":"guidepost","mtb":"yes","name":"Bourbouillet","survey:date":"2021-12-13","tourism":"information"}},
{"type":"Feature","geometry":{"type":"Point","coordinates":[4.2582509,44.4349347]},"properties":{"ele":"195","hiking":"yes","information":"guidepost","mtb":"yes","name":"Flandrin","survey:date":"2021-12-13","tourism":"information"}},
{"type":"Feature","geometry":{"type":"Point","coordinates":[4.2749117,44.4361407]},"properties":{"ele":"185","hiking":"yes","information":"guidepost","mtb":"yes","name":"Les Issarts","survey:date":"2021-12-13","tourism":"information"}},
{"type":"Feature","geometry":{"type":"Point","coordinates":[4.2707909,44.4352999]},"properties":{"ele":"185","hiking":"yes","information":"guidepost","mtb":"yes","name":"L'Espeluche","survey:date":"2021-12-13","tourism":"information"}},
{"type":"Feature","geometry":{"type":"Point","coordinates":[4.2762367,44.4398158]},"properties":{"ele":"205","hiking":"yes","information":"guidepost","mtb":"yes","name":"Ventalon","tourism":"information"}},
{"type":"Feature","geometry":{"type":"Point","coordinates":[4.2934421,44.4244691]},"properties":{"ele":"130","hiking":"yes","information":"guidepost","mtb":"yes","name":"La Combe du Merle","survey:date":"2021-12-13","tourism":"information"}},
{"type":"Feature","geometry":{"type":"Point","coordinates":[4.1575849,44.3075835]},"properties":{"hiking":"yes","information":"guidepost","mtb":"yes","tourism":"information"}},
{"type":"Feature","geometry":{"type":"Point","coordinates":[4.1449785,44.3139997]},"properties":{"direction":"270-90","tourism":"viewpoint"}},
{"type":"Feature","geometry":{"type":"Point","coordinates":[4.1486008,44.3361726]},"properties":{"denomination":"catholic","historic":"wayside_cross","religion":"christian"}},
{"type":"Feature","geometry":{"type":"Point","coordinates":[4.1559856,44.3694881]},"properties":{"tourism":"viewpoint"}},
{"type":"Feature","geometry":{"type":"Point","coordinates":[4.2823225,44.4259916]},"properties":{"archaeological_site":"megalith","historic":"archaeological_site","megalith_type":"dolmen","name":"dolmen de combe merle"}},
{"type":"Feature","geometry":{"type":"Point","coordinates":[4.2632566,44.4281103]},"properties":{"board_type":"history","information":"board","tourism":"information"}},
{"type":"Feature","geometry":{"type":"Point","coordinates":[4.263241,44.4281309]},"properties":{"description":"Belvédère","name":"Terrasse Panoramique de Fontgraze","tourism":"viewpoint"}},
{"type":"Feature","geometry":{"type":"Point","coordinates":[4.2618732,44.3904617]},"properties":{"denomination":"catholic","historic":"wayside_cross","religion":"christian"}},
{"type":"Feature","geometry":{"type":"Point","coordinates":[4.2790997,44.4069103]},"properties":{"denomination":"catholic","historic":"wayside_cross","religion":"christian"}},
{"type":"Feature","geometry":{"type":"Point","coordinates":[4.2825463,44.4054003]},"properties":{"denomination":"catholic","historic":"wayside_cross","religion":"christian"}},
{"type":"Feature","geometry":{"type":"Point","coordinates":[4.1636869,44.3287515]},"properties":{"archaeological_site":"tumulus","historic":"archaeological_site","name":"Dolmen"}},
{"type":"Feature","geometry":{"type":"Point","coordinates":[4.1595874,44.3244738]},"properties":{"archaeological_site":"tumulus","historic":"archaeological_site","name":"Dolmen"}},
{"type":"Feature","geometry":{"type":"Point","coordinates":[4.142527,44.3512104]},"properties":{"information":"guidepost","tourism":"information"}},
{"type":"Feature","geometry":{"type":"Point","coordinates":[4.1549724,44.3495849]},"properties":{"denomination":"catholic","historic":"wayside_cross","religion":"christian"}},
{"type":"Feature","geometry":{"type":"Point","coordinates":[4.3082902,44.4504249]},"properties":{"artwork_type":"statue","material":"steel","name":"La statue du carrier","tourism":"artwork"}},
{"type":"Feature","geometry":{"type":"Point","coordinates":[4.308148,44.4501224]},"properties":{"tourism":"viewpoint"}},
{"type":"Feature","geometry":{"type":"Point","coordinates":[4.3071502,44.4492292]},"properties":{"denomination":"catholic","historic":"wayside_cross","religion":"christian"}},
{"type":"Feature","geometry":{"type":"Point","coordinates":[4.3073635,44.4490511]},"properties":{"natural":"spring"}},
{"type":"Feature","geometry":{"type":"Point","coordinates":[4.3045579,44.4504756]},"properties":{"denomination":"catholic","historic":"wayside_cross","religion":"christian"}},
{"type":"Feature","geometry":{"type":"Point","coordinates":[4.3089115,44.2405336]},"properties":{"name":"Grotte du Cimetière","natural":"cave_entrance"}},
{"type":"Feature","geometry":{"type":"Point","coordinates":[4.3011128,44.2431689]},"properties":{"name":"Grotte de la Toussaint","natural":"cave_entrance"}},
{"type":"Feature","geometry":{"type":"Point","coordinates":[4.1530498,44.3387445]},"properties":{"information":"board","tourism":"information"}},
{"type":"Feature","geometry":{"type":"Point","coordinates":[4.3105862,44.2412821]},"properties":{"colour":"black","historic":"wayside_cross","material":"metal"}},
{"type":"Feature","geometry":{"type":"Point","coordinates":[4.08575,44.2523377]},"properties":{"historic":"memorial","memorial":"war_memorial","name":"Monument aux Morts"}},
{"type":"Feature","geometry":{"type":"Point","coordinates":[4.0847596,44.2527997]},"properties":{"board_type":"notice","information":"board","name":"Le Martinet","tourism":"information"}},
{"type":"Feature","geometry":{"type":"Point","coordinates":[4.113833,44.4001124]},"properties":{"information":"board","tourism":"information"}},
{"type":"Feature","geometry":{"type":"Point","coordinates":[4.1141687,44.399078]},"properties":{"leisure":"picnic_table"}},
{"type":"Feature","geometry":{"type":"Point","coordinates":[4.1141666,44.3990933]},"properties":{"leisure":"picnic_table"}},
{"type":"Feature","geometry":{"type":"Point","coordinates":[4.1701383,44.2709487]},"properties":{"leisure":"picnic_table"}},
{"type":"Feature","geometry":{"type":"Point","coordinates":[4.1702054,44.2709909]},"properties":{"leisure":"picnic_table"}},
{"type":"Feature","geometry":{"type":"Point","coordinates":[4.1698802,44.2713222]},"properties":{"information":"map","map_size":"city","map_type":"scheme","name":"Commune de Meyrannes","tourism":"information"}},
{"type":"Feature","geometry":{"type":"Point","coordinates":[4.1634764,44.270179]},"properties":{"colour":"gray","historic":"wayside_cross","material":"concrete"}},
{"type":"Feature","geometry":{"type":"Point","coordinates":[4.1666766,44.3528474]},"properties":{"name":"Florentin","tourism":"chalet","website":"https://www.gites-de-france.com/fr/auvergne-rhone-alpes/ardeche/florentin-24019"}},
{"type":"Feature","geometry":{"type":"Point","coordinates":[4.2010058,44.2650916]},"properties":{"description":"Calvaire avec Christ sur la croix","historic":"wayside_cross"}},
{"type":"Feature","geometry":{"type":"Point","coordinates":[4.2669094,44.3792025]},"properties":{"leisure":"bowling_alley"}},
{"type":"Feature","geometry":{"type":"Point","coordinates":[4.2361887,44.3939141]},"properties":{"leaf_type":"broadleaved","natural":"tree"}},
{"type":"Feature","geometry":{"type":"Point","coordinates":[4.2362132,44.3938336]},"properties":{"leaf_type":"broadleaved","natural":"tree"}},
{"type":"Feature","geometry":{"type":"Point","coordinates":[4.2362605,44.3937427]},"properties":{"leaf_type":"broadleaved","natural":"tree"}},
{"type":"Feature","geometry":{"type":"Point","coordinates":[4.2362981,44.3936588]},"properties":{"leaf_type":"broadleaved","natural":"tree"}},
{"type":"Feature","geometry":{"type":"Point","coordinates":[4.2364531,44.3938873]},"properties":{"leaf_type":"broadleaved","natural":"tree"}},
{"type":"Feature","geometry":{"type":"Point","coordinates":[4.2364792,44.3938243]},"properties":{"leaf_type":"broadleaved","natural":"tree"}},
{"type":"Feature","geometry":{"type":"Point","coordinates":[4.2365085,44.3937555]},"properties":{"leaf_type":"broadleaved","natural":"tree"}},
{"type":"Feature","geometry":{"type":"Point","coordinates":[4.2365314,44.3936821]},"properties":{"leaf_type":"broadleaved","natural":"tree"}},
{"type":"Feature","geometry":{"type":"Point","coordinates":[4.2365379,44.3936098]},"properties":{"leaf_type":"broadleaved","natural":"tree"}},
{"type":"Feature","geometry":{"type":"Point","coordinates":[4.2365183,44.3935445]},"properties":{"leaf_type":"broadleaved","natural":"tree"}},
{"type":"Feature","geometry":{"type":"Point","coordinates":[4.2360093,44.3938919]},"properties":{"leaf_type":"broadleaved","natural":"tree"}},
{"type":"Feature","geometry":{"type":"Point","coordinates":[4.2360468,44.393808]},"properties":{"leaf_type":"broadleaved","natural":"tree"}},
{"type":"Feature","geometry":{"type":"Point","coordinates":[4.2360778,44.3937147]},"properties":{"leaf_type":"broadleaved","natural":"tree"}},
{"type":"Feature","geometry":{"type":"Point","coordinates":[4.2361104,44.3936308]},"properties":{"leaf_type":"broadleaved","natural":"tree"}},
{"type":"Feature","geometry":{"type":"Point","coordinates":[4.2361447,44.3935457]},"properties":{"leaf_type":"broadleaved","natural":"tree"}},
{"type":"Feature","geometry":{"type":"Point","coordinates":[4.2361023,44.3934734]},"properties":{"leaf_type":"broadleaved","natural":"tree"}},
{"type":"Feature","geometry":{"type":"Point","coordinates":[4.2360664,44.3934279]},"properties":{"leaf_type":"broadleaved","natural":"tree"}},
{"type":"Feature","geometry":{"type":"Point","coordinates":[4.2360403,44.3933894]},"properties":{"leaf_type":"broadleaved","natural":"tree"}},
{"type":"Feature","geometry":{"type":"Point","coordinates":[4.2360207,44.3933381]},"properties":{"leaf_type":"broadleaved","natural":"tree"}},
{"type":"Feature","geometry":{"type":"Point","coordinates":[4.2367288,44.3932927]},"properties":{"leaf_type":"broadleaved","natural":"tree"}},
{"type":"Feature","geometry":{"type":"Point","coordinates":[4.2363242,44.3931504]},"properties":{"leaf_type":"broadleaved","natural":"tree"}},
{"type":"Feature","geometry":{"type":"Point","coordinates":[4.2363715,44.3931003]},"properties":{"leaf_type":"broadleaved","natural":"tree"}},
{"type":"Feature","geometry":{"type":"Point","coordinates":[4.2363992,44.3930408]},"properties":{"leaf_type":"broadleaved","natural":"tree"}},
{"type":"Feature","geometry":{"type":"Point","coordinates":[4.2364482,44.3929837]},"properties":{"leaf_type":"broadleaved","natural":"tree"}},
{"type":"Feature","geometry":{"type":"Point","coordinates":[4.2825184,44.4288233]},"properties":{"tourism":"information"}},
{"type":"Feature","geometry":{"type":"Point","coordinates":[4.293243,44.2580227]},"properties":{"name":"Platane","natural":"tree","source":"locale"}},
{"type":"Feature","geometry":{"type":"Point","coordinates":[4.1458764,44.2310359]},"properties":{"natural":"tree","source":"locale"}},
{"type":"Feature","geometry":{"type":"Point","coordinates":[4.1459716,44.2310085]},"properties":{"natural":"tree","source":"locale"}},
{"type":"Feature","geometry":{"type":"Point","coordinates":[4.1461258,44.23096]},"properties":{"natural":"tree","source":"locale"}},
{"type":"Feature","geometry":{"type":"Point","coordinates":[4.1462532,44.2309158]},"properties":{"natural":"tree","source":"locale"}},
{"type":"Feature","geometry":{"type":"Point","coordinates":[4.1464075,44.2308754]},"properties":{"name":"Platane","natural":"tree","source":"locale"}},
{"type":"Feature","geometry":{"type":"Point","coordinates":[4.1465295,44.2308375]},"properties":{"natural":"tree","source":"locale"}},
{"type":"Feature","geometry":{"type":"Point","coordinates":[4.1160992,44.4493361]},"properties":{"historic":"wayside_cross","name":"Croix d'Alègre"}},
{"type":"Feature","geometry":{"type":"Point","coordinates":[4.1275382,44.416024]},"properties":{"historic":"wayside_cross"}},
{"type":"Feature","geometry":{"type":"Point","coordinates":[4.1340189,44.4129547]},"properties":{"historic":"wayside_cross"}},
{"type":"Feature","geometry":{"type":"Point","coordinates":[4.1351942,44.4120256]},"properties":{"historic":"wayside_cross"}},
{"type":"Feature","geometry":{"type":"Point","coordinates":[4.1488507,44.414117]},"properties":{"historic":"wayside_cross"}},
{"type":"Feature","geometry":{"type":"Point","coordinates":[4.136286,44.4178179]},"properties":{"historic":"wayside_cross"}},
{"type":"Feature","geometry":{"type":"Point","coordinates":[4.1276133,44.4160682]},"properties":{"barrier":"gate"}},
{"type":"Feature","geometry":{"type":"Point","coordinates":[4.1315831,44.4123493]},"properties":{"historic":"wayside_cross"}},
{"type":"Feature","geometry":{"type":"Point","coordinates":[4.1291569,44.4176865]},"properties":{"barrier":"gate"}},
{"type":"Feature","geometry":{"type":"Point","coordinates":[4.2582851,44.4291499]},"properties":{"ele":"160","hiking":"yes","information":"guidepost","name":"Font Méjanne","name:signed":"Font Méjanne","survey:date":"2024-01-25","tourism":"information"}},
{"type":"Feature","geometry":{"type":"Point","coordinates":[4.2490925,44.4266713]},"properties":{"ele":"190","hiking":"yes","information":"guidepost","name":"Le Bois Chabanet","name:signed":"Le Bois Chabanet","survey:date":"2024-01-25","tourism":"information"}},
{"type":"Feature","geometry":{"type":"Point","coordinates":[4.2385851,44.4292578]},"properties":{"ele":"195","hiking":"yes","information":"guidepost","name":"La Croix de Raoux","survey:date":"2024-01-31","tourism":"information"}},
{"type":"Feature","geometry":{"type":"Point","coordinates":[4.2480106,44.4116957]},"properties":{"ele":"140","hiking":"yes","information":"guidepost","name":"Cham de Rode","survey:date":"2024-01-31","tourism":"information"}},
{"type":"Feature","geometry":{"type":"Point","coordinates":[4.2507372,44.4077675]},"properties":{"ele":"140","hiking":"yes","information":"guidepost","name":"La Pause","tourism":"information"}},
{"type":"Feature","geometry":{"type":"Point","coordinates":[4.2535965,44.4034127]},"properties":{"ele":"130","hiking":"yes","information":"guidepost","name":"Chandolas","survey:date":"2024-02-16","tourism":"information"}},
{"type":"Feature","geometry":{"type":"Point","coordinates":[4.2590519,44.4374771]},"properties":{"ele":"205","hiking":"yes","information":"guidepost","name":"Le Réméjadou","survey:date":"2021-12-13","tourism":"information"}},
{"type":"Feature","geometry":{"type":"Point","coordinates":[4.2343067,44.3925173]},"properties":{"ele":"110","hiking":"yes","information":"guidepost","name":"Le Pont de Maisonneuve","note":"Poteau en partie caché","survey:date":"2024-02-16","tourism":"information"}},
{"type":"Feature","geometry":{"type":"Point","coordinates":[4.2993297,44.4414011]},"properties":{"ele":"200","hiking":"yes","information":"guidepost","name":"Robert","tourism":"information"}},
{"type":"Feature","geometry":{"type":"Point","coordinates":[4.1782622,44.4129472]},"properties":{"addr:place":"Le Pontier","email":"info@ceven-aventure.com","name":"Les Cabanes de Cornillon - Ceven' Aventure","operator":"Céven'Aventure","phone":"+33 4 75 94 98 68","ref":"517 844","stars":"2","tourism":"camp_site","website":"https://www.cabanes-cornillon.com/"}},
{"type":"Feature","geometry":{"type":"Point","coordinates":[4.0819795,44.2561327]},"properties":{"tourism":"camp_site"}},
{"type":"Feature","geometry":{"type":"Point","coordinates":[4.0835822,44.3533295]},"properties":{"name":"Serre des Abeillards","natural":"peak"}},
{"type":"Feature","geometry":{"type":"Point","coordinates":[4.2713447,44.4363055]},"properties":{"name":"Event de l'Espeluche","natural":"cave_entrance"}},
{"type":"Feature","geometry":{"type":"Point","coordinates":[4.2767924,44.4413905]},"properties":{"name":"Grotte de l'Espeluche","natural":"cave_entrance"}},
{"type":"Feature","geometry":{"type":"Point","coordinates":[4.2092583,44.4523004]},"properties":{"bridge:support":"bridge","historic":"archaeological_site","historic:civilization":"medieval","material":"stone","name":"Pont mégalithique"}},
{"type":"Feature","geometry":{"type":"Point","coordinates":[4.1560147,44.382443]},"properties":{"name":"Dragonnière de Banne (entrée artificielle)","natural":"cave_entrance"}},
{"type":"Feature","geometry":{"type":"Point","coordinates":[4.0999303,44.4000138]},"properties":{"name":"Aven des Cèdres","natural":"cave_entrance"}},
{"type":"Feature","geometry":{"type":"Point","coordinates":[4.1674856,44.4488669]},"properties":{"name":"Résurgence du Pigeonnier","natural":"cave_entrance"}},
{"type":"Feature","geometry":{"type":"Point","coordinates":[4.1988791,44.3991167]},"properties":{"addr:street":"Les Lauzaces de Casteljau","air_conditioning":"yes","description":"Les Lauzaces proposent 7 gîtes en pierre de pays pour 3/4 personnes. Chaque gîte est équipé d'un accès indépendant avec une terrasse couverte et une terrasse ombragée au calme.","internet_access":"yes","internet_access:fee":"no","name":"Les Lauzaces","phone":"+33 4 75 93 31 94","tourism":"chalet","website":"http://www.lauzaces.com/"}},
{"type":"Feature","geometry":{"type":"Point","coordinates":[4.2947409,44.2391547]},"properties":{"information":"map","map_size":"site","map_type":"map","tourism":"information"}},
{"type":"Feature","geometry":{"type":"Point","coordinates":[4.296919,44.240065800000007]},"properties":{"tourism":"viewpoint"}},
{"type":"Feature","geometry":{"type":"Point","coordinates":[4.1609827,44.4337185]},"properties":{"name":"Les Mas de Payzac","tourism":"guest_house"}},
{"type":"Feature","geometry":{"type":"Point","coordinates":[4.1560732,44.3645628]},"properties":{"historic":"memorial","memorial":"war_memorial","ref:FR:MemorialGenWeb":"15778"}},
{"type":"Feature","geometry":{"type":"Point","coordinates":[4.1408325,44.3144274]},"properties":{"natural":"cave_entrance"}},
{"type":"Feature","geometry":{"type":"Point","coordinates":[4.1419335,44.2322414]},"properties":{"historic":"wayside_cross"}},
{"type":"Feature","geometry":{"type":"Point","coordinates":[4.1317242,44.4122065]},"properties":{"leisure":"picnic_table"}},
{"type":"Feature","geometry":{"type":"Point","coordinates":[4.1319388,44.4123319]},"properties":{"tourism":"viewpoint"}},
{"type":"Feature","geometry":{"type":"Point","coordinates":[4.309358,44.4479553]},"properties":{"tourism":"information"}},
{"type":"Feature","geometry":{"type":"Point","coordinates":[4.3103013,44.4476193]},"properties":{"tourism":"information"}},
{"type":"Feature","geometry":{"type":"Point","coordinates":[4.1189077,44.429282]},"properties":{"addr:housenumber":"56","addr:street":"Chemin des Sielves","air_conditioning":"yes","description":"Belle bâtisse**** traditionnelle du XVIIe totalement rénovée. 5 chambres climatisées avec chacune, salle de bain et toilettes privatives ; WiFi ; grande piscine avec vue panoramique","ele":"350","image":"website=https://les-terrasses-des-sielves.fr/wp-content/uploads/2020/11/cropped-20190516_132809-logo-GdF0Charme2-scaled-2.jpg","internet_access":"wlan","internet_access:fee":"no","name":"Gîte 4**** Les Terrasses des Sielves","operator":"P. BEAUFILS / GITARDECHE","phone":"+33 6 42 70 17 05","smoking":"outside","stars":"4","tourism":"chalet","website":"https://les-terrasses-des-sielves.fr/","wheelchair":"no"}},
{"type":"Feature","geometry":{"type":"Point","coordinates":[4.1668195,44.2293332]},"properties":{"entrance":"yes"}},
{"type":"Feature","geometry":{"type":"Point","coordinates":[4.166566,44.2294208]},"properties":{"entrance":"yes"}},
{"type":"Feature","geometry":{"type":"Point","coordinates":[4.165218,44.2288476]},"properties":{"access":"yes","leisure":"playground","surface":"artificial_turf"}},
{"type":"Feature","geometry":{"type":"Point","coordinates":[4.1655874,44.228853]},"properties":{"leisure":"fitness_station","sport":"fitness"}},
{"type":"Feature","geometry":{"type":"Point","coordinates":[4.1657467,44.2288603]},"properties":{"barrier":"kissing_gate","bicycle":"no","foot":"yes","horse":"no","motor_vehicle":"no","wheelchair":"no"}},
{"type":"Feature","geometry":{"type":"Point","coordinates":[4.1670732,44.2290206]},"properties":{"historic":"memorial","memorial":"war_memorial"}},
{"type":"Feature","geometry":{"type":"Point","coordinates":[4.1524093,44.3670905]},"properties":{"name":"Grotte des Combes","natural":"cave_entrance"}},
{"type":"Feature","geometry":{"type":"Point","coordinates":[4.1661453,44.2295582]},"properties":{"natural":"tree"}},
{"type":"Feature","geometry":{"type":"Point","coordinates":[4.1653402,44.2288635]},"properties":{"door":"gate","entrance":"yes"}},
{"type":"Feature","geometry":{"type":"Point","coordinates":[4.1111485,44.2409858]},"properties":{"door":"yes","entrance":"service"}},
{"type":"Feature","geometry":{"type":"Point","coordinates":[4.1110733,44.2411198]},"properties":{"entrance":"yes"}},
{"type":"Feature","geometry":{"type":"Point","coordinates":[4.1206999,44.2374722]},"properties":{"description":"ancienne berline de mine","historic":"yes","tourism":"artwork"}},
{"type":"Feature","geometry":{"type":"Point","coordinates":[4.196705,44.2582099]},"properties":{"leisure":"sports_hall","name":"Salle de Gymnastique","sport":"gymnastics"}},
{"type":"Feature","geometry":{"type":"Point","coordinates":[4.1962881,44.259721]},"properties":{"leisure":"playground"}},
{"type":"Feature","geometry":{"type":"Point","coordinates":[4.1900561,44.2584225]},"properties":{"natural":"tree"}},
{"type":"Feature","geometry":{"type":"Point","coordinates":[4.2025566,44.2613838]},"properties":{"leisure":"picnic_table"}},
{"type":"Feature","geometry":{"type":"Point","coordinates":[4.2030625,44.2614543]},"properties":{"natural":"tree"}},
{"type":"Feature","geometry":{"type":"Point","coordinates":[4.1970138,44.2601989]},"properties":{"natural":"tree"}},
{"type":"Feature","geometry":{"type":"Point","coordinates":[4.1971047,44.2602254]},"properties":{"natural":"tree"}},
{"type":"Feature","geometry":{"type":"Point","coordinates":[4.1291494,44.4168609]},"properties":{"historic":"memorial","memorial":"war_memorial","ref:FR:MemorialGenWeb":"5606"}},
{"type":"Feature","geometry":{"type":"Point","coordinates":[4.1593927,44.4450448]},"properties":{"name":"Sur les Traces des Premiers Dinosaures","source":"BDTopo IGN","tourism":"museum"}},
{"type":"Feature","geometry":{"type":"Point","coordinates":[4.0991134,44.2909247]},"properties":{"information":"office","name":"Office de Tourisme Intercommunal Cévennes Actives","source":"BDTopo IGN","tourism":"information"}},
{"type":"Feature","geometry":{"type":"Point","coordinates":[4.1642945,44.4056111]},"properties":{"information":"map","map_type":"toposcope","source":"BDTopo IGN","tourism":"viewpoint"}},
{"type":"Feature","geometry":{"type":"Point","coordinates":[4.283516,44.3568149]},"properties":{"information":"map","map_type":"toposcope","source":"BDTopo IGN","tourism":"viewpoint"}},
{"type":"Feature","geometry":{"type":"Point","coordinates":[4.2645142,44.4109771]},"properties":{"information":"map","map_type":"toposcope","source":"BDTopo IGN","tourism":"viewpoint"}},
{"type":"Feature","geometry":{"type":"Point","coordinates":[4.0865453,44.2852275]},"properties":{"source":"BDTopo IGN","tourism":"viewpoint"}},
{"type":"Feature","geometry":{"type":"Point","coordinates":[4.1744144,44.3102332]},"properties":{"information":"map","map_type":"toposcope","tourism":"information"}},
{"type":"Feature","geometry":{"type":"Point","coordinates":[4.2056595,44.2984667]},"properties":{"information":"map","map_type":"toposcope","source":"BDTopo IGN","tourism":"viewpoint"}},
{"type":"Feature","geometry":{"type":"Point","coordinates":[4.1349685,44.3604926]},"properties":{"source":"BDTopo IGN","tourism":"viewpoint"}},
{"type":"Feature","geometry":{"type":"Point","coordinates":[4.1295263,44.3734737]},"properties":{"source":"BDTopo IGN","tourism":"viewpoint"}},
{"type":"Feature","geometry":{"type":"Point","coordinates":[4.2869686,44.3586233]},"properties":{"source":"BDTopo IGN","tourism":"viewpoint"}},
{"type":"Feature","geometry":{"type":"Point","coordinates":[4.1570129,44.3688846]},"properties":{"information":"map","map_type":"toposcope","source":"BDTopo IGN","tourism":"viewpoint"}},
{"type":"Feature","geometry":{"type":"Point","coordinates":[4.1564336,44.3391072]},"properties":{"source":"BDTopo IGN","tourism":"viewpoint"}},
{"type":"Feature","geometry":{"type":"Point","coordinates":[4.0829538,44.3970538]},"properties":{"free_flying:site":"takeoff","leisure":"pitch","name":"Site de vol libre","source":"BDTopo IGN","sport":"free_flying"}},
{"type":"Feature","geometry":{"type":"Point","coordinates":[4.153984,44.3403374]},"properties":{"description":"Écomusée","name":"Musée Ardèche 1900","source":"BDTopo IGN","tourism":"museum"}},
{"type":"Feature","geometry":{"type":"Point","coordinates":[4.2222114,44.4074583]},"properties":{"fee":"no","name":"Le Hameau des Buis - Ferme pédagogique","opening_hours":"Apr-Oct: Mo 17:00-19:00; Nov-Mar: Mo 16:00-17:30","source":"BDTopo IGN","tourism":"museum","website":"https://hameaudesbuis.com/"}},
{"type":"Feature","geometry":{"type":"Point","coordinates":[4.1262232,44.3091934]},"properties":{"name":"Musée de la Mine","source":"BDTopo IGN","tourism":"museum","website":"https://www.museeminegagnieres.fr/"}},
{"type":"Feature","geometry":{"type":"Point","coordinates":[4.2767111,44.4154406]},"properties":{"access":"customers","barrier":"gate","check_date":"2024-04-28","entrance":"main","height":"3","material":"wood","operator":"Randa Ardesca","wheelchair":"yes"}},
{"type":"Feature","geometry":{"type":"Point","coordinates":[4.1150055,44.3501344]},"properties":{"description":"Ancienne mine","historic":"mine","source":"BDTopo IGN"}},
{"type":"Feature","geometry":{"type":"Point","coordinates":[4.1202204,44.3449244]},"properties":{"description":"Ancienne mine","historic":"mine","source":"BDTopo IGN"}},
{"type":"Feature","geometry":{"type":"Point","coordinates":[4.1534422,44.3531527]},"properties":{"description":"Ancienne mine","historic":"mine","source":"BDTopo IGN"}},
{"type":"Feature","geometry":{"type":"Point","coordinates":[4.1173243,44.3415037]},"properties":{"description":"Ancienne mine","historic":"mine","source":"BDTopo IGN"}},
{"type":"Feature","geometry":{"type":"Point","coordinates":[4.1432264,44.3341778]},"properties":{"description":"Ancienne mine","historic":"mine","source":"BDTopo IGN"}},
{"type":"Feature","geometry":{"type":"Point","coordinates":[4.1303343,44.3690869]},"properties":{"description":"Ancienne mine","historic":"mine","source":"BDTopo IGN"}},
{"type":"Feature","geometry":{"type":"Point","coordinates":[4.1161273,44.3384574]},"properties":{"description":"Ancienne mine","historic":"mine","source":"BDTopo IGN"}},
{"type":"Feature","geometry":{"type":"Point","coordinates":[4.0833407,44.3462431]},"properties":{"description":"Ancienne mine","historic":"mine","source":"BDTopo IGN"}},
{"type":"Feature","geometry":{"type":"Point","coordinates":[4.1208453,44.3430843]},"properties":{"description":"Petite galerie de voie ferrée (écroulé)","historic":"mine","source":"BDTopo IGN"}},
{"type":"Feature","geometry":{"type":"Point","coordinates":[4.1200172,44.343561]},"properties":{"description":"Petite galerie de voie ferrée (écroulé)","historic":"yes","playground:theme":"train","source":"BDTopo IGN"}},
{"type":"Feature","geometry":{"type":"Point","coordinates":[4.3095213,44.2793108]},"properties":{"description":"Ancienne mine","historic":"mine","name":"Ancien Puits Alexandre","source":"BDTopo IGN"}},
{"type":"Feature","geometry":{"type":"Point","coordinates":[4.1295826,44.2971027]},"properties":{"description":"Ancienne mine","historic":"mine","source":"BDTopo IGN"}},
{"type":"Feature","geometry":{"type":"Point","coordinates":[4.1312349,44.2999602]},"properties":{"description":"Ancienne mine","historic":"mine","source":"BDTopo IGN"}},
{"type":"Feature","geometry":{"type":"Point","coordinates":[4.1435905,44.3095292]},"properties":{"description":"Ancienne mine","historic":"mine","source":"BDTopo IGN"}},
{"type":"Feature","geometry":{"type":"Point","coordinates":[4.1435127,44.3094026]},"properties":{"description":"Ancienne mine","historic":"mine","source":"BDTopo IGN"}},
{"type":"Feature","geometry":{"type":"Point","coordinates":[4.1256619,44.3701865]},"properties":{"description":"Ancienne mine","historic":"mine","name":"Ancienne Mine de Pigère","source":"BDTopo IGN"}},
{"type":"Feature","geometry":{"type":"Point","coordinates":[4.1482535,44.3252661]},"properties":{"description":"Ancienne mine","historic":"mine","name":"Ancien Puits de la Vernède","source":"BDTopo IGN"}},
{"type":"Feature","geometry":{"type":"Point","coordinates":[4.1168381,44.3410443]},"properties":{"description":"Ancienne mine","historic":"mine","source":"BDTopo IGN"}},
{"type":"Feature","geometry":{"type":"Point","coordinates":[4.1166443,44.3403868]},"properties":{"description":"Ancienne mine","historic":"mine","source":"BDTopo IGN"}},
{"type":"Feature","geometry":{"type":"Point","coordinates":[4.0911426,44.2901394]},