{"type":"FeatureCollection","features":[
{"type":"Feature","geometry":{"type":"Point","coordinates":[3.8593604,47.4895229]},"properties":{"amenity":"restaurant","name":"Au Soleil d'Or","rooms":"14","stars":"2","tourism":"hotel","website":"http://www.ausoleildor.com"}},
{"type":"Feature","geometry":{"type":"Point","coordinates":[4.0708834,47.4526928]},"properties":{"name":"Sainte-Magnance","source":"survey","traffic_sign":"city_limit"}},
{"type":"Feature","geometry":{"type":"Point","coordinates":[4.0120887,47.293088]},"properties":{"ele":"610","historic":"wayside_cross","name":"La Croix du Château","natural":"peak"}},
{"type":"Feature","geometry":{"type":"Point","coordinates":[3.8662744,47.4017003]},"properties":{"ele":"343","name":"Le Morlin","natural":"peak"}},
{"type":"Feature","geometry":{"type":"Point","coordinates":[3.8482871,47.3999142]},"properties":{"tourism":"guest_house"}},
{"type":"Feature","geometry":{"type":"Point","coordinates":[3.9074729,47.4847078]},"properties":{"historic":"city_gate","name":"Petite porte"}},
{"type":"Feature","geometry":{"type":"Point","coordinates":[4.0272206,47.4708003]},"properties":{"bus":"yes","highway":"bus_stop","name":"Cussy-les-Forges","public_transport":"stop_position"}},
{"type":"Feature","geometry":{"type":"Point","coordinates":[3.8677345,47.4888867]},"properties":{"contact:housenumber":"10","email":"contact@hotel-moulin-des-templiers.com","fax":"+33 3 86 34 03 05","name":"Le Moulin des Templiers","phone":"+33 3 86 34 10 80","rooms":"15","stars":"2","tourism":"hotel","website":"https://hotel-moulin-des-templiers.com/"}},
{"type":"Feature","geometry":{"type":"Point","coordinates":[3.8578549,47.4887109]},"properties":{"amenity":"restaurant","contact:housenumber":"69","email":"info@hotel-lesfleurs.com","fax":"+33 3 86 34 23 32","internet_access":"wlan","name":"Les Fleurs","phone":"+33 3 86 34 13 81","rooms":"7","stars":"2","tourism":"hotel","website":"https://hotel-lesfleurs.com/"}},
{"type":"Feature","geometry":{"type":"Point","coordinates":[3.9064009,47.4864873]},"properties":{"barrier":"entrance"}},
{"type":"Feature","geometry":{"type":"Point","coordinates":[3.9060235,47.4866521]},"properties":{"barrier":"entrance"}},
{"type":"Feature","geometry":{"type":"Point","coordinates":[4.009612,47.3292281]},"properties":{"tourism":"picnic_site"}},
{"type":"Feature","geometry":{"type":"Point","coordinates":[4.0096281,47.3286801]},"properties":{"historic":"memorial","memorial":"stele","name":"Stèle du Maquis Camille","start_date":"1984-09-16"}},
{"type":"Feature","geometry":{"type":"Point","coordinates":[3.9983735,47.368133]},"properties":{"addr:housename":"Hotel-Restaurant Le Morvan","addr:housenumber":"6","amenity":"restaurant","cuisine":"french","name":"Le Morvan","tourism":"hotel","website":"https://www.le-morvan.fr/"}},
{"type":"Feature","geometry":{"type":"Point","coordinates":[3.8444585,47.3267213]},"properties":{"name":"Maison Jarso","tourism":"guest_house"}},
{"type":"Feature","geometry":{"type":"Point","coordinates":[4.0683672,47.4945965]},"properties":{"historic":"castle","name":"Château de Ragny","source":"http://fr.wikipedia.org/wiki/Ch%C3%A2teau_de_Ragny","wikidata":"Q2970335","wikipedia":"fr:Château de Ragny"}},
{"type":"Feature","geometry":{"type":"Point","coordinates":[3.921577,47.4874097]},"properties":{"barrier":"gate"}},
{"type":"Feature","geometry":{"type":"Point","coordinates":[3.9134382,47.4800429]},"properties":{"addr:city":"Avallon","addr:postcode":"89200","addr:street":"Rue sous Roche","caravans":"yes","drinking_water":"yes","name":"Camping municipal sous Roche","operator":"Mairie","power_supply":"yes","shower":"yes","tents":"yes","toilets":"yes","tourism":"camp_site","website":"https://campingsousroche.com/"}},
{"type":"Feature","geometry":{"type":"Point","coordinates":[3.9129654,47.4801413]},"properties":{"access":"customers","leisure":"playground"}},
{"type":"Feature","geometry":{"type":"Point","coordinates":[3.8876655,47.4810934]},"properties":{"covered":"no","leisure":"picnic_table"}},
{"type":"Feature","geometry":{"type":"Point","coordinates":[3.8873662,47.4810757]},"properties":{"covered":"no","leisure":"picnic_table"}},
{"type":"Feature","geometry":{"type":"Point","coordinates":[3.9070064,47.4865424]},"properties":{"information":"office","name":"Office de Tourisme","tourism":"information"}},
{"type":"Feature","geometry":{"type":"Point","coordinates":[3.9064662,47.4867919]},"properties":{"addr:housenumber":"5","addr:street":"Rue du Collège","name":"Musée de l'Avallonnais ou Musée d'Avallon","official_name":"Musée de l'Avallonnais - Jean Després","phone":"+33 3 86 34 03 19","ref:FR:museofile":"M0186","source":"cadastre-dgi-fr source : Direction Générale des Finances Publiques - Cadastre. Mise à jour : 2019","tourism":"museum","website":"https://www.museeavallonnais.com/","wikidata":"Q1269923"}},
{"type":"Feature","geometry":{"type":"Point","coordinates":[3.8812333,47.4972248]},"properties":{"name":"Gîte de France Gérard Marchand","tourism":"guest_house"}},
{"type":"Feature","geometry":{"type":"Point","coordinates":[3.9082489,47.488105]},"properties":{"addr:city":"Avallon","addr:postcode":"89200","fee":"yes","name":"Musée du costume","tourism":"museum","wikidata":"Q1273261"}},
{"type":"Feature","geometry":{"type":"Point","coordinates":[3.8881495,47.3851368]},"properties":{"historic":"memorial","memorial":"statue"}},
{"type":"Feature","geometry":{"type":"Point","coordinates":[4.0074598,47.314027]},"properties":{"ele":"556","name":"Rocher de la Pérouse","natural":"rock","tourism":"viewpoint"}},
{"type":"Feature","geometry":{"type":"Point","coordinates":[4.0640536,47.3554133]},"properties":{"historic":"wayside_shrine"}},
{"type":"Feature","geometry":{"type":"Point","coordinates":[4.0597447,47.3793466]},"properties":{"tourism":"picnic_site"}},
{"type":"Feature","geometry":{"type":"Point","coordinates":[3.9087196,47.4897352]},"properties":{"check_date":"2024-08-23","description":"Construit en 1707. Etablissement rouvert en 2024 après 8 ans de fermeture","name":"Hôtel de la Poste","old_name":"Hostelerie de la Poste","phone":"+33 3 10 45 16 16","stars":"4","tourism":"hotel","website":"https://hoteldelaposteavallon.com/"}},
{"type":"Feature","geometry":{"type":"Point","coordinates":[3.9077282,47.4896803]},"properties":{"historic":"memorial","memorial":"statue","subject:wikidata":"Q192839","wikidata":"Q21546431","wikimedia_commons":"File:Statue Vauban Avallon 6.jpg"}},
{"type":"Feature","geometry":{"type":"Point","coordinates":[4.0520214,47.4391805]},"properties":{"internet_access":"wlan","internet_access:fee":"no","name":"Ferme des Ruats","place":"farm","rooms":"3","tourism":"guest_house"}},
{"type":"Feature","geometry":{"type":"Point","coordinates":[3.9442558,47.364369]},"properties":{"historic":"wayside_cross","source":"©IGN 2010 dans le cadre de la cartographie réglementaire"}},
{"type":"Feature","geometry":{"type":"Point","coordinates":[4.0466834,47.3854048]},"properties":{"historic":"memorial","memorial":"statue","name":"Statue de Vauban"}},
{"type":"Feature","geometry":{"type":"Point","coordinates":[4.0218611,47.3848911]},"properties":{"name":"Gîte du Moulin Simonneau","phone":"+33 3 86 33 01 15","rooms":"4","stars":"3","tourism":"guest_house"}},
{"type":"Feature","geometry":{"type":"Point","coordinates":[3.9965236,47.3685955]},"properties":{"air_conditioning":"yes","check_date":"2024-08-26","cuisine":"french","name":"Hôtel du Nord","outdoor_seating":"yes","panoramax":"98af918c-e49d-4fc9-ba0f-0ff00a3238fe","phone":"+33 3 86 32 29 30","rooms":"6","stars":"2","tourism":"hotel","website":"http://www.hoteldunord-morvan.com"}},
{"type":"Feature","geometry":{"type":"Point","coordinates":[4.0461432,47.3852571]},"properties":{"name":"Maison Vauban","tourism":"museum","wikidata":"Q3279049"}},
{"type":"Feature","geometry":{"type":"Point","coordinates":[3.9463918,47.3200635]},"properties":{"historic":"memorial","memorial":"stele","name":"Stèle du Maquis Camille"}},
{"type":"Feature","geometry":{"type":"Point","coordinates":[3.9723368,47.3377405]},"properties":{"historic":"memorial","inscription":"ici deux mille patriotes du maquis Verneuil ont lutté pour la liberté - 1944","memorial":"stele","name":"Stèle à la Mémoire des Hommes du Maquis Verneuil"}},
{"type":"Feature","geometry":{"type":"Point","coordinates":[3.9961106,47.3676271]},"properties":{"historic":"wayside_cross"}},
{"type":"Feature","geometry":{"type":"Point","coordinates":[3.996515,47.3680712]},"properties":{"historic":"memorial","memorial":"stele","name":"3ème Demi-Brigade et 1er Régiment du Morvan","panoramax":"e5876b6a-820c-40a5-8031-930b21f0190b"}},
{"type":"Feature","geometry":{"type":"Point","coordinates":[3.9661598,47.4981873]},"properties":{"brand":"Campanile","brand:wikidata":"Q2412064","brand:wikipedia":"fr:Campanile (chaîne d'hôtels)","name":"Hôtel Campanile Avallon","tourism":"hotel","website":"https://www.campanile.com/"}},
{"type":"Feature","geometry":{"type":"Point","coordinates":[3.9667037,47.4980874]},"properties":{"brand":"Première Classe","brand:wikidata":"Q5964551","brand:wikipedia":"fr:Première Classe (chaîne d'hôtels)","name":"Hôtel Première Classe Avallon","tourism":"hotel","website":"https://www.premiereclasse.com/"}},
{"type":"Feature","geometry":{"type":"Point","coordinates":[3.9159722,47.2899847]},"properties":{"leisure":"slipway"}},
{"type":"Feature","geometry":{"type":"Point","coordinates":[3.9110812,47.2929318]},"properties":{"leisure":"slipway"}},
{"type":"Feature","geometry":{"type":"Point","coordinates":[4.0796329,47.3319994]},"properties":{"leisure":"slipway"}},
{"type":"Feature","geometry":{"type":"Point","coordinates":[3.9122647,47.3646778]},"properties":{"leisure":"slipway"}},
{"type":"Feature","geometry":{"type":"Point","coordinates":[3.9078957,47.4843159]},"properties":{"tourism":"viewpoint"}},
{"type":"Feature","geometry":{"type":"Point","coordinates":[3.9073089,47.4843379]},"properties":{"barrier":"gate"}},
{"type":"Feature","geometry":{"type":"Point","coordinates":[3.9119418,47.3611675]},"properties":{"ref":"Lac de Crescent","tourism":"information"}},
{"type":"Feature","geometry":{"type":"Point","coordinates":[3.9374883,47.3548068]},"properties":{"addr:city":"Marigny-l'Église","addr:street":"Place de l'Église","name":"Au Phil du Temps","phone":"+33 3 86 39 42 97","tourism":"guest_house","website":"https://www.gites-de-france-bourgogne.com/"}},
{"type":"Feature","geometry":{"type":"Point","coordinates":[3.9377884,47.3543225]},"properties":{"addr:housenumber":"21","addr:street":"Place de l'Église","name":"Le Marigny","tourism":"guest_house"}},
{"type":"Feature","geometry":{"type":"Point","coordinates":[3.9379705,47.3542099]},"properties":{"natural":"tree"}},
{"type":"Feature","geometry":{"type":"Point","coordinates":[3.9371181,47.3544297]},"properties":{"historic":"wayside_cross","material":"stone"}},
{"type":"Feature","geometry":{"type":"Point","coordinates":[3.9120646,47.3022525]},"properties":{"name":"AN Rafting Morvan","phone":"+33 3 86 22 65 28","tourism":"attraction","website":"https://an-rafting.com/"}},
{"type":"Feature","geometry":{"type":"Point","coordinates":[3.9137487,47.3023639]},"properties":{"name":"Angie Kayak","phone":"+33 6 82 16 02 99","tourism":"attraction","website":"https://www.angie-kayak.com/"}},
{"type":"Feature","geometry":{"type":"Point","coordinates":[3.9037101,47.3042878]},"properties":{"name":"Gite de France \"l'Isba\"","tourism":"guest_house"}},
{"type":"Feature","geometry":{"type":"Point","coordinates":[3.9077444,47.4925543]},"properties":{"check_date":"2024-03-25","name":"Hôtel d'Avallon Vauban","stars":"2","tourism":"hotel"}},
{"type":"Feature","geometry":{"type":"Point","coordinates":[3.9074224,47.4893867]},"properties":{"name":"Le Pub Vauban, Hôtel café","outdoor_seating":"sidewalk","tourism":"hotel","website":"https://www.hotelpubvauban.fr/"}},
{"type":"Feature","geometry":{"type":"Point","coordinates":[3.9072865,47.4879338]},"properties":{"check_date":"2023-11-09","name":"Reseau Expertimo","office":"estate_agent","tourism":"artwork"}},
{"type":"Feature","geometry":{"type":"Point","coordinates":[3.9100925,47.4928122]},"properties":{"amenity":"restaurant","check_date":"2023-09-22","name":"Les Capucins","outdoor_seating":"yes","stars":"2","tourism":"hotel"}},
{"type":"Feature","geometry":{"type":"Point","coordinates":[3.925796,47.4837191]},"properties":{"tourism":"picnic_site"}},
{"type":"Feature","geometry":{"type":"Point","coordinates":[3.9073109,47.4884521]},"properties":{"artwork_type":"statue","tourism":"artwork","wikimedia_commons":"File:Fontaine Laboureau Avallon 2.jpg"}},
{"type":"Feature","geometry":{"type":"Point","coordinates":[3.977663,47.4176432]},"properties":{"denomination":"catholic","historic":"wayside_cross","religion":"christian"}},
{"type":"Feature","geometry":{"type":"Point","coordinates":[3.9968358,47.3683291]},"properties":{"historic":"memorial","memorial":"war_memorial"}},
{"type":"Feature","geometry":{"type":"Point","coordinates":[4.0414021,47.4449447]},"properties":{"leisure":"picnic_table"}},
{"type":"Feature","geometry":{"type":"Point","coordinates":[4.049878,47.461673]},"properties":{"covered":"no","leisure":"picnic_table"}},
{"type":"Feature","geometry":{"type":"Point","coordinates":[4.0476523,47.462156]},"properties":{"covered":"no","leisure":"picnic_table"}},
{"type":"Feature","geometry":{"type":"Point","coordinates":[3.916962,47.2763178]},"properties":{"tourism":"picnic_site"}},
{"type":"Feature","geometry":{"type":"Point","coordinates":[4.0433516,47.2844135]},"properties":{"climbing:grade:french:max":"7B","climbing:grade:french:min":"3B","name":"Rocher du Chien","name:de":"Kletterfelsen","natural":"rock","sport":"climbing"}},
{"type":"Feature","geometry":{"type":"Point","coordinates":[3.8469128,47.4710515]},"properties":{"historic":"memorial","source":"©IGN 2010 dans le cadre de la cartographie réglementaire"}},
{"type":"Feature","geometry":{"type":"Point","coordinates":[3.8761649,47.3564017]},"properties":{"heritage":"3","heritage:operator":"mhs","historic":"castle","mhs:inscription_date":"2012-07-10","name":"Domaine du château de Vésigneux","ref:mhs":"PA00113005","source:heritage":"data.gouv.fr, Ministère de la Culture - 2016","start_date":"C17","wikidata":"Q2971051","wikipedia":"fr:Château de Vésigneux"}},
{"type":"Feature","geometry":{"type":"Point","coordinates":[3.9964263,47.3692333]},"properties":{"information":"office","name":"Office de Tourisme de Quarré les Tombes","panoramax":"b6b58965-1054-4768-9a2c-c1a4a05eaeca","tourism":"information"}},
{"type":"Feature","geometry":{"type":"Point","coordinates":[3.9916849,47.3218288]},"properties":{"leisure":"picnic_table"}},
{"type":"Feature","geometry":{"type":"Point","coordinates":[4.0118551,47.3185777]},"properties":{"leisure":"picnic_table"}},
{"type":"Feature","geometry":{"type":"Point","coordinates":[4.0165772,47.2845649]},"properties":{"historic":"memorial","image":"https://commons.wikimedia.org/wiki/File:Monument_aux_morts_de_1914-1918_de_Dun_les_Places_-_1.jpg","memorial":"statue","wikidata":"Q121747352","wikimedia_commons":"Category:World War I memorial of Dun-les-Places"}},
{"type":"Feature","geometry":{"type":"Point","coordinates":[4.0158771,47.2847569]},"properties":{"denomination":"catholic","historic":"wayside_cross","religion":"christian"}},
{"type":"Feature","geometry":{"type":"Point","coordinates":[4.0159146,47.2847587]},"properties":{"historic":"memorial","memorial":"statue","name":"Monument des Fusillés"}},
{"type":"Feature","geometry":{"type":"Point","coordinates":[4.0731275,47.3772116]},"properties":{"denomination":"catholic","historic":"wayside_cross","religion":"christian"}},
{"type":"Feature","geometry":{"type":"Point","coordinates":[4.060823,47.2740974]},"properties":{"archaeological_site":"megalith","historic":"archaeological_site","megalith_type":"dolmen","name":"Dolmen Chevresse"}},
{"type":"Feature","geometry":{"type":"Point","coordinates":[3.9047894,47.4935012]},"properties":{"caravan_site":"motorhome_stopover","caravan_site:type":"parking_lot","fee":"no","maxweight":"3.5","name":"Avallon Camping Car parking","tourism":"caravan_site"}},
{"type":"Feature","geometry":{"type":"Point","coordinates":[3.8882241,47.3851787]},"properties":{"denomination":"catholic","historic":"wayside_cross","religion":"christian"}},
{"type":"Feature","geometry":{"type":"Point","coordinates":[3.8870935,47.3859619]},"properties":{"tourism":"picnic_site"}},
{"type":"Feature","geometry":{"type":"Point","coordinates":[3.8845486,47.4817372]},"properties":{"access":"yes","leisure":"playground"}},
{"type":"Feature","geometry":{"type":"Point","coordinates":[3.8853836,47.3569632]},"properties":{"leisure":"picnic_table"}},
{"type":"Feature","geometry":{"type":"Point","coordinates":[3.8938502,47.3588751]},"properties":{"information":"guidepost","tourism":"information"}},
{"type":"Feature","geometry":{"type":"Point","coordinates":[3.88569,47.4812218]},"properties":{"tourism":"picnic_site"}},
{"type":"Feature","geometry":{"type":"Point","coordinates":[3.9976678,47.4261588]},"properties":{"historic":"memorial","memorial":"war_memorial","name":"Monument aux morts de Saint-Brancher"}},
{"type":"Feature","geometry":{"type":"Point","coordinates":[3.9988592,47.4248032]},"properties":{"historic":"wayside_cross"}},
{"type":"Feature","geometry":{"type":"Point","coordinates":[3.9876133,47.3569268]},"properties":{"leisure":"picnic_table"}},
{"type":"Feature","geometry":{"type":"Point","coordinates":[3.9160654,47.4813356]},"properties":{"tourism":"viewpoint"}},
{"type":"Feature","geometry":{"type":"Point","coordinates":[3.9283311,47.4875366]},"properties":{"leisure":"picnic_table"}},
{"type":"Feature","geometry":{"type":"Point","coordinates":[3.9183847,47.3842146]},"properties":{"name":"Domaine du Crescent","tourism":"chalet"}},
{"type":"Feature","geometry":{"type":"Point","coordinates":[3.9076632,47.4898322]},"properties":{"check_date":"2024-04-09","information":"terminal","tourism":"information"}},
{"type":"Feature","geometry":{"type":"Point","coordinates":[3.9076181,47.4898297]},"properties":{"check_date":"2024-04-09","information":"map","map_size":"city","map_type":"scheme","name":"Bienvenue a Avallon","tourism":"information"}},
{"type":"Feature","geometry":{"type":"Point","coordinates":[3.9225401,47.4912573]},"properties":{"addr:city":"Avallon","addr:postcode":"89200","internet_access":"wlan","internet_access:fee":"customers","name":"Gîte les Minimes","phone":"0973580680","source":"cadastre-dgi-fr source : Direction Générale des Finances Publiques - Cadastre. Mise à jour : 2019;local knowledge","tourism":"chalet","website":"https://www.gites.fr/gites_gite-les-minimes_avallon_h944298.htm"}},
{"type":"Feature","geometry":{"type":"Point","coordinates":[3.9289051,47.4264215]},"properties":{"contact:facebook":"https://www.facebook.com/people/Haras-de-Kenmare-Chambres-et-table-dh%C3%B4tes-en-Bourgogne/100063570703571/","name":"Haras de Kenmare","phone":"+33 3 86 34 27 63","tourism":"guest_house"}},
{"type":"Feature","geometry":{"type":"Point","coordinates":[4.0385431,47.4609694]},"properties":{"artist_name":"François Rouillot","historic":"memorial","memorial":"stele","name":"Hommage aux 7 aviateurs anglais","start_date":"05/2016"}},
{"type":"Feature","geometry":{"type":"Point","coordinates":[3.9071052,47.4866513]},"properties":{"description":"Se situe à environ 5m de haut sur le pignon de la maison","direction":"3","historic":"memorial","material":"stone","memorial":"plaque","name":"Abbé Bernard Ferrand"}},
{"type":"Feature","geometry":{"type":"Point","coordinates":[3.8851905,47.4914179]},"properties":{"historic":"memorial","memorial":"stele","name":"Monument de Champien"}},
{"type":"Feature","geometry":{"type":"Point","coordinates":[3.9996297,47.3683123]},"properties":{"capacity":"20","caravan_site":"motorhome_stopover","caravan_site:type":"village","fee":"no","name":"Aire Camping car de Quarré les Tombes","operator":"Ville de Quarré les Tombres","power_supply":"no","sanitary_dump_station":"yes","sanitary_dump_station:chemical_toilet":"yes","sanitary_dump_station:fee":"yes","sanitary_dump_station:grey_water":"yes","toilets":"no","tourism":"caravan_site","water_point":"yes","water_point:fee":"no","wheelchair":"yes"}},
{"type":"Feature","geometry":{"type":"Point","coordinates":[3.9969013,47.3684332]},"properties":{"information":"map","map_size":"region","map_type":"topo","mtb":"yes","name":"Centre-Morvan VTT","tourism":"information"}},
{"type":"Feature","geometry":{"type":"Point","coordinates":[3.9967751,47.3684477]},"properties":{"hiking":"yes","information":"map","map_size":"region","map_type":"topo","name":"Parc Regional du Morvan","tourism":"information"}},
{"type":"Feature","geometry":{"type":"Point","coordinates":[3.9976496,47.3827766]},"properties":{"addr:housenumber":"6","internet_access":"wlan","internet_access:fee":"no","name":"Les jardins de Ciezalel","source":"cadastre-dgi-fr source : Direction Générale des Finances Publiques - Cadastre. Mise à jour : 2019","tourism":"chalet"}},
{"type":"Feature","geometry":{"type":"Point","coordinates":[4.0074437,47.3141148]},"properties":{"board_type":"plants","information":"map","map_size":"site","map_type":"toposcope","name":"Rocher de la Pérouse","tourism":"information"}},
{"type":"Feature","geometry":{"type":"Point","coordinates":[4.0041009,47.359377]},"properties":{"denomination":"catholic","historic":"wayside_cross","religion":"christian"}},
{"type":"Feature","geometry":{"type":"Point","coordinates":[4.035649,47.3293647]},"properties":{"historic":"memorial","memorial":"war_memorial"}},
{"type":"Feature","geometry":{"type":"Point","coordinates":[3.9003302,47.3294511]},"properties":{"historic":"memorial","memorial":"stele","name":"maquis Camille"}},
{"type":"Feature","geometry":{"type":"Point","coordinates":[4.0770918,47.3881937]},"properties":{"denomination":"catholic","historic":"wayside_cross","religion":"christian"}},
{"type":"Feature","geometry":{"type":"Point","coordinates":[4.0467641,47.3853135]},"properties":{"leisure":"picnic_table"}},
{"type":"Feature","geometry":{"type":"Point","coordinates":[4.031963,47.360081]},"properties":{"denomination":"catholic","historic":"wayside_cross","religion":"christian"}},
{"type":"Feature","geometry":{"type":"Point","coordinates":[3.943086,47.4485823]},"properties":{"denomination":"catholic","historic":"wayside_cross","religion":"christian"}},
{"type":"Feature","geometry":{"type":"Point","coordinates":[3.938435,47.4540426]},"properties":{"denomination":"catholic","historic":"wayside_cross","religion":"christian"}},
{"type":"Feature","geometry":{"type":"Point","coordinates":[3.9443842,47.4567621]},"properties":{"historic":"memorial"}},
{"type":"Feature","geometry":{"type":"Point","coordinates":[3.9489922,47.4474758]},"properties":{"historic":"memorial","inscription":"Pasteur fit 3 sejours a Marrault","memorial":"stele","start_date":"1923"}},
{"type":"Feature","geometry":{"type":"Point","coordinates":[3.8539837,47.4738373]},"properties":{"denomination":"catholic","historic":"memorial","memorial":"statue","name":"Vierge","religion":"christian"}},
{"type":"Feature","geometry":{"type":"Point","coordinates":[3.9096031,47.4904222]},"properties":{"access":"yes","leisure":"playground"}},
{"type":"Feature","geometry":{"type":"Point","coordinates":[3.9151105,47.3402495]},"properties":{"leisure":"picnic_table"}},
{"type":"Feature","geometry":{"type":"Point","coordinates":[3.8739185,47.4924455]},"properties":{"denomination":"catholic","historic":"wayside_cross","religion":"christian"}},
{"type":"Feature","geometry":{"type":"Point","coordinates":[3.853236,47.4990112]},"properties":{"denomination":"catholic","historic":"wayside_cross","religion":"christian"}},
{"type":"Feature","geometry":{"type":"Point","coordinates":[4.0577449,47.2884752]},"properties":{"leisure":"picnic_table"}},
{"type":"Feature","geometry":{"type":"Point","coordinates":[4.0574807,47.2887469]},"properties":{"leisure":"picnic_table"}},
{"type":"Feature","geometry":{"type":"Point","coordinates":[4.060463,47.2840244]},"properties":{"name":"Cabane de chasse","tourism":"wilderness_hut"}},
{"type":"Feature","geometry":{"type":"Point","coordinates":[3.9918255,47.3217409]},"properties":{"leisure":"picnic_table"}},
{"type":"Feature","geometry":{"type":"Point","coordinates":[4.0005173,47.3566182]},"properties":{"leisure":"picnic_table"}},
{"type":"Feature","geometry":{"type":"Point","coordinates":[3.8566706,47.4967056]},"properties":{"barrier":"entrance"}},
{"type":"Feature","geometry":{"type":"Point","coordinates":[3.8537617,47.4957556]},"properties":{"natural":"tree"}},
{"type":"Feature","geometry":{"type":"Point","coordinates":[3.854042,47.4958163]},"properties":{"natural":"tree"}},
{"type":"Feature","geometry":{"type":"Point","coordinates":[3.8542405,47.4953968]},"properties":{"natural":"tree"}},
{"type":"Feature","geometry":{"type":"Point","coordinates":[3.8544054,47.4953533]},"properties":{"natural":"tree"}},
{"type":"Feature","geometry":{"type":"Point","coordinates":[3.8540903,47.4954874]},"properties":{"natural":"tree"}},
{"type":"Feature","geometry":{"type":"Point","coordinates":[3.8549258,47.4961226]},"properties":{"natural":"tree"}},
{"type":"Feature","geometry":{"type":"Point","coordinates":[3.8544886,47.4958916]},"properties":{"natural":"tree"}},
{"type":"Feature","geometry":{"type":"Point","coordinates":[3.8534854,47.4957067]},"properties":{"access":"private","barrier":"gate"}},
{"type":"Feature","geometry":{"type":"Point","coordinates":[3.9884819,47.3179517]},"properties":{"ele":"449","intermittent":"yes","name":"Source Saint-Marc","natural":"spring"}},
{"type":"Feature","geometry":{"type":"Point","coordinates":[3.9073147,47.4826272]},"properties":{"covered":"no","leisure":"picnic_table"}},
{"type":"Feature","geometry":{"type":"Point","coordinates":[3.9083943,47.4828782]},"properties":{"covered":"no","leisure":"picnic_table"}},
{"type":"Feature","geometry":{"type":"Point","coordinates":[3.9082253,47.4828773]},"properties":{"bench":"yes","covered":"no","leisure":"picnic_table","material":"wood"}},
{"type":"Feature","geometry":{"type":"Point","coordinates":[4.0323131,47.2951862]},"properties":{"climbing:grade:french:max":"8A","climbing:grade:french:min":"4B","name":"Rocher du Montal","natural":"rock","sport":"climbing"}},
{"type":"Feature","geometry":{"type":"Point","coordinates":[3.8576462,47.3924119]},"properties":{"denomination":"catholic","historic":"wayside_cross","religion":"christian"}},
{"type":"Feature","geometry":{"type":"Point","coordinates":[3.8578179,47.3934315]},"properties":{"historic":"memorial","memorial":"war_memorial"}},
{"type":"Feature","geometry":{"type":"Point","coordinates":[3.9083937,47.4880058]},"properties":{"description":"C'est aujourd'hui le Musée du Costume","fee":"yes","heritage":"3","heritage:operator":"mhs","mhs:inscription_date":"1990-07-12","name":"Hôtel Condé (ancien)","ref:mhs":"PA00113969","source:heritage":"Ministère de la Culture - 06/2019","tourism":"museum","wikidata":"Q3145461","wikimedia_commons":"File:Hôtel Condé Avallon 8.jpg"}},
{"type":"Feature","geometry":{"type":"Point","coordinates":[3.906203,47.4868507]},"properties":{"leisure":"pitch","source":"Le ministère de la ville, de la jeunesse et des sports - 01/2018","sport":"multi"}},
{"type":"Feature","geometry":{"type":"Point","coordinates":[4.0387389,47.4608389]},"properties":{"denomination":"catholic","historic":"wayside_cross","religion":"christian"}},
{"type":"Feature","geometry":{"type":"Point","coordinates":[4.038645,47.4590762]},"properties":{"leisure":"picnic_table"}},
{"type":"Feature","geometry":{"type":"Point","coordinates":[3.8912028,47.4761559]},"properties":{"leisure":"playground"}},
{"type":"Feature","geometry":{"type":"Point","coordinates":[3.9719412,47.3319475]},"properties":{"name":"Gîte de La Chaume aux Renards","phone":"+33 3 86 32 20 71;+33 6 82 12 25 07","stars":"3","tourism":"guest_house"}},
{"type":"Feature","geometry":{"type":"Point","coordinates":[3.9150341,47.3403095]},"properties":{"leisure":"picnic_table"}},
{"type":"Feature","geometry":{"type":"Point","coordinates":[3.857702,47.3935428]},"properties":{"natural":"tree"}},
{"type":"Feature","geometry":{"type":"Point","coordinates":[3.8576568,47.3936312]},"properties":{"natural":"tree"}},
{"type":"Feature","geometry":{"type":"Point","coordinates":[3.8579166,47.3934444]},"properties":{"natural":"tree"}},
{"type":"Feature","geometry":{"type":"Point","coordinates":[4.0442616,47.4078529]},"properties":{"denomination":"catholic","historic":"wayside_cross","name":"Croix des Hotteaux","religion":"christian"}},
{"type":"Feature","geometry":{"type":"Point","coordinates":[3.9371968,47.354466]},"properties":{"natural":"tree"}},
{"type":"Feature","geometry":{"type":"Point","coordinates":[3.9372318,47.3543931]},"properties":{"natural":"tree"}},
{"type":"Feature","geometry":{"type":"Point","coordinates":[3.9372389,47.3543465]},"properties":{"natural":"tree"}},
{"type":"Feature","geometry":{"type":"Point","coordinates":[3.9373355,47.354353]},"properties":{"natural":"tree"}},
{"type":"Feature","geometry":{"type":"Point","coordinates":[3.937413,47.3543645]},"properties":{"natural":"tree"}},
{"type":"Feature","geometry":{"type":"Point","coordinates":[3.9070296,47.4863185]},"properties":{"artist_name":"Yvan Baudoin","artwork_type":"sculpture","name":"Grenouille d'Avallon","start_date":"2006-06","tourism":"artwork","wikimedia_commons":"File:Vue de la tour de l'horologe.jpg"}},
{"type":"Feature","geometry":{"type":"Point","coordinates":[4.0167582,47.4801392]},"properties":{"denomination":"catholic","historic":"wayside_cross","religion":"christian"}},
{"type":"Feature","geometry":{"type":"Point","coordinates":[4.0149021,47.4736383]},"properties":{"denomination":"catholic","historic":"wayside_cross","name":"La croix Blanche","religion":"christian"}},
{"type":"Feature","geometry":{"type":"Point","coordinates":[4.0474065,47.4475021]},"properties":{"denomination":"catholic","historic":"wayside_cross","religion":"christian"}},
{"type":"Feature","geometry":{"type":"Point","coordinates":[4.0034088,47.410661]},"properties":{"denomination":"catholic","historic":"wayside_cross","religion":"christian"}},
{"type":"Feature","geometry":{"type":"Point","coordinates":[3.9119291,47.4872433]},"properties":{"natural":"tree"}},
{"type":"Feature","geometry":{"type":"Point","coordinates":[3.9120207,47.4873671]},"properties":{"information":"board","tourism":"information"}},
{"type":"Feature","geometry":{"type":"Point","coordinates":[3.9095308,47.483742]},"properties":{"leaf_cycle":"deciduous","leaf_type":"broadleaved","natural":"tree"}},
{"type":"Feature","geometry":{"type":"Point","coordinates":[3.900128,47.4883173]},"properties":{"leisure":"playground"}},
{"type":"Feature","geometry":{"type":"Point","coordinates":[3.9053221,47.4865782]},"properties":{"natural":"tree"}},
{"type":"Feature","geometry":{"type":"Point","coordinates":[3.905395,47.4865355]},"properties":{"natural":"tree"}},
{"type":"Feature","geometry":{"type":"Point","coordinates":[3.9054799,47.4864877]},"properties":{"natural":"tree"}},
{"type":"Feature","geometry":{"type":"Point","coordinates":[3.9066241,47.4834629]},"properties":{"barrier":"gate"}},
{"type":"Feature","geometry":{"type":"Point","coordinates":[3.8890112,47.4812958]},"properties":{"covered":"no","fixme":"Mauvaise réception GPS, position à affiner","leisure":"picnic_table"}},
{"type":"Feature","geometry":{"type":"Point","coordinates":[3.8888558,47.4812822]},"properties":{"covered":"no","fixme":"Mauvaise réception GPS, position à affiner","leisure":"picnic_table"}},
{"type":"Feature","geometry":{"type":"Point","coordinates":[3.8862221,47.4809808]},"properties":{"covered":"no","leisure":"picnic_table","material":"wood"}},
{"type":"Feature","geometry":{"type":"Point","coordinates":[3.8904449,47.4812541]},"properties":{"covered":"no","fixme":"Mauvaise réception GPS, position à affiner","leisure":"picnic_table"}},
{"type":"Feature","geometry":{"type":"Point","coordinates":[3.8908419,47.4812704]},"properties":{"covered":"no","fixme":"Mauvaise réception GPS, position à affiner","leisure":"picnic_table"}},
{"type":"Feature","geometry":{"type":"Point","coordinates":[3.8914923,47.481322]},"properties":{"covered":"no","fixme":"Mauvaise réception GPS, position à affiner","leisure":"picnic_table"}},
{"type":"Feature","geometry":{"type":"Point","coordinates":[3.9099195,47.4900591]},"properties":{"natural":"tree"}},
{"type":"Feature","geometry":{"type":"Point","coordinates":[3.9211481,47.4922032]},"properties":{"leaf_type":"needleleaved","natural":"tree"}},
{"type":"Feature","geometry":{"type":"Point","coordinates":[3.9226194,47.4915214]},"properties":{"historic":"memorial","name":"Mémorial de la Résistance"}},
{"type":"Feature","geometry":{"type":"Point","coordinates":[3.9047645,47.4895248]},"properties":{"natural":"tree"}},
{"type":"Feature","geometry":{"type":"Point","coordinates":[3.9048219,47.4893744]},"properties":{"natural":"tree"}},
{"type":"Feature","geometry":{"type":"Point","coordinates":[3.9051261,47.4901292]},"properties":{"natural":"tree"}},
{"type":"Feature","geometry":{"type":"Point","coordinates":[3.9050087,47.4900985]},"properties":{"natural":"tree"}},
{"type":"Feature","geometry":{"type":"Point","coordinates":[3.9049475,47.4910838]},"properties":{"natural":"tree"}},
{"type":"Feature","geometry":{"type":"Point","coordinates":[3.9049584,47.4910426]},"properties":{"natural":"tree"}},
{"type":"Feature","geometry":{"type":"Point","coordinates":[3.9049978,47.4909307]},"properties":{"natural":"tree"}},
{"type":"Feature","geometry":{"type":"Point","coordinates":[3.9050328,47.4908201]},"properties":{"natural":"tree"}},
{"type":"Feature","geometry":{"type":"Point","coordinates":[3.9050487,47.4907681]},"properties":{"natural":"tree"}},
{"type":"Feature","geometry":{"type":"Point","coordinates":[3.9050818,47.4906669]},"properties":{"natural":"tree"}},
{"type":"Feature","geometry":{"type":"Point","coordinates":[3.9051021,47.4906128]},"properties":{"natural":"tree"}},
{"type":"Feature","geometry":{"type":"Point","coordinates":[3.9070561,47.4862134]},"properties":{"board_type":"history","direction":"220","information":"board","name":"La Collégiale Saint-Lazare","tourism":"information"}},
{"type":"Feature","geometry":{"type":"Point","coordinates":[3.9287022,47.3344131]},"properties":{"network":"Gîtes de France","ref":"58G914","tourism":"chalet","website":"https://www.gites-de-france.com/fr/bourgogne-franche-comte/nievre/le-meix-58g914"}},
{"type":"Feature","geometry":{"type":"Point","coordinates":[4.0045059,47.3478156]},"properties":{"leisure":"fishing","name":"pêche à la mouche"}},
{"type":"Feature","geometry":{"type":"Point","coordinates":[4.0532792,47.2814235]},"properties":{"archaeological_site":"megalith","historic":"archaeological_site","megalith_type":"dolmen"}},
{"type":"Feature","geometry":{"type":"Point","coordinates":[4.0272754,47.4703924]},"properties":{"historic":"memorial"}},
{"type":"Feature","geometry":{"type":"Point","coordinates":[4.0325699,47.4596493]},"properties":{"historic":"castle"}},
{"type":"Feature","geometry":{"type":"Point","coordinates":[3.9073974,47.4849704]},"properties":{"direction":"85","historic":"memorial","inscription":"Dans cette maison est décédé l'abbé Alexandre PARAT savant archéologue de l'avallonnais\n1843 - 1931","material":"stone","memorial":"plaque","name":"Abbé Alexandre Parat"}},
{"type":"Feature","geometry":{"type":"Point","coordinates":[3.8457711,47.3978627]},"properties":{"access":"private","door":"yes/manual","entrance":"main","wheelchair":"limited"}},
{"type":"Feature","geometry":{"type":"Point","coordinates":[3.8453627,47.3978805]},"properties":{"natural":"tree"}},
{"type":"Feature","geometry":{"type":"Point","coordinates":[3.8458258,47.3976508]},"properties":{"natural":"tree"}},
{"type":"Feature","geometry":{"type":"Point","coordinates":[3.8459381,47.397694]},"properties":{"natural":"tree"}},
{"type":"Feature","geometry":{"type":"Point","coordinates":[3.8459897,47.3976491]},"properties":{"natural":"tree"}},
{"type":"Feature","geometry":{"type":"Point","coordinates":[3.8457467,47.3975994]},"properties":{"natural":"tree"}},
{"type":"Feature","geometry":{"type":"Point","coordinates":[3.8457709,47.3975498]},"properties":{"natural":"tree"}},
{"type":"Feature","geometry":{"type":"Point","coordinates":[3.8458838,47.3975377]},"properties":{"natural":"tree"}},
{"type":"Feature","geometry":{"type":"Point","coordinates":[3.8457537999999999,47.3980524]},"properties":{"access":"private","leisure":"playground"}},
{"type":"Feature","geometry":{"type":"Point","coordinates":[3.9058354,47.3988158]},"properties":{"denomination":"catholic","historic":"wayside_cross","religion":"christian"}},
{"type":"Feature","geometry":{"type":"Point","coordinates":[3.9301041,47.3941714]},"properties":{"denomination":"catholic","historic":"wayside_cross","religion":"christian"}},
{"type":"Feature","geometry":{"type":"Point","coordinates":[3.9285135,47.3967769]},"properties":{"denomination":"catholic","historic":"wayside_cross","religion":"christian"}},
{"type":"Feature","geometry":{"type":"Point","coordinates":[3.877177,47.4884695]},"properties":{"natural":"cave_entrance","source":"IGN - 2021-06"}},
{"type":"Feature","geometry":{"type":"Point","coordinates":[3.9130562,47.3883776]},"properties":{"amenity":"shelter","board_type":"nature","information":"board","operator":"ONF","tourism":"information"}},
{"type":"Feature","geometry":{"type":"Point","coordinates":[3.9129077,47.3884658]},"properties":{"leisure":"picnic_table"}},
{"type":"Feature","geometry":{"type":"Point","coordinates":[3.9128925,47.3883981]},"properties":{"leisure":"picnic_table"}},
{"type":"Feature","geometry":{"type":"Point","coordinates":[3.9128653,47.3883119]},"properties":{"leisure":"picnic_table"}},
{"type":"Feature","geometry":{"type":"Point","coordinates":[3.9055426,47.3835869]},"properties":{"leisure":"playground"}},
{"type":"Feature","geometry":{"type":"Point","coordinates":[3.9057181,47.3839982]},"properties":{"leisure":"picnic_table"}},
{"type":"Feature","geometry":{"type":"Point","coordinates":[3.9055596,47.3836559]},"properties":{"leisure":"picnic_table"}},
{"type":"Feature","geometry":{"type":"Point","coordinates":[3.9060236,47.3841655]},"properties":{"leisure":"picnic_table"}},
{"type":"Feature","geometry":{"type":"Point","coordinates":[3.9852299,47.4423781]},"properties":{"name":"Gîte du Morvan","tourism":"chalet"}},
{"type":"Feature","geometry":{"type":"Point","coordinates":[4.0457904,47.2883365]},"properties":{"description":"Zone de départ du circuit de MTB, avec un dispositif pour mesurer le temps mis par le cycliste","man_made":"monitoring_station","monitoring:bicycle":"yes","name":"Départ circuit BMX"}},
{"type":"Feature","geometry":{"type":"Point","coordinates":[4.0003939,47.3566244]},"properties":{"leisure":"picnic_table"}},
{"type":"Feature","geometry":{"type":"Point","coordinates":[3.9767718,47.3313486]},"properties":{"leisure":"picnic_table"}},
{"type":"Feature","geometry":{"type":"Point","coordinates":[3.9976398,47.3145486]},"properties":{"tourism":"picnic_site"}},
{"type":"Feature","geometry":{"type":"Point","coordinates":[3.9766967,47.331234]},"properties":{"tourism":"lean_to"}},
{"type":"Feature","geometry":{"type":"Point","coordinates":[4.0704466,47.3197051]},"properties":{"information":"guidepost","tourism":"information"}},
{"type":"Feature","geometry":{"type":"Point","coordinates":[4.0614532,47.3589173]},"properties":{"information":"board","tourism":"information"}},
{"type":"Feature","geometry":{"type":"Point","coordinates":[4.0601952,47.3582541]},"properties":{"artwork_type":"statue","name":"Vierge de la Pierre-qui-Vire","tourism":"artwork"}},
{"type":"Feature","geometry":{"type":"Point","coordinates":[4.0601684,47.3582341]},"properties":{"name":"Dolmen de la Pierre-qui-Vire","natural":"rock","tourism":"attraction"}},
{"type":"Feature","geometry":{"type":"Point","coordinates":[4.0697718,47.3212614]},"properties":{"information":"guidepost","tourism":"information"}},
{"type":"Feature","geometry":{"type":"Point","coordinates":[4.0696632,47.3213774]},"properties":{"information":"guidepost","tourism":"information"}},
{"type":"Feature","geometry":{"type":"Point","coordinates":[4.0705801,47.3197698]},"properties":{"information":"guidepost","tourism":"information"}},
{"type":"Feature","geometry":{"type":"Point","coordinates":[4.0707297,47.3196477]},"properties":{"information":"guidepost","tourism":"information"}},
{"type":"Feature","geometry":{"type":"Point","coordinates":[3.9965479,47.3680357]},"properties":{"natural":"tree"}},
{"type":"Feature","geometry":{"type":"Point","coordinates":[3.9964709,47.3680838]},"properties":{"natural":"tree"}},
{"type":"Feature","geometry":{"type":"Point","coordinates":[3.9966764,47.3681258]},"properties":{"natural":"tree"}},
{"type":"Feature","geometry":{"type":"Point","coordinates":[3.9967393,47.3681665]},"properties":{"natural":"tree"}},
{"type":"Feature","geometry":{"type":"Point","coordinates":[3.9968196,47.3682097]},"properties":{"natural":"tree"}},
{"type":"Feature","geometry":{"type":"Point","coordinates":[3.9968916,47.368255]},"properties":{"natural":"tree"}},
{"type":"Feature","geometry":{"type":"Point","coordinates":[3.9969669,47.3683011]},"properties":{"natural":"tree"}},
{"type":"Feature","geometry":{"type":"Point","coordinates":[3.9970791,47.3685489]},"properties":{"natural":"tree"}},
{"type":"Feature","geometry":{"type":"Point","coordinates":[3.9970012,47.3685546]},"properties":{"natural":"tree"}},
{"type":"Feature","geometry":{"type":"Point","coordinates":[3.996902,47.3685541]},"properties":{"natural":"tree"}},
{"type":"Feature","geometry":{"type":"Point","coordinates":[3.9969695,47.3684316]},"properties":{"natural":"tree"}},
{"type":"Feature","geometry":{"type":"Point","coordinates":[3.9968631,47.3684017]},"properties":{"natural":"tree"}},
{"type":"Feature","geometry":{"type":"Point","coordinates":[3.9970583,47.3684338]},"properties":{"natural":"tree"}},
{"type":"Feature","geometry":{"type":"Point","coordinates":[3.9966485,47.3684418]},"properties":{"natural":"tree"}},
{"type":"Feature","geometry":{"type":"Point","coordinates":[3.9966141,47.3683765]},"properties":{"natural":"tree"}},
{"type":"Feature","geometry":{"type":"Point","coordinates":[3.9965923,47.3683154]},"properties":{"natural":"tree"}},
{"type":"Feature","geometry":{"type":"Point","coordinates":[3.996563,47.368263]},"properties":{"natural":"tree"}},
{"type":"Feature","geometry":{"type":"Point","coordinates":[4.075963,47.449251]},"properties":{"crossing":"uncontrolled","crossing:island":"yes","crossing:markings":"yes","highway":"crossing"}},
{"type":"Feature","geometry":{"type":"Point","coordinates":[4.0266665,47.4710469]},"properties":{"crossing":"uncontrolled","crossing:island":"no","crossing:markings":"yes","highway":"crossing"}},
{"type":"Feature","geometry":{"type":"Point","coordinates":[4.0260621,47.4713177]},"properties":{"crossing":"uncontrolled","crossing:island":"no","crossing:markings":"yes","highway":"crossing","kerb":"raised","tactile_paving":"no"}},
{"type":"Feature","geometry":{"type":"Point","coordinates":[4.0173179,47.474844]},"properties":{"leaf_type":"broadleaved","natural":"tree"}},
{"type":"Feature","geometry":{"type":"Point","coordinates":[4.0175013999999999,47.4747814]},"properties":{"leaf_type":"broadleaved","natural":"tree"}},
{"type":"Feature","geometry":{"type":"Point","coordinates":[4.0176656,47.4747056]},"properties":{"leaf_type":"broadleaved","natural":"tree"}},
{"type":"Feature","geometry":{"type":"Point","coordinates":[4.017837,47.4746316]},"properties":{"leaf_type":"broadleaved","natural":"tree"}},
{"type":"Feature","geometry":{"type":"Point","coordinates":[4.0180078,47.4745552]},"properties":{"leaf_type":"broadleaved","natural":"tree"}},
{"type":"Feature","geometry":{"type":"Point","coordinates":[4.0181856,47.4744799]},"properties":{"leaf_type":"broadleaved","natural":"tree"}},
{"type":"Feature","geometry":{"type":"Point","coordinates":[4.0183557,47.4744068]},"properties":{"leaf_type":"broadleaved","natural":"tree"}},
{"type":"Feature","geometry":{"type":"Point","coordinates":[4.0185244,47.4743366]},"properties":{"leaf_type":"broadleaved","natural":"tree"}},
{"type":"Feature","geometry":{"type":"Point","coordinates":[4.0274192,47.4707184]},"properties":{"crossing":"uncontrolled","crossing:island":"no","crossing:markings":"yes","highway":"crossing","kerb":"raised","tactile_paving":"no"}},
{"type":"Feature","geometry":{"type":"Point","coordinates":[4.0226129,47.4727864]},"properties":{"leaf_type":"broadleaved","natural":"tree"}},
{"type":"Feature","geometry":{"type":"Point","coordinates":[4.0224541,47.4728489]},"properties":{"leaf_type":"broadleaved","natural":"tree"}},
{"type":"Feature","geometry":{"type":"Point","coordinates":[4.0227952,47.4727004]},"properties":{"leaf_type":"broadleaved","natural":"tree"}},
{"type":"Feature","geometry":{"type":"Point","coordinates":[4.0229557,47.4726315]},"properties":{"leaf_type":"broadleaved","natural":"tree"}},
{"type":"Feature","geometry":{"type":"Point","coordinates":[4.0231348,47.4725578]},"properties":{"leaf_type":"broadleaved","natural":"tree"}},
{"type":"Feature","geometry":{"type":"Point","coordinates":[4.0233155,47.4724899]},"properties":{"leaf_type":"broadleaved","natural":"tree"}},
{"type":"Feature","geometry":{"type":"Point","coordinates":[4.0221036,47.4730119]},"properties":{"leaf_type":"broadleaved","natural":"tree"}},
{"type":"Feature","geometry":{"type":"Point","coordinates":[4.0219259,47.4730814]},"properties":{"leaf_type":"broadleaved","natural":"tree"}},
{"type":"Feature","geometry":{"type":"Point","coordinates":[4.0213946,47.4733101]},"properties":{"leaf_type":"broadleaved","natural":"tree"}},
{"type":"Feature","geometry":{"type":"Point","coordinates":[4.0212217,47.4733629]},"properties":{"leaf_type":"broadleaved","natural":"tree"}},
{"type":"Feature","geometry":{"type":"Point","coordinates":[4.0210619,47.4734276]},"properties":{"leaf_type":"broadleaved","natural":"tree"}},
{"type":"Feature","geometry":{"type":"Point","coordinates":[4.020903,47.4735114]},"properties":{"leaf_type":"broadleaved","natural":"tree"}},
{"type":"Feature","geometry":{"type":"Point","coordinates":[4.0207276,47.4735875]},"properties":{"leaf_type":"broadleaved","natural":"tree"}},
{"type":"Feature","geometry":{"type":"Point","coordinates":[4.0205606,47.473661]},"properties":{"leaf_type":"broadleaved","natural":"tree"}},
{"type":"Feature","geometry":{"type":"Point","coordinates":[4.020384,47.4737351]},"properties":{"leaf_type":"broadleaved","natural":"tree"}},
{"type":"Feature","geometry":{"type":"Point","coordinates":[4.0202192,47.4738055]},"properties":{"leaf_type":"broadleaved","natural":"tree"}},
{"type":"Feature","geometry":{"type":"Point","coordinates":[4.0200384,47.4738819]},"properties":{"leaf_type":"broadleaved","natural":"tree"}},
{"type":"Feature","geometry":{"type":"Point","coordinates":[4.0198683,47.4739558]},"properties":{"leaf_type":"broadleaved","natural":"tree"}},
{"type":"Feature","geometry":{"type":"Point","coordinates":[4.0196943,47.4740297]},"properties":{"leaf_type":"broadleaved","natural":"tree"}},
{"type":"Feature","geometry":{"type":"Point","coordinates":[3.9850538,47.441338]},"properties":{"natural":"tree"}},
{"type":"Feature","geometry":{"type":"Point","coordinates":[3.9194473,47.4862504]},"properties":{"natural":"tree"}},
{"type":"Feature","geometry":{"type":"Point","coordinates":[3.9194944,47.4862783]},"properties":{"natural":"tree"}},
{"type":"Feature","geometry":{"type":"Point","coordinates":[3.9195416,47.4863092]},"properties":{"natural":"tree"}},
{"type":"Feature","geometry":{"type":"Point","coordinates":[3.919588,47.4863321]},"properties":{"natural":"tree"}},
{"type":"Feature","geometry":{"type":"Point","coordinates":[3.9299854,47.4895282]},"properties":{"natural":"tree"}},
{"type":"Feature","geometry":{"type":"Point","coordinates":[3.9301043,47.489487]},"properties":{"natural":"tree"}},
{"type":"Feature","geometry":{"type":"Point","coordinates":[3.9302169,47.4894507]},"properties":{"natural":"tree"}},
{"type":"Feature","geometry":{"type":"Point","coordinates":[3.9297818,47.4894758]},"properties":{"natural":"tree"}},
{"type":"Feature","geometry":{"type":"Point","coordinates":[3.9298924,47.4894207]},"properties":{"natural":"tree"}},
{"type":"Feature","geometry":{"type":"Point","coordinates":[3.9299978,47.4893767]},"properties":{"natural":"tree"}},
{"type":"Feature","geometry":{"type":"Point","coordinates":[3.9301032,47.4893187]},"properties":{"natural":"tree"}},
{"type":"Feature","geometry":{"type":"Point","coordinates":[3.9301601,47.4893732]},"properties":{"natural":"tree"}},
{"type":"Feature","geometry":{"type":"Point","coordinates":[3.9303564,47.4893913]},"properties":{"natural":"tree"}},
{"type":"Feature","geometry":{"type":"Point","coordinates":[3.9302913,47.4893222]},"properties":{"natural":"tree"}},
{"type":"Feature","geometry":{"type":"Point","coordinates":[3.9302324,47.4892656]},"properties":{"natural":"tree"}},
{"type":"Feature","geometry":{"type":"Point","coordinates":[3.9303554,47.4892147]},"properties":{"natural":"tree"}},
{"type":"Feature","geometry":{"type":"Point","coordinates":[3.930468,47.4893334]},"properties":{"natural":"tree"}},
{"type":"Feature","geometry":{"type":"Point","coordinates":[3.9305714,47.4892775]},"properties":{"natural":"tree"}},
{"type":"Feature","geometry":{"type":"Point","coordinates":[3.9306644,47.4892209]},"properties":{"natural":"tree"}},
{"type":"Feature","geometry":{"type":"Point","coordinates":[3.9307667,47.4891553]},"properties":{"natural":"tree"}},
{"type":"Feature","geometry":{"type":"Point","coordinates":[3.9307181,47.4890841]},"properties":{"natural":"tree"}},
{"type":"Feature","geometry":{"type":"Point","coordinates":[3.930445,47.48961]},"properties":{"natural":"tree"}},
{"type":"Feature","geometry":{"type":"Point","coordinates":[3.9305087,47.4896906]},"properties":{"natural":"tree"}},
{"type":"Feature","geometry":{"type":"Point","coordinates":[3.9305629,47.4897751]},"properties":{"natural":"tree"}},
{"type":"Feature","geometry":{"type":"Point","coordinates":[3.9306263,47.4898647]},"properties":{"natural":"tree"}},
{"type":"Feature","geometry":{"type":"Point","coordinates":[3.9306663,47.489938]},"properties":{"natural":"tree"}},
{"type":"Feature","geometry":{"type":"Point","coordinates":[3.9305951,47.4891281]},"properties":{"natural":"tree"}},
{"type":"Feature","geometry":{"type":"Point","coordinates":[3.930467,47.4891769]},"properties":{"natural":"tree"}},
{"type":"Feature","geometry":{"type":"Point","coordinates":[3.9300826,47.489163]},"properties":{"natural":"tree"}},
{"type":"Feature","geometry":{"type":"Point","coordinates":[3.9300185,47.4891001]},"properties":{"natural":"tree"}},
{"type":"Feature","geometry":{"type":"Point","coordinates":[3.9299348,47.4890233]},"properties":{"natural":"tree"}},
{"type":"Feature","geometry":{"type":"Point","coordinates":[3.9298552,47.4889577]},"properties":{"natural":"tree"}},
{"type":"Feature","geometry":{"type":"Point","coordinates":[3.9297839,47.4888892]},"properties":{"natural":"tree"}},
{"type":"Feature","geometry":{"type":"Point","coordinates":[3.9297105,47.4888187]},"properties":{"natural":"tree"}},
{"type":"Feature","geometry":{"type":"Point","coordinates":[3.9296227,47.4887454]},"properties":{"natural":"tree"}},
{"type":"Feature","geometry":{"type":"Point","coordinates":[3.92954,47.4886742]},"properties":{"natural":"tree"}},
{"type":"Feature","geometry":{"type":"Point","coordinates":[3.9294718,47.4885994]},"properties":{"natural":"tree"}},
{"type":"Feature","geometry":{"type":"Point","coordinates":[3.929384,47.4885268]},"properties":{"natural":"tree"}},
{"type":"Feature","geometry":{"type":"Point","coordinates":[3.9293065,47.488457]},"properties":{"natural":"tree"}},
{"type":"Feature","geometry":{"type":"Point","coordinates":[3.9292031,47.4883585]},"properties":{"natural":"tree"}},
{"type":"Feature","geometry":{"type":"Point","coordinates":[3.9291153,47.4882838]},"properties":{"natural":"tree"}},
{"type":"Feature","geometry":{"type":"Point","coordinates":[3.9290202,47.4882]},"properties":{"natural":"tree"}},
{"type":"Feature","geometry":{"type":"Point","coordinates":[3.9233431,47.492786099999999]},"properties":{"leisure":"picnic_table"}},
{"type":"Feature","geometry":{"type":"Point","coordinates":[4.0628239,47.3582559]},"properties":{"name":"Hostellerie de l'Abbaye de la Pierre Qui Vire","tourism":"hotel"}},
{"type":"Feature","geometry":{"type":"Point","coordinates":[3.9093374,47.395967]},"properties":{"name":"Gîte le Lingoult","tourism":"chalet"}},
{"type":"Feature","geometry":{"type":"Point","coordinates":[3.9106589,47.3961574]},"properties":{"name":"Gîte Le Chalet du Crescent","tourism":"chalet"}},
{"type":"Feature","geometry":{"type":"Point","coordinates":[3.9077971,47.489839]},"properties":{"board_type":"notice","information":"board","tourism":"information"}},
{"type":"Feature","geometry":{"type":"Point","coordinates":[3.944317,47.4921495]},"properties":{"historic":"wayside_cross","material":"concrete"}},
{"type":"Feature","geometry":{"type":"Point","coordinates":[3.9405524,47.4891857]},"properties":{"historic":"memorial","inscription":"1914-1918 et 1939-1945","material":"stone","memorial":"plaque"}},
{"type":"Feature","geometry":{"type":"Point","coordinates":[3.903736,47.4840302]},"properties":{"board_type":"nature","description":"Commune du Parc Naturel Régional du Morvan.\nAu Verso : plan du Parc Naturel Régional du Morvan","information":"board","tourism":"information"}},
{"type":"Feature","geometry":{"type":"Point","coordinates":[3.9041803,47.4837297]},"properties":{"board_type":"nature","description":"D'Avallon à Vézelay, randonnées entre deux vallées","information":"board","name":"D'Avallon à Vézelay","tourism":"information"}},
{"type":"Feature","geometry":{"type":"Point","coordinates":[3.9042855,47.4837297]},"properties":{"board_type":"nature","description":"La Vallée du Cousin","information":"board","name":"Vallée du Cousin et Portes du Morvan","tourism":"information"}},
{"type":"Feature","geometry":{"type":"Point","coordinates":[3.9043251,47.4837291]},"properties":{"board_type":"notice","description":"Aux origines de la Culture, au coeur de la Nature\nVerso : au fil de la vallée du Cousin","information":"board","name":"Bienvenue en Pays Avallonnais","tourism":"information"}},
{"type":"Feature","geometry":{"type":"Point","coordinates":[3.9047516,47.4831396]},"properties":{"board_type":"nature","description":"Circuit \"Le chemin bleu\"\nEspèce emblématique, milieu de vie, habitat, reproduction, principales menaces, durée de vie, actions life.","information":"board","name":"(3) Espèces à protéger, le Chabot","tourism":"information"}},
{"type":"Feature","geometry":{"type":"Point","coordinates":[3.9054148,47.4824303]},"properties":{"board_type":"wildlife","description":"Circuit \"Le chemin bleu\"\nEspèce menacée d'extinction, milieu de vie, habitat, alimentation, reproduction, principales menaces, durée de vie, actions life.","information":"board","name":"(2) Espèces à protéger, la Moule Perlière","tourism":"information"}},
{"type":"Feature","geometry":{"type":"Point","coordinates":[3.9057266,47.482455]},"properties":{"board_type":"notice","description":"Suivez le sens du courant et partez à la rencontre de la faune du Cousin et des aménagements réalisés pour leur préservation.","information":"board","name":"Le Chemin Bleu","tourism":"information"}},
{"type":"Feature","geometry":{"type":"Point","coordinates":[3.9074935,47.4825796]},"properties":{"board_type":"wildlife","description":"Circuit \"Le chemin bleu\"\nEspèce emblématique, milieu de vie, habitat, alimentation, reproduction, principales menaces, durée de vie, actions life.","information":"board","name":"(1) Espèces à protéger, la Truite Fario","tourism":"information"}},
{"type":"Feature","geometry":{"type":"Point","coordinates":[3.9070588,47.4825082]},"properties":{"board_type":"nature","description":"Circuit \"Le chemin bleu\"\nPasse à poisson rustique","information":"board","name":"Moulin Brenot","tourism":"information"}},
{"type":"Feature","geometry":{"type":"Point","coordinates":[3.9078218,47.4827772]},"properties":{"bench":"yes","covered":"no","leisure":"picnic_table","material":"wood"}},
{"type":"Feature","geometry":{"type":"Point","coordinates":[3.9084621,47.4830093]},"properties":{"leaf_type":"broadleaved","natural":"tree"}},
{"type":"Feature","geometry":{"type":"Point","coordinates":[3.9083971,47.4829894]},"properties":{"leaf_type":"broadleaved","natural":"tree"}},
{"type":"Feature","geometry":{"type":"Point","coordinates":[3.908333,47.4829736]},"properties":{"leaf_type":"broadleaved","natural":"tree"}},
{"type":"Feature","geometry":{"type":"Point","coordinates":[3.9082578,47.4829688]},"properties":{"leaf_type":"broadleaved","natural":"tree"}},
{"type":"Feature","geometry":{"type":"Point","coordinates":[3.907774,47.4831364]},"properties":{"leaf_type":"broadleaved","natural":"tree"}},
{"type":"Feature","geometry":{"type":"Point","coordinates":[3.9076795,47.4830025]},"properties":{"leaf_type":"broadleaved","natural":"tree"}},
{"type":"Feature","geometry":{"type":"Point","coordinates":[3.9075321,47.4828527]},"properties":{"leaf_type":"broadleaved","natural":"tree"}},
{"type":"Feature","geometry":{"type":"Point","coordinates":[3.9074102,47.4827689]},"properties":{"leaf_type":"broadleaved","natural":"tree"}},
{"type":"Feature","geometry":{"type":"Point","coordinates":[3.9079823,47.4831955]},"properties":{"board_type":"nature","description":"Découverte sensible d'un environnement à préserver.\nParcours de 25mn aller-retour (2,4km)","information":"board","name":"Le Chemin Bleu","tourism":"information","website":"http://www.life-continuite-ecologique.eu/"}},
{"type":"Feature","geometry":{"type":"Point","coordinates":[3.9071173,47.4825601]},"properties":{"leaf_type":"broadleaved","natural":"tree"}},
{"type":"Feature","geometry":{"type":"Point","coordinates":[3.9084637,47.4828329]},"properties":{"board_type":"nature","description":"Circuit \"Le chemin bleu\"\nArasement du seuil","information":"board","name":"Moulin Nageotte","tourism":"information","website":"http://www.life-continuite-ecologique.eu/"}},
{"type":"Feature","geometry":{"type":"Point","coordinates":[3.9099228,47.4887592]},"properties":{"entrance":"yes"}},
{"type":"Feature","geometry":{"type":"Point","coordinates":[3.910066,47.4887743]},"properties":{"access":"private","garden:type":"botanical","leisure":"garden","name":"Jardins Terrasses Traverses","operator":"Association Traverses","website":"https://jardins-traverses.org/"}},
{"type":"Feature","geometry":{"type":"Point","coordinates":[3.9072119,47.4918019]},"properties":{"leaf_type":"broadleaved","natural":"tree"}},
{"type":"Feature","geometry":{"type":"Point","coordinates":[4.0579054,47.4806313]},"properties":{"natural":"tree"}},
{"type":"Feature","geometry":{"type":"Point","coordinates":[4.0584326,47.4806008]},"properties":{"natural":"tree"}},
{"type":"Feature","geometry":{"type":"Point","coordinates":[4.0582622,47.4807196]},"properties":{"natural":"tree"}},
{"type":"Feature","geometry":{"type":"Point","coordinates":[4.0581733,47.4807969]},"properties":{"natural":"tree"}},
{"type":"Feature","geometry":{"type":"Point","coordinates":[3.9402469,47.3195662]},"properties":{"leaf_type":"broadleaved","natural":"tree"}},
{"type":"Feature","geometry":{"type":"Point","coordinates":[3.9128646,47.4873581]},"properties":{"board_type":"sport","description":"La Grande Traversée du Morvan à VTT est un itinéraire balisé dans les deux sens depuis 2012 qui relie Avallon et Autun.\nAvec carte","information":"board","name":"GT du Morvan","tourism":"information"}},
{"type":"Feature","geometry":{"type":"Point","coordinates":[3.9125488,47.4874836]},"properties":{"bench":"yes","covered":"no","leisure":"picnic_table","material":"wood"}},
{"type":"Feature","geometry":{"type":"Point","coordinates":[3.9073088,47.4876275]},"properties":{"leisure":"dance","level":"1","name":"Studio de danse n°1","operator":"Mairie d'Avallon","wheelchair":"no"}},
{"type":"Feature","geometry":{"type":"Point","coordinates":[3.9073378,47.4876449]},"properties":{"leisure":"dance","level":"2","name":"Studio de danse n°2","operator":"Mairie d'Avallon","wheelchair":"no"}},
{"type":"Feature","geometry":{"type":"Point","coordinates":[3.9055983,47.4936259]},"properties":{"leaf_cycle":"deciduous","leaf_type":"broadleaved","natural":"tree"}},
{"type":"Feature","geometry":{"type":"Point","coordinates":[3.9049857,47.4937639]},"properties":{"leaf_cycle":"deciduous","leaf_type":"broadleaved","natural":"tree"}},
{"type":"Feature","geometry":{"type":"Point","coordinates":[3.9048936,47.4938939]},"properties":{"leaf_cycle":"deciduous","leaf_type":"broadleaved","natural":"tree"}},
{"type":"Feature","geometry":{"type":"Point","coordinates":[3.9048171,47.4938257]},"properties":{"leaf_cycle":"deciduous","leaf_type":"broadleaved","natural":"tree"}},
{"type":"Feature","geometry":{"type":"Point","coordinates":[3.9053861,47.4936112]},"properties":{"leaf_cycle":"deciduous","leaf_type":"broadleaved","natural":"tree"}},
{"type":"Feature","geometry":{"type":"Point","coordinates":[3.9055083,47.4935641]},"properties":{"leaf_cycle":"deciduous","leaf_type":"broadleaved","natural":"tree"}},
{"type":"Feature","geometry":{"type":"Point","coordinates":[3.9053649,47.4937157]},"properties":{"leaf_cycle":"deciduous","leaf_type":"broadleaved","natural":"tree"}},
{"type":"Feature","geometry":{"type":"Point","coordinates":[3.904601,47.493997]},"properties":{"leaf_cycle":"deciduous","leaf_type":"broadleaved","natural":"tree"}},
{"type":"Feature","geometry":{"type":"Point","coordinates":[3.9052715,47.493659]},"properties":{"leaf_cycle":"deciduous","leaf_type":"broadleaved","natural":"tree"}},
{"type":"Feature","geometry":{"type":"Point","coordinates":[3.9047209,47.4939608]},"properties":{"leaf_cycle":"deciduous","leaf_type":"broadleaved","natural":"tree"}},
{"type":"Feature","geometry":{"type":"Point","coordinates":[3.9046959,47.4938747]},"properties":{"leaf_cycle":"deciduous","leaf_type":"broadleaved","natural":"tree"}},
{"type":"Feature","geometry":{"type":"Point","coordinates":[3.9050943,47.4937222]},"properties":{"leaf_cycle":"deciduous","leaf_type":"broadleaved","natural":"tree"}},
{"type":"Feature","geometry":{"type":"Point","coordinates":[3.9054518,47.4935888]},"properties":{"leaf_cycle":"deciduous","leaf_type":"broadleaved","natural":"tree"}},
{"type":"Feature","geometry":{"type":"Point","coordinates":[3.9051616,47.4936948]},"properties":{"leaf_cycle":"deciduous","leaf_type":"broadleaved","natural":"tree"}},
{"type":"Feature","geometry":{"type":"Point","coordinates":[3.9046553,47.4939816]},"properties":{"leaf_cycle":"deciduous","leaf_type":"broadleaved","natural":"tree"}},
{"type":"Feature","geometry":{"type":"Point","coordinates":[3.9050764,47.4938215]},"properties":{"leaf_cycle":"deciduous","leaf_type":"broadleaved","natural":"tree"}},
{"type":"Feature","geometry":{"type":"Point","coordinates":[3.9052502,47.4937584]},"properties":{"leaf_cycle":"deciduous","leaf_type":"broadleaved","natural":"tree"}},
{"type":"Feature","geometry":{"type":"Point","coordinates":[3.9177624,47.4884074]},"properties":{"board_type":"notice","information":"board","tourism":"information"}},
{"type":"Feature","geometry":{"type":"Point","coordinates":[3.9063438,47.4894848]},"properties":{"description":"Cette place a été finie par les soins de Mr Champion maire et de Mrs Boudrey Lavreau Seguenot Caillat échevins et Borot sindic 1723","historic":"memorial","memorial":"stone","name":"Place Finie En 1723"}},
{"type":"Feature","geometry":{"type":"Point","coordinates":[3.9060292,47.4887771]},"properties":{"leaf_type":"broadleaved","natural":"tree"}},
{"type":"Feature","geometry":{"type":"Point","coordinates":[3.8966726,47.4978226]},"properties":{"natural":"shrub"}},
{"type":"Feature","geometry":{"type":"Point","coordinates":[3.8964249,47.4979314]},"properties":{"natural":"shrub"}},
{"type":"Feature","geometry":{"type":"Point","coordinates":[3.8959648,47.4981729]},"properties":{"leaf_type":"broadleaved","natural":"tree"}},
{"type":"Feature","geometry":{"type":"Point","coordinates":[3.8962231,47.4984251]},"properties":{"natural":"tree"}},
{"type":"Feature","geometry":{"type":"Point","coordinates":[3.8971126,47.4977482]},"properties":{"natural":"tree"}},
{"type":"Feature","geometry":{"type":"Point","coordinates":[3.897108,47.497793]},"properties":{"natural":"tree"}},
{"type":"Feature","geometry":{"type":"Point","coordinates":[3.8973052,47.4979501]},"properties":{"natural":"tree"}},
{"type":"Feature","geometry":{"type":"Point","coordinates":[3.8972328,47.4979991]},"properties":{"natural":"tree"}},
{"type":"Feature","geometry":{"type":"Point","coordinates":[3.8972743,47.4980521]},"properties":{"natural":"tree"}},
{"type":"Feature","geometry":{"type":"Point","coordinates":[3.8973098,47.4980011]},"properties":{"natural":"tree"}},
{"type":"Feature","geometry":{"type":"Point","coordinates":[3.8972358,47.4978908]},"properties":{"natural":"tree"}},
{"type":"Feature","geometry":{"type":"Point","coordinates":[3.897165,47.4978044]},"properties":{"natural":"tree"}},
{"type":"Feature","geometry":{"type":"Point","coordinates":[3.8947333,47.4986297]},"properties":{"leaf_type":"broadleaved","natural":"tree"}},
{"type":"Feature","geometry":{"type":"Point","coordinates":[3.8952694,47.4984408]},"properties":{"leaf_type":"broadleaved","natural":"tree"}},
{"type":"Feature","geometry":{"type":"Point","coordinates":[3.8964716,47.498681]},"properties":{"natural":"tree"}},
{"type":"Feature","geometry":{"type":"Point","coordinates":[3.8966545,47.498876]},"properties":{"natural":"tree"}},
{"type":"Feature","geometry":{"type":"Point","coordinates":[3.8962399,47.498659]},"properties":{"natural":"tree"}},
{"type":"Feature","geometry":{"type":"Point","coordinates":[3.8968375,47.4990586]},"properties":{"natural":"tree"}},
{"type":"Feature","geometry":{"type":"Point","coordinates":[3.8970265,47.499255]},"properties":{"natural":"tree"}},
{"type":"Feature","geometry":{"type":"Point","coordinates":[3.8967867,47.4992207]},"properties":{"natural":"tree"}},
{"type":"Feature","geometry":{"type":"Point","coordinates":[3.8965956,47.4990339]},"properties":{"natural":"tree"}},
{"type":"Feature","geometry":{"type":"Point","coordinates":[3.8969452,47.4993841]},"properties":{"natural":"tree"}},
{"type":"Feature","geometry":{"type":"Point","coordinates":[3.8973863,47.4996327]},"properties":{"natural":"tree"}},
{"type":"Feature","geometry":{"type":"Point","coordinates":[3.8983382,47.4995776]},"properties":{"natural":"tree"}},
{"type":"Feature","geometry":{"type":"Point","coordinates":[3.8985262,47.4993695]},"properties":{"natural":"tree"}},
{"type":"Feature","geometry":{"type":"Point","coordinates":[3.8987126,47.4991707]},"properties":{"natural":"tree"}},
{"type":"Feature","geometry":{"type":"Point","coordinates":[3.8983065,47.4971524]},"properties":{"leaf_type":"broadleaved","natural":"tree"}},
{"type":"Feature","geometry":{"type":"Point","coordinates":[3.8982232,47.4971359]},"properties":{"leaf_type":"broadleaved","natural":"tree"}},
{"type":"Feature","geometry":{"type":"Point","coordinates":[3.8981419,47.4971208]},"properties":{"leaf_type":"broadleaved","natural":"tree"}},
{"type":"Feature","geometry":{"type":"Point","coordinates":[3.8980565,47.4971085]},"properties":{"leaf_type":"broadleaved","natural":"tree"}},
{"type":"Feature","geometry":{"type":"Point","coordinates":[3.897763,47.4968131]},"properties":{"leaf_type":"broadleaved","natural":"tree"}},
{"type":"Feature","geometry":{"type":"Point","coordinates":[3.8977718,47.4968562]},"properties":{"leaf_type":"broadleaved","natural":"tree"}},
{"type":"Feature","geometry":{"type":"Point","coordinates":[3.8932324,47.4990029]},"properties":{"leaf_type":"broadleaved","natural":"tree"}},
{"type":"Feature","geometry":{"type":"Point","coordinates":[3.9077354,47.4875747]},"properties":{"leaf_type":"broadleaved","natural":"tree"}},
{"type":"Feature","geometry":{"type":"Point","coordinates":[3.9078102,47.4875642]},"properties":{"leaf_type":"broadleaved","natural":"tree"}},
{"type":"Feature","geometry":{"type":"Point","coordinates":[3.9079203,47.4876046]},"properties":{"leaf_type":"broadleaved","natural":"tree"}},
{"type":"Feature","geometry":{"type":"Point","coordinates":[3.90926,47.4897943]},"properties":{"historic":"memorial","inscription":"JEAN DESPRES / maître orfèvre / travailla en ce lieu de 1920 à 1980","memorial":"plaque","name":"Jean Déprés"}},
{"type":"Feature","geometry":{"type":"Point","coordinates":[3.8792949,47.485489]},"properties":{"name":"Moulin des Ruats","rooms":"25","tourism":"hotel","website":"https://moulindesruats.com/fr/"}},
{"type":"Feature","geometry":{"type":"Point","coordinates":[3.9079761,47.4935151]},"properties":{"historic":"memorial","inscription":"Henri PETIT / Penseur et Philosophe Avallonnais / 1900-1978","material":"stone","memorial":"plaque","name":"Henri Petit"}},
{"type":"Feature","geometry":{"type":"Point","coordinates":[3.908054,47.4959664]},"properties":{"leaf_type":"broadleaved","natural":"tree"}},
{"type":"Feature","geometry":{"type":"Point","coordinates":[3.9079612,47.4959728]},"properties":{"leaf_type":"broadleaved","natural":"tree"}},
{"type":"Feature","geometry":{"type":"Point","coordinates":[3.9079895,47.4958157]},"properties":{"leaf_type":"broadleaved","natural":"tree"}},
{"type":"Feature","geometry":{"type":"Point","coordinates":[3.9078618,47.4958211]},"properties":{"leaf_type":"broadleaved","natural":"tree"}},
{"type":"Feature","geometry":{"type":"Point","coordinates":[3.9079787,47.495674]},"properties":{"leaf_type":"broadleaved","natural":"tree"}},
{"type":"Feature","geometry":{"type":"Point","coordinates":[3.9078605,47.4956759]},"properties":{"leaf_type":"broadleaved","natural":"tree"}},
{"type":"Feature","geometry":{"type":"Point","coordinates":[3.9726176,47.4888372]},"properties":{"contact:facebook":"https://www.facebook.com/armurerievaubanmagny","leisure":"sports_centre","name":"Cercle de Tir de Magny","sport":"shooting","website":"https://armurerie-vauban.com/"}},
{"type":"Feature","geometry":{"type":"Point","coordinates":[3.9222875,47.4914837]},"properties":{"leaf_type":"broadleaved","natural":"tree"}},
{"type":"Feature","geometry":{"type":"Point","coordinates":[3.9223232,47.4915247]},"properties":{"tourism":"artwork"}},
{"type":"Feature","geometry":{"type":"Point","coordinates":[3.9224117,47.491552]},"properties":{"historic":"memorial","name":"Stèle Arnaud Beltrame"}},
{"type":"Feature","geometry":{"type":"Point","coordinates":[3.9222151,47.4914915]},"properties":{"leaf_type":"broadleaved","natural":"tree"}},
{"type":"Feature","geometry":{"type":"Point","coordinates":[3.9223744,47.4916322]},"properties":{"leaf_type":"broadleaved","natural":"tree"}},
{"type":"Feature","geometry":{"type":"Point","coordinates":[3.9222866,47.4916036]},"properties":{"leaf_type":"broadleaved","natural":"tree"}},
{"type":"Feature","geometry":{"type":"Point","coordinates":[3.922215,47.4915963]},"properties":{"leaf_type":"broadleaved","natural":"tree"}},
{"type":"Feature","geometry":{"type":"Point","coordinates":[3.9220216,47.4916489]},"properties":{"leaf_type":"broadleaved","natural":"tree"}},
{"type":"Feature","geometry":{"type":"Point","coordinates":[3.9221125,47.4916067]},"properties":{"leaf_type":"broadleaved","natural":"tree"}},
{"type":"Feature","geometry":{"type":"Point","coordinates":[3.9218119,47.4916237]},"properties":{"leaf_type":"broadleaved","natural":"tree"}},
{"type":"Feature","geometry":{"type":"Point","coordinates":[3.9216736,47.4917109]},"properties":{"leaf_type":"broadleaved","natural":"tree"}},
{"type":"Feature","geometry":{"type":"Point","coordinates":[3.9216292,47.4917486]},"properties":{"leaf_type":"broadleaved","natural":"tree"}},
{"type":"Feature","geometry":{"type":"Point","coordinates":[3.921434,47.4922809]},"properties":{"leaf_type":"broadleaved","natural":"tree"}},
{"type":"Feature","geometry":{"type":"Point","coordinates":[3.9215848,47.4923179]},"properties":{"leaf_type":"broadleaved","natural":"tree"}},
{"type":"Feature","geometry":{"type":"Point","coordinates":[3.9215806,47.4922474]},"properties":{"leaf_type":"broadleaved","natural":"tree"}},
{"type":"Feature","geometry":{"type":"Point","coordinates":[3.9216478,47.4921219]},"properties":{"leaf_type":"broadleaved","natural":"tree"}},
{"type":"Feature","geometry":{"type":"Point","coordinates":[3.9215187,47.4921316]},"properties":{"leaf_type":"broadleaved","natural":"tree"}},
{"type":"Feature","geometry":{"type":"Point","coordinates":[3.9215404,47.4920751]},"properties":{"leaf_type":"broadleaved","natural":"tree"}},
{"type":"Feature","geometry":{"type":"Point","coordinates":[3.9215001,47.4918561]},"properties":{"leaf_type":"broadleaved","natural":"tree"}},
{"type":"Feature","geometry":{"type":"Point","coordinates":[3.9214557,47.4918923]},"properties":{"leaf_type":"broadleaved","natural":"tree"}},
{"type":"Feature","geometry":{"type":"Point","coordinates":[3.9213958,47.4920265]},"properties":{"natural":"shrub"}},
{"type":"Feature","geometry":{"type":"Point","coordinates":[3.9213204,47.4922707]},"properties":{"natural":"shrub"}},
{"type":"Feature","geometry":{"type":"Point","coordinates":[3.9213826,47.492199]},"properties":{"leaf_type":"broadleaved","natural":"tree"}},
{"type":"Feature","geometry":{"type":"Point","coordinates":[3.927842,47.4921865]},"properties":{"natural":"tree"}},
{"type":"Feature","geometry":{"type":"Point","coordinates":[3.9280798,47.4921467]},"properties":{"natural":"tree"}},
{"type":"Feature","geometry":{"type":"Point","coordinates":[3.9272403,47.4922112]},"properties":{"natural":"tree"}},
{"type":"Feature","geometry":{"type":"Point","coordinates":[3.9273419,47.4921673]},"properties":{"natural":"tree"}},
{"type":"Feature","geometry":{"type":"Point","coordinates":[3.9266569,47.4920602]},"properties":{"natural":"tree"}},
{"type":"Feature","geometry":{"type":"Point","coordinates":[3.9265695,47.492122]},"properties":{"natural":"tree"}},
{"type":"Feature","geometry":{"type":"Point","coordinates":[3.9267524,47.4920396]},"properties":{"natural":"tree"}},
{"type":"Feature","geometry":{"type":"Point","coordinates":[3.9266854,47.4921961]},"properties":{"natural":"tree"}},
{"type":"Feature","geometry":{"type":"Point","coordinates":[3.9281835,47.4921096]},"properties":{"natural":"tree"}},
{"type":"Feature","geometry":{"type":"Point","coordinates":[3.928338,47.4922099]},"properties":{"natural":"tree"}},
{"type":"Feature","geometry":{"type":"Point","coordinates":[3.9270492,47.4921536]},"properties":{"natural":"tree"}},
{"type":"Feature","geometry":{"type":"Point","coordinates":[3.9279802,47.4919132]},"properties":{"natural":"tree"}},
{"type":"Feature","geometry":{"type":"Point","coordinates":[3.9282445,47.4921027]},"properties":{"natural":"tree"}},
{"type":"Feature","geometry":{"type":"Point","coordinates":[3.9281997,47.4920684]},"properties":{"natural":"tree"}},
{"type":"Feature","geometry":{"type":"Point","coordinates":[3.9019967,47.4934577]},"properties":{"historic":"memorial","inscription":"Ici sont tombés sous la mitraille allemande au cours d'une reconnaissance le 24 août 1944 à la chute du jour le lieutenant Villatoux, le M.D.L. chef Jolivot, les gendarmes sous-officiers Louap . Soutif . Clerc . Perret . Mollier, de la lieutenance d'Avall","material":"stone","memorial":"war_memorial","name":"Passants Saluez"}},
{"type":"Feature","geometry":{"type":"Point","coordinates":[3.902531,47.4935717]},"properties":{"leaf_type":"broadleaved","natural":"tree"}},
{"type":"Feature","geometry":{"type":"Point","coordinates":[3.9021896,47.4933831]},"properties":{"leaf_type":"broadleaved","natural":"tree"}},
{"type":"Feature","geometry":{"type":"Point","coordinates":[3.902028,47.4933543]},"properties":{"leaf_type":"broadleaved","natural":"tree"}},
{"type":"Feature","geometry":{"type":"Point","coordinates":[3.9012261,47.4932788]},"properties":{"leaf_type":"broadleaved","natural":"tree"}},
{"type":"Feature","geometry":{"type":"Point","coordinates":[3.9011468,47.493274]},"properties":{"leaf_type":"broadleaved","natural":"tree"}},
{"type":"Feature","geometry":{"type":"Point","coordinates":[3.9007383,47.4932012]},"properties":{"leaf_type":"broadleaved","natural":"tree"}},
{"type":"Feature","geometry":{"type":"Point","coordinates":[3.90091,47.4933399]},"properties":{"leaf_type":"broadleaved","natural":"tree"}},
{"type":"Feature","geometry":{"type":"Point","coordinates":[3.9028723,47.4935594]},"properties":{"natural":"tree"}},
{"type":"Feature","geometry":{"type":"Point","coordinates":[3.9039359,47.4937669]},"properties":{"leaf_type":"broadleaved","natural":"tree"}},
{"type":"Feature","geometry":{"type":"Point","coordinates":[3.9040754,47.4937352]},"properties":{"leaf_type":"broadleaved","natural":"tree"}},
{"type":"Feature","geometry":{"type":"Point","coordinates":[3.90418,47.4936935]},"properties":{"leaf_type":"broadleaved","natural":"tree"}},
{"type":"Feature","geometry":{"type":"Point","coordinates":[3.9042068,47.4935404]},"properties":{"leaf_type":"broadleaved","natural":"tree"}},
{"type":"Feature","geometry":{"type":"Point","coordinates":[3.9041156,47.4933827]},"properties":{"leaf_type":"broadleaved","natural":"tree"}},
{"type":"Feature","geometry":{"type":"Point","coordinates":[3.9041169,47.4932033]},"properties":{"leaf_type":"needleleaved","natural":"tree"}},
{"type":"Feature","geometry":{"type":"Point","coordinates":[3.9040083,47.493091]},"properties":{"leaf_type":"needleleaved","natural":"tree"}},
{"type":"Feature","geometry":{"type":"Point","coordinates":[3.9039667,47.492936]},"properties":{"leaf_type":"broadleaved","natural":"tree"}},
{"type":"Feature","geometry":{"type":"Point","coordinates":[3.9038708,47.4931038]},"properties":{"leaf_type":"broadleaved","natural":"tree"}},
{"type":"Feature","geometry":{"type":"Point","coordinates":[3.9039332,47.4932776]},"properties":{"leaf_type":"broadleaved","natural":"tree"}},
{"type":"Feature","geometry":{"type":"Point","coordinates":[3.9029719,47.4934126]},"properties":{"natural":"tree"}},
{"type":"Feature","geometry":{"type":"Point","coordinates":[3.9029639,47.4933365]},"properties":{"natural":"tree"}},
{"type":"Feature","geometry":{"type":"Point","coordinates":[3.9029679,47.4933002]},"properties":{"natural":"tree"}},
{"type":"Feature","geometry":{"type":"Point","coordinates":[3.9279807,47.4922373]},"properties":{"natural":"tree"}},
{"type":"Feature","geometry":{"type":"Point","coordinates":[3.9043716,47.4939675]},"properties":{"artwork_type":"sculpture","tourism":"artwork"}},
{"type":"Feature","geometry":{"type":"Point","coordinates":[3.9271323,47.499726]},"properties":{"leaf_type":"broadleaved","natural":"tree"}},
{"type":"Feature","geometry":{"type":"Point","coordinates":[3.9268212,47.4995775]},"properties":{"leaf_type":"broadleaved","natural":"tree"}},
{"type":"Feature","geometry":{"type":"Point","coordinates":[3.9268689,47.4991776]},"properties":{"natural":"tree"}},
{"type":"Feature","geometry":{"type":"Point","coordinates":[3.9268196,47.4991828]},"properties":{"natural":"tree"}},
{"type":"Feature","geometry":{"type":"Point","coordinates":[3.9268537,47.4992157]},"properties":{"natural":"tree"}},
{"type":"Feature","geometry":{"type":"Point","coordinates":[4.0100549,47.2837977]},"properties":{"natural":"tree"}},
{"type":"Feature","geometry":{"type":"Point","coordinates":[4.0101465,47.2837435]},"properties":{"natural":"tree"}},
{"type":"Feature","geometry":{"type":"Point","coordinates":[4.0158308,47.2838827]},"properties":{"hiking":"yes","information":"map","map_type":"map","name":"Dun les Places","tourism":"information"}},
{"type":"Feature","geometry":{"type":"Point","coordinates":[4.0156912,47.2856461]},"properties":{"artist_name":"Dam","artwork_type":"mural","description":"Peinture murale","tourism":"artwork"}},
{"type":"Feature","geometry":{"type":"Point","coordinates":[4.0161105,47.2859346]},"properties":{"artwork_type":"mural","description":"Peinture Murale","tourism":"artwork"}},
{"type":"Feature","geometry":{"type":"Point","coordinates":[4.0161465,47.2857236]},"properties":{"natural":"tree"}},
{"type":"Feature","geometry":{"type":"Point","coordinates":[4.0160816,47.2857135]},"properties":{"natural":"tree"}},
{"type":"Feature","geometry":{"type":"Point","coordinates":[4.0160097,47.2857019]},"properties":{"natural":"tree"}},
{"type":"Feature","geometry":{"type":"Point","coordinates":[4.0192044,47.2838895]},"properties":{"bench":"yes","leisure":"picnic_table","lit":"no","material":"wood"}},
{"type":"Feature","geometry":{"type":"Point","coordinates":[4.0190834,47.2838977]},"properties":{"bench":"yes","leisure":"picnic_table","lit":"no","material":"wood"}},
{"type":"Feature","geometry":{"type":"Point","coordinates":[4.0170155,47.2844993]},"properties":{"historic":"memorial","memorial":"plaque"}},
{"type":"Feature","geometry":{"type":"Point","coordinates":[3.9074468,47.4883206]},"properties":{"board_type":"history","direction":"290","information":"board","name":"La Place De L'hôtel De Ville","tourism":"information"}},
{"type":"Feature","geometry":{"type":"Point","coordinates":[3.9077041,47.4883621]},"properties":{"board_type":"history","direction":"200","information":"board","name":"La Tour Catin","tourism":"information"}},
{"type":"Feature","geometry":{"type":"Point","coordinates":[3.9082072,47.48816]},"properties":{"board_type":"history","direction":"20","information":"board","name":"Musée Du Costume","tourism":"information"}},
{"type":"Feature","geometry":{"type":"Point","coordinates":[3.9090288,47.4882697]},"properties":{"board_type":"history","direction":"195","information":"board","name":"La Tour Beurdelaine Et Son Bastion","tourism":"information"}},
{"type":"Feature","geometry":{"type":"Point","coordinates":[3.9092903,47.4882542]},"properties":{"board_type":"history","direction":"130","information":"board","name":"Lacets Du Bel Air","operator":"Ville d'Avallon","tourism":"information"}},
{"type":"Feature","geometry":{"type":"Point","coordinates":[3.9093431,47.4899859]},"properties":{"board_type":"history","information":"board","name":"Deux Couvents, Deux Destins","tourism":"information"}},
{"type":"Feature","geometry":{"type":"Point","coordinates":[4.0588689,47.4798963]},"properties":{"historic":"memorial","memorial":"war_memorial"}},
{"type":"Feature","geometry":{"type":"Point","coordinates":[3.9056163,47.4896795]},"properties":{"board_type":"history","information":"board","name":"Il Était Une Fois L'hôpital","operator":"Communauté De Communes Avallon Vézelay Morvan","source":"survey","tourism":"information"}},
{"type":"Feature","geometry":{"type":"Point","coordinates":[3.8980193,47.4964092]},"properties":{"leaf_cycle":"deciduous","leaf_type":"broadleaved","natural":"tree"}},
{"type":"Feature","geometry":{"type":"Point","coordinates":[3.8975807,47.4965823]},"properties":{"backrest":"yes","leaf_cycle":"deciduous","leaf_type":"broadleaved","material":"wood","natural":"tree"}},
{"type":"Feature","geometry":{"type":"Point","coordinates":[3.8977805,47.4965406]},"properties":{"leaf_cycle":"deciduous","leaf_type":"broadleaved","natural":"tree"}},
{"type":"Feature","geometry":{"type":"Point","coordinates":[3.8977068,47.4965008]},"properties":{"leaf_cycle":"deciduous","leaf_type":"broadleaved","natural":"tree"}},
{"type":"Feature","geometry":{"type":"Point","coordinates":[3.8977832,47.4964636]},"properties":{"leaf_cycle":"deciduous","leaf_type":"broadleaved","natural":"tree"}},
{"type":"Feature","geometry":{"type":"Point","coordinates":[3.8978744,47.4964138]},"properties":{"leaf_cycle":"deciduous","leaf_type":"broadleaved","natural":"tree"}},
{"type":"Feature","geometry":{"type":"Point","coordinates":[3.8980166,47.4963349]},"properties":{"leaf_cycle":"deciduous","leaf_type":"broadleaved","natural":"tree"}},
{"type":"Feature","geometry":{"type":"Point","coordinates":[3.8979415,47.496373]},"properties":{"leaf_cycle":"deciduous","leaf_type":"broadleaved","natural":"tree"}},
{"type":"Feature","geometry":{"type":"Point","coordinates":[3.8975153,47.4952084]},"properties":{"information":"guidepost","tourism":"information"}},
{"type":"Feature","geometry":{"type":"Point","coordinates":[3.8979108,47.4961454]},"properties":{"leaf_cycle":"deciduous","leaf_type":"broadleaved","natural":"tree"}},
{"type":"Feature","geometry":{"type":"Point","coordinates":[3.8980201,47.4961777]},"properties":{"leaf_cycle":"deciduous","leaf_type":"broadleaved","natural":"tree"}},
{"type":"Feature","geometry":{"type":"Point","coordinates":[3.897806,47.4962422]},"properties":{"leisure":"playground"}},
{"type":"Feature","geometry":{"type":"Point","coordinates":[3.8978969,47.4962172]},"properties":{"covered":"no","leisure":"picnic_table"}},
{"type":"Feature","geometry":{"type":"Point","coordinates":[3.8978414,47.4962068]},"properties":{"covered":"no","leisure":"picnic_table"}},
{"type":"Feature","geometry":{"type":"Point","coordinates":[3.8978491,47.4962422]},"properties":{"covered":"no","leisure":"picnic_table"}},
{"type":"Feature","geometry":{"type":"Point","coordinates":[3.8970573,47.4963661]},"properties":{"leaf_cycle":"evergreen","leaf_type":"needleleaved","natural":"tree"}},
{"type":"Feature","geometry":{"type":"Point","coordinates":[3.8968817,47.4962381]},"properties":{"leaf_cycle":"evergreen","leaf_type":"needleleaved","natural":"tree"}},
{"type":"Feature","geometry":{"type":"Point","coordinates":[3.8969433,47.4962641]},"properties":{"leaf_cycle":"evergreen","leaf_type":"needleleaved","natural":"tree"}},
{"type":"Feature","geometry":{"type":"Point","coordinates":[3.8969542,47.490699]},"properties":{"leaf_cycle":"deciduous","leaf_type":"broadleaved","natural":"tree"}},
{"type":"Feature","geometry":{"type":"Point","coordinates":[3.8969997,47.4911329]},"properties":{"leaf_cycle":"deciduous","leaf_type":"broadleaved","natural":"tree"}},
{"type":"Feature","geometry":{"type":"Point","coordinates":[3.8969869,47.4910619]},"properties":{"leaf_cycle":"deciduous","leaf_type":"broadleaved","natural":"tree"}},
{"type":"Feature","geometry":{"type":"Point","coordinates":[3.896946,47.4905918]},"properties":{"leaf_cycle":"deciduous","leaf_type":"broadleaved","natural":"tree"}},
{"type":"Feature","geometry":{"type":"Point","coordinates":[3.8969191,47.4902281]},"properties":{"leaf_cycle":"deciduous","leaf_type":"broadleaved","natural":"tree"}},
{"type":"Feature","geometry":{"type":"Point","coordinates":[3.8969168,47.4901855]},"properties":{"leaf_cycle":"deciduous","leaf_type":"broadleaved","natural":"tree"}},
{"type":"Feature","geometry":{"type":"Point","coordinates":[3.8969051,47.4900758]},"properties":{"leaf_cycle":"deciduous","leaf_type":"broadleaved","natural":"tree"}},
{"type":"Feature","geometry":{"type":"Point","coordinates":[3.8969051,47.4900285]},"properties":{"leaf_cycle":"deciduous","leaf_type":"broadleaved","natural":"tree"}},
{"type":"Feature","geometry":{"type":"Point","coordinates":[3.8968958,47.4899133]},"properties":{"leaf_cycle":"deciduous","leaf_type":"broadleaved","natural":"tree"}},
{"type":"Feature","geometry":{"type":"Point","coordinates":[3.8968923,47.4898636]},"properties":{"leaf_cycle":"deciduous","leaf_type":"broadleaved","natural":"tree"}},
{"type":"Feature","geometry":{"type":"Point","coordinates":[3.8968865,47.4897689]},"properties":{"leaf_cycle":"deciduous","leaf_type":"broadleaved","natural":"tree"}},
{"type":"Feature","geometry":{"type":"Point","coordinates":[3.8968794,47.4897058]},"properties":{"leaf_cycle":"deciduous","leaf_type":"broadleaved","natural":"tree"}},
{"type":"Feature","geometry":{"type":"Point","coordinates":[3.8968748,47.4896545]},"properties":{"leaf_cycle":"deciduous","leaf_type":"broadleaved","natural":"tree"}},
{"type":"Feature","geometry":{"type":"Point","coordinates":[3.8968654,47.4895425]},"properties":{"leaf_cycle":"deciduous","leaf_type":"broadleaved","natural":"tree"}},
{"type":"Feature","geometry":{"type":"Point","coordinates":[3.8968631,47.489492]},"properties":{"leaf_cycle":"deciduous","leaf_type":"broadleaved","natural":"tree"}},
{"type":"Feature","geometry":{"type":"Point","coordinates":[3.8968573,47.4894352]},"properties":{"leaf_cycle":"deciduous","leaf_type":"broadleaved","natural":"tree"}},
{"type":"Feature","geometry":{"type":"Point","coordinates":[3.8967569,47.4882274]},"properties":{"leaf_cycle":"deciduous","leaf_type":"broadleaved","natural":"tree"}},
{"type":"Feature","geometry":{"type":"Point","coordinates":[3.897197,47.486655]},"properties":{"leaf_cycle":"deciduous","leaf_type":"broadleaved","natural":"tree"}},
{"type":"Feature","geometry":{"type":"Point","coordinates":[3.8972776,47.4866519]},"properties":{"leaf_cycle":"deciduous","leaf_type":"broadleaved","natural":"tree"}},
{"type":"Feature","geometry":{"type":"Point","coordinates":[3.8973616,47.4866479]},"properties":{"leaf_cycle":"deciduous","leaf_type":"broadleaved","natural":"tree"}},
{"type":"Feature","geometry":{"type":"Point","coordinates":[3.8974387,47.4866464]},"properties":{"leaf_cycle":"deciduous","leaf_type":"broadleaved","natural":"tree"}},
{"type":"Feature","geometry":{"type":"Point","coordinates":[3.8975449,47.4866408]},"properties":{"leaf_cycle":"deciduous","leaf_type":"broadleaved","natural":"tree"}},
{"type":"Feature","geometry":{"type":"Point","coordinates":[3.8976208,47.4866385]},"properties":{"leaf_cycle":"deciduous","leaf_type":"broadleaved","natural":"tree"}},
{"type":"Feature","geometry":{"type":"Point","coordinates":[3.8970059,47.4889522]},"properties":{"leaf_cycle":"deciduous","leaf_type":"broadleaved","natural":"tree"}},
{"type":"Feature","geometry":{"type":"Point","coordinates":[3.8972794,47.4887181]},"properties":{"leaf_cycle":"deciduous","leaf_type":"broadleaved","natural":"tree"}},
{"type":"Feature","geometry":{"type":"Point","coordinates":[3.8973307,47.4887139]},"properties":{"leaf_cycle":"deciduous","leaf_type":"broadleaved","natural":"tree"}},
{"type":"Feature","geometry":{"type":"Point","coordinates":[3.8974077,47.4887151]},"properties":{"leaf_cycle":"deciduous","leaf_type":"broadleaved","natural":"tree"}},
{"type":"Feature","geometry":{"type":"Point","coordinates":[3.8972621,47.488936699999999]},"properties":{"leaf_cycle":"deciduous","leaf_type":"broadleaved","natural":"tree"}},
{"type":"Feature","geometry":{"type":"Point","coordinates":[3.8992412,47.4888605]},"properties":{"leaf_cycle":"deciduous","leaf_type":"broadleaved","natural":"tree"}},
{"type":"Feature","geometry":{"type":"Point","coordinates":[3.8979129,47.4866289]},"properties":{"leaf_cycle":"deciduous","leaf_type":"broadleaved","natural":"tree"}},
{"type":"Feature","geometry":{"type":"Point","coordinates":[3.8979822,47.4866253]},"properties":{"leaf_cycle":"deciduous","leaf_type":"broadleaved","natural":"tree"}},
{"type":"Feature","geometry":{"type":"Point","coordinates":[3.89805,47.4866232]},"properties":{"leaf_cycle":"deciduous","leaf_type":"broadleaved","natural":"tree"}},
{"type":"Feature","geometry":{"type":"Point","coordinates":[3.8981255,47.4866211]},"properties":{"leaf_cycle":"deciduous","leaf_type":"broadleaved","natural":"tree"}},
{"type":"Feature","geometry":{"type":"Point","coordinates":[3.8981933,47.486617]},"properties":{"leaf_cycle":"deciduous","leaf_type":"broadleaved","natural":"tree"}},
{"type":"Feature","geometry":{"type":"Point","coordinates":[3.898268,47.4866149]},"properties":{"leaf_cycle":"deciduous","leaf_type":"broadleaved","natural":"tree"}},
{"type":"Feature","geometry":{"type":"Point","coordinates":[3.8986998,47.4863741]},"properties":{"leaf_cycle":"deciduous","leaf_type":"broadleaved","natural":"tree"}},
{"type":"Feature","geometry":{"type":"Point","coordinates":[3.8986159,47.4864209]},"properties":{"leaf_cycle":"deciduous","leaf_type":"broadleaved","natural":"tree"}},
{"type":"Feature","geometry":{"type":"Point","coordinates":[3.8986883,47.486717]},"properties":{"leaf_cycle":"deciduous","leaf_type":"broadleaved","natural":"tree"}},
{"type":"Feature","geometry":{"type":"Point","coordinates":[3.898683,47.4866465]},"properties":{"leaf_cycle":"deciduous","leaf_type":"broadleaved","natural":"tree"}},
{"type":"Feature","geometry":{"type":"Point","coordinates":[3.8988157,47.4867421]},"properties":{"leaf_cycle":"deciduous","leaf_type":"broadleaved","natural":"tree"}},
{"type":"Feature","geometry":{"type":"Point","coordinates":[3.8988122,47.4866764]},"properties":{"leaf_cycle":"deciduous","leaf_type":"broadleaved","natural":"tree"}},
{"type":"Feature","geometry":{"type":"Point","coordinates":[3.8987202,47.4868055]},"properties":{"leaf_cycle":"evergreen","leaf_type":"needleleaved","natural":"tree"}},
{"type":"Feature","geometry":{"type":"Point","coordinates":[3.8987385,47.4870071]},"properties":{"leaf_cycle":"evergreen","leaf_type":"needleleaved","natural":"tree"}},
{"type":"Feature","geometry":{"type":"Point","coordinates":[3.8993729,47.4876191]},"properties":{"leaf_cycle":"deciduous","leaf_type":"broadleaved","natural":"tree"}},
{"type":"Feature","geometry":{"type":"Point","coordinates":[3.8993601,47.4874179]},"properties":{"leaf_cycle":"deciduous","leaf_type":"broadleaved","natural":"tree"}},
{"type":"Feature","geometry":{"type":"Point","coordinates":[3.8993145,47.4874463]},"properties":{"leaf_cycle":"deciduous","leaf_type":"broadleaved","natural":"tree"}},
{"type":"Feature","geometry":{"type":"Point","coordinates":[3.8992726,47.4873722]},"properties":{"leaf_cycle":"deciduous","leaf_type":"broadleaved","natural":"tree"}},
{"type":"Feature","geometry":{"type":"Point","coordinates":[3.8992123,47.487297]},"properties":{"leaf_cycle":"deciduous","leaf_type":"broadleaved","natural":"tree"}},
{"type":"Feature","geometry":{"type":"Point","coordinates":[3.899164,47.4872354]},"properties":{"leaf_cycle":"deciduous","leaf_type":"broadleaved","natural":"tree"}},
{"type":"Feature","geometry":{"type":"Point","coordinates":[3.898911,47.4874774]},"properties":{"leaf_cycle":"deciduous","leaf_type":"broadleaved","natural":"tree"}},
{"type":"Feature","geometry":{"type":"Point","coordinates":[3.8989048,47.4874301]},"properties":{"leaf_cycle":"deciduous","leaf_type":"broadleaved","natural":"tree"}},
{"type":"Feature","geometry":{"type":"Point","coordinates":[3.8988836,47.4874576]},"properties":{"leaf_cycle":"deciduous","leaf_type":"broadleaved","natural":"tree"}},
{"type":"Feature","geometry":{"type":"Point","coordinates":[3.8992569,47.4889627]},"properties":{"leaf_cycle":"deciduous","leaf_type":"broadleaved","natural":"tree"}},
{"type":"Feature","geometry":{"type":"Point","coordinates":[3.8990306,47.4890852]},"properties":{"leaf_cycle":"deciduous","leaf_type":"broadleaved","natural":"tree"}},
{"type":"Feature","geometry":{"type":"Point","coordinates":[3.8988648,47.4892475]},"properties":{"access":"yes","leisure":"pitch","sport":"table_tennis"}},
{"type":"Feature","geometry":{"type":"Point","coordinates":[3.8993059,47.4897112]},"properties":{"leaf_cycle":"deciduous","leaf_type":"broadleaved","natural":"tree"}},
{"type":"Feature","geometry":{"type":"Point","coordinates":[3.8993139,47.4897955]},"properties":{"leaf_cycle":"deciduous","leaf_type":"broadleaved","natural":"tree"}},
{"type":"Feature","geometry":{"type":"Point","coordinates":[3.8993246,47.489897]},"properties":{"leaf_cycle":"deciduous","leaf_type":"broadleaved","natural":"tree"}},
{"type":"Feature","geometry":{"type":"Point","coordinates":[3.8993273,47.4899586]},"properties":{"leaf_cycle":"deciduous","leaf_type":"broadleaved","natural":"tree"}},
{"type":"Feature","geometry":{"type":"Point","coordinates":[3.8993314,47.4899994]},"properties":{"leaf_cycle":"deciduous","leaf_type":"broadleaved","natural":"tree"}},
{"type":"Feature","geometry":{"type":"Point","coordinates":[3.8995386,47.4902744]},"properties":{"leaf_cycle":"deciduous","leaf_type":"broadleaved","natural":"tree"}},
{"type":"Feature","geometry":{"type":"Point","coordinates":[3.899343,47.4900843]},"properties":{"leaf_cycle":"deciduous","leaf_type":"broadleaved","natural":"tree"}},
{"type":"Feature","geometry":{"type":"Point","coordinates":[3.899343,47.4901654]},"properties":{"leaf_cycle":"deciduous","leaf_type":"broadleaved","natural":"tree"}},
{"type":"Feature","geometry":{"type":"Point","coordinates":[3.8992906,47.4901967]},"properties":{"leaf_cycle":"deciduous","leaf_type":"broadleaved","natural":"tree"}},
{"type":"Feature","geometry":{"type":"Point","coordinates":[3.8994603,47.4894238]},"properties":{"leaf_cycle":"deciduous","leaf_type":"broadleaved","natural":"tree"}},
{"type":"Feature","geometry":{"type":"Point","coordinates":[3.8994594,47.4893586]},"properties":{"leaf_cycle":"deciduous","leaf_type":"broadleaved","natural":"tree"}},
{"type":"Feature","geometry":{"type":"Point","coordinates":[3.8994435,47.4891972]},"properties":{"leaf_cycle":"deciduous","leaf_type":"broadleaved","natural":"tree"}},
{"type":"Feature","geometry":{"type":"Point","coordinates":[3.8994409,47.4891326]},"properties":{"leaf_cycle":"deciduous","leaf_type":"broadleaved","natural":"tree"}},
{"type":"Feature","geometry":{"type":"Point","coordinates":[3.8994276,47.488967]},"properties":{"leaf_cycle":"deciduous","leaf_type":"broadleaved","natural":"tree"}},
{"type":"Feature","geometry":{"type":"Point","coordinates":[3.8994541,47.4888809]},"properties":{"leaf_cycle":"deciduous","leaf_type":"broadleaved","natural":"tree"}},
{"type":"Feature","geometry":{"type":"Point","coordinates":[3.8994612,47.4888008]},"properties":{"leaf_cycle":"deciduous","leaf_type":"broadleaved","natural":"tree"}},
{"type":"Feature","geometry":{"type":"Point","coordinates":[3.8995152,47.4887697]},"properties":{"leaf_cycle":"deciduous","leaf_type":"broadleaved","natural":"tree"}},
{"type":"Feature","geometry":{"type":"Point","coordinates":[3.8995603,47.4887691]},"properties":{"leaf_cycle":"deciduous","leaf_type":"broadleaved","natural":"tree"}},
{"type":"Feature","geometry":{"type":"Point","coordinates":[3.8995045,47.4889636]},"properties":{"leaf_cycle":"deciduous","leaf_type":"broadleaved","natural":"tree"}},
{"type":"Feature","geometry":{"type":"Point","coordinates":[3.8998706,47.4903066]},"properties":{"leaf_cycle":"deciduous","leaf_type":"broadleaved","natural":"tree"}},
{"type":"Feature","geometry":{"type":"Point","coordinates":[3.8998398,47.4903111]},"properties":{"bench":"yes","covered":"no","leisure":"picnic_table","lit":"no","material":"wood"}},
{"type":"Feature","geometry":{"type":"Point","coordinates":[3.8994153,47.4910158]},"properties":{"leaf_cycle":"deciduous","leaf_type":"broadleaved","natural":"tree"}},
{"type":"Feature","geometry":{"type":"Point","coordinates":[3.8994281,47.491101]},"properties":{"leaf_cycle":"deciduous","leaf_type":"broadleaved","natural":"tree"}},
{"type":"Feature","geometry":{"type":"Point","coordinates":[3.8998064,47.4910702]},"properties":{"leaf_cycle":"deciduous","leaf_type":"broadleaved","natural":"tree"}},
{"type":"Feature","geometry":{"type":"Point","coordinates":[3.9000025,47.4910552]},"properties":{"leaf_cycle":"deciduous","leaf_type":"broadleaved","natural":"tree"}},
{"type":"Feature","geometry":{"type":"Point","coordinates":[3.9000784,47.4910536]},"properties":{"leaf_cycle":"deciduous","leaf_type":"broadleaved","natural":"tree"}},
{"type":"Feature","geometry":{"type":"Point","coordinates":[3.9001134,47.4909684]},"properties":{"leaf_cycle":"deciduous","leaf_type":"broadleaved","natural":"tree"}},
{"type":"Feature","geometry":{"type":"Point","coordinates":[3.9001088,47.4909085]},"properties":{"leaf_cycle":"deciduous","leaf_type":"broadleaved","natural":"tree"}},
{"type":"Feature","geometry":{"type":"Point","coordinates":[3.9000422,47.490843]},"properties":{"leaf_cycle":"deciduous","leaf_type":"broadleaved","natural":"tree"}},
{"type":"Feature","geometry":{"type":"Point","coordinates":[3.8990079,47.4911183]},"properties":{"leaf_cycle":"deciduous","leaf_type":"broadleaved","natural":"tree"}},