{"type":"FeatureCollection","features":[
{"type":"Feature","geometry":{"type":"Point","coordinates":[-1.4513717,43.0736964]},"properties":{"mountain_pass":"yes","name":"Ahadi Lepo","natural":"saddle"}},
{"type":"Feature","geometry":{"type":"Point","coordinates":[-1.4425707,43.2788712]},"properties":{"ele":"702","name":"Bizkaïluze","natural":"peak","summit:cross":"no"}},
{"type":"Feature","geometry":{"type":"Point","coordinates":[-1.4174193,43.272243]},"properties":{"description":"Borne frontière No 80","historic":"boundary_stone","name":"Mugarrien 80. zenbakia","name:fr":"Borne frontière #80","source":"cadastre-dgi-fr source : Direction Générale des Impôts - Cadastre. Mise à jour : 2010"}},
{"type":"Feature","geometry":{"type":"Point","coordinates":[-1.3324512,43.1209632]},"properties":{"ele":"1060","name":"Arrolako Harria","natural":"peak","wikidata":"Q12254157"}},
{"type":"Feature","geometry":{"type":"Point","coordinates":[-1.4067783,43.155673]},"properties":{"ele":"830.49","mountain_pass":"yes","name":"Elorrietako lepoa","name:fr":"Elhorrietako Lepoa","natural":"saddle"}},
{"type":"Feature","geometry":{"type":"Point","coordinates":[-1.3365085,43.113216]},"properties":{"ele":"1250","name":"Adartza","natural":"peak","wikidata":"Q2824120"}},
{"type":"Feature","geometry":{"type":"Point","coordinates":[-1.3931552,43.0912932]},"properties":{"ele":"832","mountain_pass":"yes","name":"Mizpira lepoa;Mizpira-Lepo","natural":"saddle"}},
{"type":"Feature","geometry":{"type":"Point","coordinates":[-1.335207,43.144693]},"properties":{"ele":"734","mountain_pass":"yes","name":"Col d'Ahartza","name:eu":"Ahartzako lepoa","name:fr":"Col d'Ahartza","natural":"saddle"}},
{"type":"Feature","geometry":{"type":"Point","coordinates":[-1.3156913,43.13287]},"properties":{"ele":"869","name":"Col d'Urdanzia","natural":"saddle"}},
{"type":"Feature","geometry":{"type":"Point","coordinates":[-1.4019846,43.1753226]},"properties":{"historic":"boundary_stone","name":"Mugarrien 91. zenbakia","name:fr":"Borne frontière #91","ref":"91","source":"cadastre-dgi-fr source : Direction Générale des Impôts - Cadastre;mise à jour : 2009","tourism":"attraction","wheelchair":"yes"}},
{"type":"Feature","geometry":{"type":"Point","coordinates":[-1.4219832,43.0982003]},"properties":{"mountain_pass":"yes","name":"Col de Lepeder","natural":"saddle"}},
{"type":"Feature","geometry":{"type":"Point","coordinates":[-1.4038745,43.0912068]},"properties":{"ele":"682","mountain_pass":"yes","name":"Ametz-Lepo","natural":"saddle"}},
{"type":"Feature","geometry":{"type":"Point","coordinates":[-1.3727728,43.0643364]},"properties":{"alt_name":"Teilari","ele":"932","mountain_pass":"yes","name":"Nahala","natural":"saddle"}},
{"type":"Feature","geometry":{"type":"Point","coordinates":[-1.3712076,43.0470457]},"properties":{"ele":"965","mountain_pass":"yes","name":"Col d'Hauzay","name:eu":"Hautzaïko Lepoa","name:fr":"Col d'Hauzay","natural":"saddle"}},
{"type":"Feature","geometry":{"type":"Point","coordinates":[-1.3402407,43.0258629]},"properties":{"ele":"1070","mountain_pass":"yes","name":"Gabarbide","natural":"saddle"}},
{"type":"Feature","geometry":{"type":"Point","coordinates":[-1.3399423,43.0810665]},"properties":{"ele":"1209","name":"Meatze","name:es":"Meatce","natural":"peak"}},
{"type":"Feature","geometry":{"type":"Point","coordinates":[-1.4824296,43.2830214]},"properties":{"historic":"boundary_stone","name":"Mugarrien 74. zenbakia","name:fr":"Borne frontière #74"}},
{"type":"Feature","geometry":{"type":"Point","coordinates":[-1.6306801,43.2850235]},"properties":{"historic":"boundary_stone","name":"Mugarrien 35. zenbakia","name:fr":"Borne frontière #35"}},
{"type":"Feature","geometry":{"type":"Point","coordinates":[-1.6031496,43.2531188]},"properties":{"historic":"boundary_stone","name":"Mugarrien 49. zenbakia","name:fr":"Borne frontière #49"}},
{"type":"Feature","geometry":{"type":"Point","coordinates":[-1.5941386,43.2543007]},"properties":{"historic":"boundary_stone","name":"Mugarrien 51. zenbakia","name:fr":"Borne frontière #51"}},
{"type":"Feature","geometry":{"type":"Point","coordinates":[-1.5895019,43.2533579]},"properties":{"historic":"boundary_stone","name":"Mugarrien 52. zenbakia","name:fr":"Borne frontière #52"}},
{"type":"Feature","geometry":{"type":"Point","coordinates":[-1.5867659,43.2537618]},"properties":{"historic":"boundary_stone","name":"Mugarrien 53. zenbakia","name:fr":"Borne frontière #53"}},
{"type":"Feature","geometry":{"type":"Point","coordinates":[-1.6297838,43.2880652]},"properties":{"historic":"boundary_stone","name":"Mugarrien 34. zenbakia","name:fr":"Borne frontière #34"}},
{"type":"Feature","geometry":{"type":"Point","coordinates":[-1.6281733,43.2915265]},"properties":{"historic":"boundary_stone","name":"Mugarrien 33. zenbakia","name:fr":"Borne frontière #33"}},
{"type":"Feature","geometry":{"type":"Point","coordinates":[-1.6279051,43.293701]},"properties":{"historic":"boundary_stone","name":"Mugarrien 32. zenbakia","name:fr":"Borne frontière #32"}},
{"type":"Feature","geometry":{"type":"Point","coordinates":[-1.6265362,43.2951283]},"properties":{"historic":"boundary_stone","name":"Mugarrien 31. zenbakia","name:fr":"Borne frontière #31"}},
{"type":"Feature","geometry":{"type":"Point","coordinates":[-1.6251828,43.3065757]},"properties":{"historic":"boundary_stone","name":"Mugarrien 27. zenbakia","name:fr":"Mugarrien 27. zenbakia","source":"survey"}},
{"type":"Feature","geometry":{"type":"Point","coordinates":[-1.5815119,43.2536982]},"properties":{"historic":"boundary_stone","name":"Mugarrien 54. zenbakia","name:fr":"Borne frontière #54"}},
{"type":"Feature","geometry":{"type":"Point","coordinates":[-1.5329185,43.2937355]},"properties":{"historic":"boundary_stone","ref":"66"}},
{"type":"Feature","geometry":{"type":"Point","coordinates":[-1.5353209,43.2946667]},"properties":{"historic":"boundary_stone","ref":"65"}},
{"type":"Feature","geometry":{"type":"Point","coordinates":[-1.4917914,43.2808676]},"properties":{"historic":"boundary_stone","name":"Mugarrien 73. zenbakia","name:fr":"Borne frontière #73","source":"cadastre-dgi-fr source : Direction Générale des Impôts - Cadastre;mise à jour : 2010"}},
{"type":"Feature","geometry":{"type":"Point","coordinates":[-1.4461079,43.2690595]},"properties":{"historic":"boundary_stone","name":"Mugarrien 76. zenbakia","name:fr":"Borne frontière #76","source":"cadastre-dgi-fr source : Direction Générale des Impôts - Cadastre;mise à jour : 2010"}},
{"type":"Feature","geometry":{"type":"Point","coordinates":[-1.447361,43.2693584]},"properties":{"historic":"boundary_stone","name":"Mugarrien 75. zenbakia","name:fr":"Borne frontière #75","source":"cadastre-dgi-fr source : Direction Générale des Impôts - Cadastre;mise à jour : 2010"}},
{"type":"Feature","geometry":{"type":"Point","coordinates":[-1.4397652,43.2672502]},"properties":{"historic":"boundary_stone","name":"Mugarrien 77. zenbakia","name:fr":"Borne frontière #77","source":"cadastre-dgi-fr source : Direction Générale des Impôts - Cadastre;mise à jour : 2010"}},
{"type":"Feature","geometry":{"type":"Point","coordinates":[-1.4383467,43.266614]},"properties":{"historic":"boundary_stone","name":"Mugarrien 77. zenbakia","name:fr":"Borne frontière #77","source":"cadastre-dgi-fr source : Direction Générale des Impôts - Cadastre;mise à jour : 2010"}},
{"type":"Feature","geometry":{"type":"Point","coordinates":[-1.427021,43.2671006]},"properties":{"boundary":"marker","format":"squared_stone","format:top":"flat","historic":"boundary_stone","inscription":"78","material":"stone","name":"Hito fronterizo num.78","name:eu":"Mugarrien 78. zenbakia","name:fr":"Borne frontière #78"}},
{"type":"Feature","geometry":{"type":"Point","coordinates":[-1.5762116,43.2499251]},"properties":{"historic":"boundary_stone","name":"Mugarrien 55. zenbakia","name:fr":"Borne frontière #55","source":"cadastre-dgi-fr source : Direction Générale des Impôts - Cadastre;mise à jour : 2010"}},
{"type":"Feature","geometry":{"type":"Point","coordinates":[-1.5758834,43.2501382]},"properties":{"historic":"boundary_stone","name":"Mugarrien 56. zenbakia","name:fr":"Borne frontière #56","source":"cadastre-dgi-fr source : Direction Générale des Impôts - Cadastre;mise à jour : 2010"}},
{"type":"Feature","geometry":{"type":"Point","coordinates":[-1.473212,43.0867237]},"properties":{"description":"Borne frontière No128 : Axe et sommet - Point vu en place en 2004","ele":"997.8","historic":"boundary_stone","inscription":"128","man_made":"survey_point","name":"Mugarrien 128. zenbakia","name:fr":"Borne frontière #128","note":"Ne pas déplacer ce point, cf. - Do not move this node, see - http://wiki.openstreetmap.org/wiki/WikiProject_France/Repères_Géodésiques#Permanence_des_rep.C3.A8res","ref":"64016A - 1","source":"©IGN 2010 dans le cadre de la cartographie réglementaire","url":"http://geodesie.ign.fr/fiches/index.php?module=e&action=fichepdf&source=carte&sit_no=64016A"}},
{"type":"Feature","geometry":{"type":"Point","coordinates":[-1.456763,43.0638218]},"properties":{"description":"Borne frontière No135 : Axe et sommet - Point vu en place en 2004","ele":"885.9","historic":"boundary_stone","inscription":"135","man_made":"survey_point","name":"Mugarrien 135. zenbakia","name:fr":"Borne frontière #135","note":"Ne pas déplacer ce point, cf. - Do not move this node, see - http://wiki.openstreetmap.org/wiki/WikiProject_France/Repères_Géodésiques#Permanence_des_rep.C3.A8res","ref":"64016B - 1","source":"©IGN 2010 dans le cadre de la cartographie réglementaire","url":"http://geodesie.ign.fr/fiches/index.php?module=e&action=fichepdf&source=carte&sit_no=64016B"}},
{"type":"Feature","geometry":{"type":"Point","coordinates":[-1.3598479,43.0294513]},"properties":{"description":"Borne Espagnole en ciment - Point vu en place en 2004","ele":"1220.52","name":"Lindus","natural":"peak","note":"Ne pas déplacer ce point, cf. - Do not move this node, see - http://wiki.openstreetmap.org/wiki/WikiProject_France/Repères_Géodésiques#Permanence_des_rep.C3.A8res","ref":"6409203 - A","source":"©IGN 2010 dans le cadre de la cartographie réglementaire","url":"http://geodesie.ign.fr/fiches/index.php?module=e&action=fichepdf&source=carte&sit_no=6409203"}},
{"type":"Feature","geometry":{"type":"Point","coordinates":[-1.3429733,43.0543571]},"properties":{"alt_name":"Laurigna","description":"Borne en granit gravée IGN et 1949 - Point vu en place en 2004","ele":"1277.91","man_made":"survey_point","name":"Laurinaga","natural":"peak","note":"Ne pas déplacer ce point, cf. - Do not move this node, see - http://wiki.openstreetmap.org/wiki/WikiProject_France/Repères_Géodésiques#Permanence_des_rep.C3.A8res","ref":"6409204 - 1","source":"©IGN 2010 dans le cadre de la cartographie réglementaire","url":"http://geodesie.ign.fr/fiches/index.php?module=e&action=fichepdf&source=carte&sit_no=6409204"}},
{"type":"Feature","geometry":{"type":"Point","coordinates":[-1.4042347,43.1634341]},"properties":{"description":"Borne frontière : Axe et sommet - Point vu en place en 2004","ele":"926.2","man_made":"survey_point","name":"Aldaburu","natural":"peak","note":"Ne pas déplacer ce point, cf. - Do not move this node, see - http://wiki.openstreetmap.org/wiki/WikiProject_France/Repères_Géodésiques#Permanence_des_rep.C3.A8res","ref":"64092B - 1","source":"©IGN 2010 dans le cadre de la cartographie réglementaire","url":"http://geodesie.ign.fr/fiches/index.php?module=e&action=fichepdf&source=carte&sit_no=64092B"}},
{"type":"Feature","geometry":{"type":"Point","coordinates":[-1.4206219,43.2692391]},"properties":{"description":"Borne frontière No79 : Axe et sommet - Point vu en place en 1986","ele":"844.8","man_made":"survey_point","name":"Iguzki","natural":"peak","note":"Ne pas déplacer ce point, cf. - Do not move this node, see - http://wiki.openstreetmap.org/wiki/WikiProject_France/Repères_Géodésiques#Permanence_des_rep.C3.A8res","ref":"64124B - 1","source":"©IGN 2010 dans le cadre de la cartographie réglementaire","url":"http://geodesie.ign.fr/fiches/index.php?module=e&action=fichepdf&source=carte&sit_no=64124B"}},
{"type":"Feature","geometry":{"type":"Point","coordinates":[-1.4206219,43.2692391]},"properties":{"description":"Mugarrien 79. zenbakia Borne frontière #79 : Axe et base - Point vu en place en 1986","ele":"843.7","historic":"boundary_stone","man_made":"survey_point","name":"Iguzki","name:eu":"Mugarrien 79. zenbakia","name:fr":"Borne frontière #79","natural":"peak","note":"Ne pas déplacer ce point, cf. - Do not move this node, see - http://wiki.openstreetmap.org/wiki/WikiProject_France/Repères_Géodésiques#Permanence_des_rep.C3.A8res","ref":"64124B - 2","source":"©IGN 2010 dans le cadre de la cartographie réglementaire","url":"http://geodesie.ign.fr/fiches/index.php?module=e&action=fichepdf&source=carte&sit_no=64124B"}},
{"type":"Feature","geometry":{"type":"Point","coordinates":[-1.4028225,43.2663627]},"properties":{"description":"Mugarrien 84. zenbakia Borne frontière No84 : Axe et sommet - Point vu en place en 1986","ele":"677.4","man_made":"survey_point","mountain_pass":"yes","name":"Ezpatza","natural":"saddle","note":"Ne pas déplacer ce point, cf. - Do not move this node, see - http://wiki.openstreetmap.org/wiki/WikiProject_France/Repères_Géodésiques#Permanence_des_rep.C3.A8res","ref":"64124C - 1","source":"©IGN 2010 dans le cadre de la cartographie réglementaire","url":"http://geodesie.ign.fr/fiches/index.php?module=e&action=fichepdf&source=carte&sit_no=64124C"}},
{"type":"Feature","geometry":{"type":"Point","coordinates":[-1.4028226,43.2663626]},"properties":{"description":"Borne frontière No84 : Axe et base - Point vu en place en 1986","ele":"676.3","man_made":"survey_point","mountain_pass":"yes","name":"Ezpaltzako Lepoa","natural":"saddle","note":"Ne pas déplacer ce point, cf. - Do not move this node, see - http://wiki.openstreetmap.org/wiki/WikiProject_France/Repères_Géodésiques#Permanence_des_rep.C3.A8res","ref":"64124C - 2","source":"©IGN 2010 dans le cadre de la cartographie réglementaire","url":"http://geodesie.ign.fr/fiches/index.php?module=e&action=fichepdf&source=carte&sit_no=64124C"}},
{"type":"Feature","geometry":{"type":"Point","coordinates":[-1.3855754,43.2548514]},"properties":{"description":"Borne frontière No86 : Axe et sommet - Support en mauvais état, point exploitable en 2004","ele":"372.2","man_made":"survey_point","name":"Mugarrien 86. zenbakia","name:fr":"Borne frontière #86","note":"Ne pas déplacer ce point, cf. - Do not move this node, see - http://wiki.openstreetmap.org/wiki/WikiProject_France/Repères_Géodésiques#Permanence_des_rep.C3.A8res","ref":"64124D - 1","source":"©IGN 2010 dans le cadre de la cartographie réglementaire","url":"http://geodesie.ign.fr/fiches/index.php?module=e&action=fichepdf&source=carte&sit_no=64124D"}},
{"type":"Feature","geometry":{"type":"Point","coordinates":[-1.441254,43.0462731]},"properties":{"alt_name":"Izterbegi, Isterbegiko kaskoa","description":"Borne en granit gravée IGN et 1949 - Point vu en place en 2004","ele":"1027.19","man_made":"survey_point","name":"Isterbegi","natural":"peak","note":"Ne pas déplacer ce point, cf. - Do not move this node, see - http://wiki.openstreetmap.org/wiki/WikiProject_France/Repères_Géodésiques#Permanence_des_rep.C3.A8res","ref":"6454301 - 1","source":"©IGN 2010 dans le cadre de la cartographie réglementaire","url":"http://geodesie.ign.fr/fiches/index.php?module=e&action=fichepdf&source=carte&sit_no=6454301","wikidata":"Q12260004"}},
{"type":"Feature","geometry":{"type":"Point","coordinates":[-1.3866445,43.1943265]},"properties":{"alt_name":"Laurdena / Laourdena","alt_name2":"Ubedo","alt_name:es":"Laurdena","alt_name:fr":"Lauordena","ele":"1029","name":"Buztanzelai","name:es":"Buztanzelai","name:eu":"Buztanzelai","name:fr":"Buztanzelhay","natural":"peak","source":"survey"}},
{"type":"Feature","geometry":{"type":"Point","coordinates":[-1.3757032,43.1895171]},"properties":{"ele":"765","mountain_pass":"yes","natural":"saddle","source":"survey"}},
{"type":"Feature","geometry":{"type":"Point","coordinates":[-1.3846543,43.1911943]},"properties":{"hiking":"yes","information":"guidepost","source":"survey","tourism":"information"}},
{"type":"Feature","geometry":{"type":"Point","coordinates":[-1.3710146,43.1881361]},"properties":{"mountain_pass":"yes","name":"Col d'Apaloy","name:eu":"Apaloieko lepoa","name:fr":"Col d'Apaloy","natural":"saddle","source":"survey"}},
{"type":"Feature","geometry":{"type":"Point","coordinates":[-1.3840433,43.1909321]},"properties":{"ele":"846.65","mountain_pass":"yes","name":"Buztanzelaiko lepoa","name:eu":"Buztanzelaiko lepoa","natural":"saddle","source":"survey"}},
{"type":"Feature","geometry":{"type":"Point","coordinates":[-1.3857629,43.1972093]},"properties":{"ele":"831","mountain_pass":"yes","name":"Astateko lepoa","name:eu":"Astateko lepoa","name:fr":"Col d'Astate","natural":"saddle","source":"survey"}},
{"type":"Feature","geometry":{"type":"Point","coordinates":[-1.3857958,43.1972066]},"properties":{"archaeological_site":"megalith","historic":"archaeological_site","image":"File:Pausogaizto_Astate_trikuharria.jpg","megalith_type":"dolmen","name":"Dolmen Pausogaizto Astate","name:eu":"Pausogaizto Astate trikuharria","source":"wiki.txoperena.es","wikidata":"Q66113703"}},
{"type":"Feature","geometry":{"type":"Point","coordinates":[-1.3521348,43.1843165]},"properties":{"natural":"cave_entrance","source":"survey"}},
{"type":"Feature","geometry":{"type":"Point","coordinates":[-1.3828896,43.1995437]},"properties":{"ele":"1022","name":"Astate","natural":"peak","source":"survey"}},
{"type":"Feature","geometry":{"type":"Point","coordinates":[-1.3567219,43.1853821]},"properties":{"natural":"cave_entrance","source":"survey"}},
{"type":"Feature","geometry":{"type":"Point","coordinates":[-1.3381886,43.2663446]},"properties":{"contact:email":"contact@ur-bizia.com","contact:facebook":"https://www.facebook.com/rafting.pays.basque","contact:mobile":"+33 6 07 85 04 38","contact:phone":"+33 5 59 37 72 37","contact:website":"https://www.ur-bizia.com","leisure":"sports_centre","name":"Ur Bizia Rafting","sport":"canoe"}},
{"type":"Feature","geometry":{"type":"Point","coordinates":[-1.6011191,43.2540564]},"properties":{"ele":"477","mountain_pass":"yes","name":"Nabarlatz","natural":"saddle"}},
{"type":"Feature","geometry":{"type":"Point","coordinates":[-1.3635247,43.2546208]},"properties":{"mountain_pass":"yes","name":"Pagalepoa","natural":"saddle"}},
{"type":"Feature","geometry":{"type":"Point","coordinates":[-1.3814154,43.1896866]},"properties":{"alt_name":"Pausugaiztoko kaskoa, Ahintziaga","comment":"former Ahinziaga for A(r)haintze-aga","ele":"905","name":"Aintziaga","natural":"peak","wikidata":"Q2827423"}},
{"type":"Feature","geometry":{"type":"Point","coordinates":[-1.3783429,43.228228]},"properties":{"ele":"1044","historic":"boundary_stone","name":"Iparlako Kaskoa / Pic d'Iparla","name:es":"Pico de Iparla","name:eu":"Iparlako Kaskoa","name:fr":"Pic d'Iparla","natural":"peak"}},
{"type":"Feature","geometry":{"type":"Point","coordinates":[-1.3831187,43.2237381]},"properties":{"ele":"1040","historic":"boundary_stone","name":"Hego Iparla","name:fr":"Iparla Sud","natural":"peak"}},
{"type":"Feature","geometry":{"type":"Point","coordinates":[-1.3836482,43.2029569]},"properties":{"ele":"978.16","mountain_pass":"yes","name":"Atalazko lepoa","natural":"saddle"}},
{"type":"Feature","geometry":{"type":"Point","coordinates":[-1.3839217,43.2184296]},"properties":{"ele":"943.96","mountain_pass":"yes","name":"Gapeluko lepoa","name:fr":"Col de Gapelu","natural":"saddle"}},
{"type":"Feature","geometry":{"type":"Point","coordinates":[-1.3799184,43.226097]},"properties":{"ele":"1045.64","name":"Erdibideko Iparla","name:eu":"Erdibideko Iparla","name:fr":"Iparla intermédiaire","natural":"peak"}},
{"type":"Feature","geometry":{"type":"Point","coordinates":[-1.3683506,43.2470206]},"properties":{"archaeological_site":"megalith","historic":"archaeological_site","megalith_type":"menhir","name":"Monolithe d'Iparla"}},
{"type":"Feature","geometry":{"type":"Point","coordinates":[-1.3780951,43.2320062]},"properties":{"ele":"948","mountain_pass":"yes","name":"Col d'Iparla","name:es":"Paso de Iparla","name:eu":"Iparlako lepoa","name:fr":"Col d'Iparla","natural":"saddle"}},
{"type":"Feature","geometry":{"type":"Point","coordinates":[-1.3736639,43.241688]},"properties":{"historic":"ruins","name":"Ruine Cabane"}},
{"type":"Feature","geometry":{"type":"Point","coordinates":[-1.3841455,43.2197175]},"properties":{"ele":"976","mountain_pass":"yes","natural":"saddle"}},
{"type":"Feature","geometry":{"type":"Point","coordinates":[-1.3547835,43.2606385]},"properties":{"information":"guidepost","name":"GR10","tourism":"information"}},
{"type":"Feature","geometry":{"type":"Point","coordinates":[-1.3749904,43.234947]},"properties":{"ele":"962","name":"Larrateko Egia","name:es":"Larrateko Egia","name:eu":"Larrateko Egia","name:fr":"Larratéko Héguia","natural":"peak"}},
{"type":"Feature","geometry":{"type":"Point","coordinates":[-1.3813879,43.2155389]},"properties":{"alt_name":"Gapeluko Kaskoa","ele":"985.11","name":"Gapeluko Ateka / Tutulia","name:es":"Pico de Tutulia","name:eu":"Gapeluko Ateka","name:fr":"Pic de Toutoulia","natural":"peak"}},
{"type":"Feature","geometry":{"type":"Point","coordinates":[-1.3420287,43.1776465]},"properties":{"historic":"memorial","memorial":"war_memorial","name":"Monument aux Morts"}},
{"type":"Feature","geometry":{"type":"Point","coordinates":[-1.379622,43.2272222]},"properties":{"ele":"1026.15","mountain_pass":"yes","name":"Iparlako lepoa","natural":"saddle"}},
{"type":"Feature","geometry":{"type":"Point","coordinates":[-1.378373,43.231755]},"properties":{"ele":"956","historic":"wayside_cross","name":"Juan batista Zelai Gurutzea","name:eu":"Juan batista Zelai Gurutzea","name:fr":"Croix Jean-Baptiste Celhay"}},
{"type":"Feature","geometry":{"type":"Point","coordinates":[-1.3779248,43.1918912]},"properties":{"ele":"747","name":"Aiguille","natural":"peak"}},
{"type":"Feature","geometry":{"type":"Point","coordinates":[-1.3830151,43.2030912]},"properties":{"alt_name":"Ipar-Astate","ele":"987.92","name":"Atalazko Kaskoa","name:fr":"Astaté Nord","natural":"peak"}},
{"type":"Feature","geometry":{"type":"Point","coordinates":[-1.384305,43.2108233]},"properties":{"ele":"812.54","mountain_pass":"yes","name":"Arrietako lepoa","name:fr":"Col d'Harrieta","natural":"saddle"}},
{"type":"Feature","geometry":{"type":"Point","coordinates":[-1.3676301,43.1906461]},"properties":{"historic":"ruins","name":"Atsuametako borda"}},
{"type":"Feature","geometry":{"type":"Point","coordinates":[-1.3592395,43.2558924]},"properties":{"historic":"ruins","name":"Ruine Cabane"}},
{"type":"Feature","geometry":{"type":"Point","coordinates":[-1.3417811,43.1769463]},"properties":{"information":"guidepost","name":"Sentier Principal","tourism":"information"}},
{"type":"Feature","geometry":{"type":"Point","coordinates":[-1.3350212,43.1440204]},"properties":{"information":"guidepost","name":"Sentier Principal","tourism":"information"}},
{"type":"Feature","geometry":{"type":"Point","coordinates":[-1.3227085,43.1317596]},"properties":{"alt_name":"Urdanziako Ithurria","name":"Urdantzeko Ithurria","natural":"spring","note":"evolution -ako -> -(e)ko"}},
{"type":"Feature","geometry":{"type":"Point","coordinates":[-1.3355735,43.1451463]},"properties":{"information":"guidepost","name":"Jalon Sentier Principal","tourism":"information"}},
{"type":"Feature","geometry":{"type":"Point","coordinates":[-1.3435032,43.1550983]},"properties":{"information":"guidepost","name":"Jalon Sentier Principal","tourism":"information"}},
{"type":"Feature","geometry":{"type":"Point","coordinates":[-1.3369614,43.1629491]},"properties":{"information":"guidepost","name":"Oilandoi - Poko Baigorri","tourism":"information"}},
{"type":"Feature","geometry":{"type":"Point","coordinates":[-1.4723652,43.0832862]},"properties":{"historic":"boundary_stone","inscription":"129","name":"Mugarrien 129. zenbakia","name:fr":"Borne frontière #129"}},
{"type":"Feature","geometry":{"type":"Point","coordinates":[-1.4716218,43.0808714]},"properties":{"ele":"945","historic":"boundary_stone","inscription":"130","name":"Mugarrien 130. zenbakia","name:fr":"Borne frontière #130"}},
{"type":"Feature","geometry":{"type":"Point","coordinates":[-1.3781908,43.2320565]},"properties":{"historic":"boundary_stone","name":"Mugarrien 90. zenbakia","name:fr":"Borne frontière #90","source":"cadastre-dgi-fr source : Direction Générale des Impôts - Cadastre;mise à jour : 2010"}},
{"type":"Feature","geometry":{"type":"Point","coordinates":[-1.3344137,43.1531047]},"properties":{"ele":"933","name":"Oilarandoi","natural":"peak","wikidata":"Q12265034"}},
{"type":"Feature","geometry":{"type":"Point","coordinates":[-1.3301168,43.1351743]},"properties":{"ele":"828","mountain_pass":"yes","name":"Leizartzeko Lepoa","natural":"saddle"}},
{"type":"Feature","geometry":{"type":"Point","coordinates":[-1.3689458,43.2239859]},"properties":{"ele":"604","mountain_pass":"yes","name":"Garartze","natural":"saddle"}},
{"type":"Feature","geometry":{"type":"Point","coordinates":[-1.4121602,43.1446461]},"properties":{"ele":"1077.04","mountain_pass":"yes","name":"Sakanako lepoa","natural":"saddle"}},
{"type":"Feature","geometry":{"type":"Point","coordinates":[-1.4088428,43.136775]},"properties":{"ele":"1024","name":"Ixtauz","natural":"peak","wikidata":"Q3147675"}},
{"type":"Feature","geometry":{"type":"Point","coordinates":[-1.4189985,43.1268443]},"properties":{"ele":"896.16","mountain_pass":"yes","name":"Abarrakuko lepoa","natural":"saddle"}},
{"type":"Feature","geometry":{"type":"Point","coordinates":[-1.426772,43.1215092]},"properties":{"ele":"887.53","mountain_pass":"yes","name":"Pagozelaiko lepoa","name:es":"Puerto de Pago Zelai","name:eu":"Pagozelaiko lepoa","name:fr":"Col de Pago Zelaï","natural":"saddle","note":"Keep bilingual (es+fr) name on this boundary node"}},
{"type":"Feature","geometry":{"type":"Point","coordinates":[-1.4387696,43.1121918]},"properties":{"alt_name":"Berdaritz Lepoa","ele":"688.13","mountain_pass":"yes","name":"Berderizko lepoa","name:es":"Puerto de Berdaritz","name:eu":"Berdaritzeko lepoa","name:fr":"Col de Berdaritz","natural":"saddle","note":"Keep bilingual (es+fr) name on this boundary node","source":"Instituto Geográfico Nacional","source:date":"201011"}},
{"type":"Feature","geometry":{"type":"Point","coordinates":[-1.4556556,43.1003757]},"properties":{"ele":"759","mountain_pass":"yes","name":"Belaungo lepoa","natural":"saddle"}},
{"type":"Feature","geometry":{"type":"Point","coordinates":[-1.450309,43.1043357]},"properties":{"ele":"857.25","name":"Zarkindegi","natural":"peak"}},
{"type":"Feature","geometry":{"type":"Point","coordinates":[-1.4458009,43.2678893]},"properties":{"natural":"spring"}},
{"type":"Feature","geometry":{"type":"Point","coordinates":[-1.4425381,43.2711055]},"properties":{"natural":"spring"}},
{"type":"Feature","geometry":{"type":"Point","coordinates":[-1.4407062,43.2681759]},"properties":{"beds":"14","description":"1/2 pension : 13 € (2015) Avec repas : 16 € (2015)","ele":"558","name":"Esteben Borda","phone":"+33 5 59 29 82 72","ref:refuges.info":"4840","tourism":"guest_house"}},
{"type":"Feature","geometry":{"type":"Point","coordinates":[-1.4467143,43.2684]},"properties":{"mountain_pass":"yes","name":"Muga Lepo","natural":"saddle"}},
{"type":"Feature","geometry":{"type":"Point","coordinates":[-1.6311176,43.3071809]},"properties":{"historic":"boundary_stone","name":"Mugarrien 25. zenbakia","name:en":"Boundary marker #25","name:fr":"Borne frontière #25","ref":"25","source":"survey"}},
{"type":"Feature","geometry":{"type":"Point","coordinates":[-1.6288383,43.3069381]},"properties":{"historic":"boundary_stone","name":"Mugarrien 26. zenbakia","name:fr":"Borne frontière #26","source":"survey"}},
{"type":"Feature","geometry":{"type":"Point","coordinates":[-1.6240223,43.3060004]},"properties":{"historic":"boundary_stone","name":"Mugarrien 28. zenbakia","name:fr":"Mugarrien 28. zenbakia","source":"survey"}},
{"type":"Feature","geometry":{"type":"Point","coordinates":[-1.4202765,43.1513319]},"properties":{"alt_name":"Autza","ele":"1304.50","ign:latitud":"43.1513319018418997","ign:longitud":"-1.4202764656619900","ign:red":"Red Geodesica Nacional Convencional (ROI)","man_made":"survey_point","name":"Hautza","natural":"peak","note":"This is a point from an official geodetic network. Use it as a reference, but do NOT move it.","ref":"9129","source":"Instituto Geográfico Nacional","wikidata":"Q3128667"}},
{"type":"Feature","geometry":{"type":"Point","coordinates":[-1.5715479,43.2681458]},"properties":{"name":"Grottes de Sare","name:eu":"Sarako leizea","name:fr":"Grottes de Sare","natural":"cave_entrance","wikidata":"Q3117280"}},
{"type":"Feature","geometry":{"type":"Point","coordinates":[-1.6191146,43.2606189]},"properties":{"ele":"441","mountain_pass":"yes","name":"Lizarrietako lepoa","name:es":"Puerto de Lizarrieta","name:eu":"Lizarrietako lepoa","name:fr":"Col de Lizarrieta","natural":"saddle","wikidata":"Q2982075","wikipedia":"eu:Lizarrieta"}},
{"type":"Feature","geometry":{"type":"Point","coordinates":[-1.583173,43.2612836]},"properties":{"ele":"506","name":"Saiberri","natural":"peak"}},
{"type":"Feature","geometry":{"type":"Point","coordinates":[-1.610163,43.2786312]},"properties":{"archaeological_site":"megalith","historic":"archaeological_site","megalith_type":"dolmen","name":"Dolmen Ibantelli Ekialde"}},
{"type":"Feature","geometry":{"type":"Point","coordinates":[-1.6112573,43.2679762]},"properties":{"archaeological_site":"megalith","historic":"archaeological_site","megalith_type":"dolmen","name":"Dolmen Xarita"}},
{"type":"Feature","geometry":{"type":"Point","coordinates":[-1.5891194,43.2639114]},"properties":{"alt_name":"Larria","archaeological_site":"megalith","historic":"archaeological_site","megalith_type":"dolmen","name":"Dolmen Larrea"}},
{"type":"Feature","geometry":{"type":"Point","coordinates":[-1.5796082,43.2649856]},"properties":{"alt_name":"Lapitzeta","archaeological_site":"megalith","historic":"archaeological_site","megalith_type":"dolmen","name":"Dolmen Atermin"}},
{"type":"Feature","geometry":{"type":"Point","coordinates":[-1.5772615,43.2649347]},"properties":{"archaeological_site":"megalith","historic":"archaeological_site","megalith_type":"dolmen","name":"Dolmen Lapitzeta"}},
{"type":"Feature","geometry":{"type":"Point","coordinates":[-1.5922231,43.2613709]},"properties":{"archaeological_site":"megalith","fixme":"lattitude erronée ?","historic":"archaeological_site","megalith_type":"dolmen","name":"Dolmen Tombako trikuharria","source":"http://www.t4t35.fr/Megalithes/AfficheSite.aspx?NumSite=30453"}},
{"type":"Feature","geometry":{"type":"Point","coordinates":[-1.3211555,43.1152132]},"properties":{"mountain_pass":"yes","name":"Madariko Lepoa","natural":"saddle"}},
{"type":"Feature","geometry":{"type":"Point","coordinates":[-1.4518526,43.1019995]},"properties":{"historic":"boundary_stone","name":"Mugarrien 122. zenbakia","name:fr":"Borne frontière #122","source":"cadastre-dgi-fr source : Direction Générale des Impôts - Cadastre;mise à jour : 2010"}},
{"type":"Feature","geometry":{"type":"Point","coordinates":[-1.3892347,43.2650069]},"properties":{"alt_name":"Harpe Saindua","name":"Harpeko Saindua","natural":"cave_entrance","wikidata":"Q3127688","wikipedia":"eu:Harpeko Saindua"}},
{"type":"Feature","geometry":{"type":"Point","coordinates":[-1.4165014,43.2729208]},"properties":{"archaeological_site":"megalith","historic":"archaeological_site","megalith_type":"dolmen","name":"Dolmen Mehatseko Lepoa","name:eu":"Mehatseko Lepoa trikuharria"}},
{"type":"Feature","geometry":{"type":"Point","coordinates":[-1.416674,43.2728631]},"properties":{"alt_name":"Mehatxe, Mehatze","ele":"716","mountain_pass":"yes","name":"Mehatzeko lepoa","natural":"saddle"}},
{"type":"Feature","geometry":{"type":"Point","coordinates":[-1.4163275,43.272974]},"properties":{"addr:city":"Itxassou","archaeological_site":"megalith","historic":"archaeological_site","megalith_type":"stone_circle","name":"Mehatseko Lepoa"}},
{"type":"Feature","geometry":{"type":"Point","coordinates":[-1.4165294,43.2728983]},"properties":{"addr:city":"Itxassou","archaeological_site":"megalith","historic":"archaeological_site","megalith_type":"menhir","name":"Mehatseko Lepoa"}},
{"type":"Feature","geometry":{"type":"Point","coordinates":[-1.3675404,43.1860362]},"properties":{"ele":"730","name":"Arrokamendi","natural":"peak"}},
{"type":"Feature","geometry":{"type":"Point","coordinates":[-1.3952951,43.0956444]},"properties":{"ele":"901","name":"Otsamuino","natural":"peak","wikidata":"Q12265371"}},
{"type":"Feature","geometry":{"type":"Point","coordinates":[-1.4120551,43.0695228]},"properties":{"ele":"558","name":"Munhoa","natural":"peak"}},
{"type":"Feature","geometry":{"type":"Point","coordinates":[-1.418074,43.078097]},"properties":{"ele":"575","name":"Zohuta","natural":"peak"}},
{"type":"Feature","geometry":{"type":"Point","coordinates":[-1.3874608,43.0781422]},"properties":{"ele":"738","mountain_pass":"yes","name":"Meharroztegi","natural":"saddle"}},
{"type":"Feature","geometry":{"type":"Point","coordinates":[-1.3689461,43.033694]},"properties":{"ele":"1152","name":"Urtaraï","natural":"peak","wikidata":"Q12268733"}},
{"type":"Feature","geometry":{"type":"Point","coordinates":[-1.3738706,43.0591052]},"properties":{"ele":"981","name":"Zelaihandi","natural":"peak"}},
{"type":"Feature","geometry":{"type":"Point","coordinates":[-1.3921311,43.0662712]},"properties":{"ele":"682","name":"Madariko Kaskoa","natural":"peak"}},
{"type":"Feature","geometry":{"type":"Point","coordinates":[-1.332359,43.1078224]},"properties":{"alt_name":"Mendimotcha","ele":"1224","name":"Mendimotza","natural":"peak","wikidata":"Q12263414"}},
{"type":"Feature","geometry":{"type":"Point","coordinates":[-1.3406413,43.0976329]},"properties":{"alt_name":"Ehunzaroy","ele":"971","mountain_pass":"yes","name":"Ehunsaroï","natural":"saddle"}},
{"type":"Feature","geometry":{"type":"Point","coordinates":[-1.3445595,43.0867475]},"properties":{"alt_name":"Argaray","ele":"1228","name":"Argarai","natural":"peak"}},
{"type":"Feature","geometry":{"type":"Point","coordinates":[-1.3416515,43.0770896]},"properties":{"ele":"1209","name":"Izoztegi","natural":"peak"}},
{"type":"Feature","geometry":{"type":"Point","coordinates":[-1.3496656,43.1227016]},"properties":{"alt_name":"Minchondo","ele":"845","name":"Mintzondo","natural":"peak"}},
{"type":"Feature","geometry":{"type":"Point","coordinates":[-1.3308365,43.1291852]},"properties":{"ele":"996","name":"Urdiako Harria","natural":"peak","wikidata":"Q12268631"}},
{"type":"Feature","geometry":{"type":"Point","coordinates":[-1.3301177,43.1267817]},"properties":{"ele":"925","mountain_pass":"yes","name":"Urdiako Lepoa","natural":"saddle"}},
{"type":"Feature","geometry":{"type":"Point","coordinates":[-1.3653101,43.030783]},"properties":{"alt_name":"Burdinkurutzeta","ele":"1092","mountain_pass":"yes","name":"Burdinkurutxeta Lepoa","name:eu":"Burdinkurutxetako lepoa","name:fr":"Col de Burdincurutcheta","natural":"saddle"}},
{"type":"Feature","geometry":{"type":"Point","coordinates":[-1.35266,43.0264636]},"properties":{"ele":"1213","name":"Trona","natural":"peak"}},
{"type":"Feature","geometry":{"type":"Point","coordinates":[-1.4181619,43.0346244]},"properties":{"mountain_pass":"yes","name":"Sorogain Lepoa","natural":"saddle"}},
{"type":"Feature","geometry":{"type":"Point","coordinates":[-1.4289629,43.0500745]},"properties":{"alt_name":"Patarramunho","ele":"881","name":"Patarra muino","natural":"peak"}},
{"type":"Feature","geometry":{"type":"Point","coordinates":[-1.4445524,43.0657797]},"properties":{"alt_name":"Gartzela","mountain_pass":"yes","name":"Gartzelaï","natural":"saddle"}},
{"type":"Feature","geometry":{"type":"Point","coordinates":[-1.4353244,43.0660847]},"properties":{"ele":"610","mountain_pass":"yes","name":"Paradar","natural":"saddle"}},
{"type":"Feature","geometry":{"type":"Point","coordinates":[-1.4323063,43.0482298]},"properties":{"ele":"848","mountain_pass":"yes","name":"Korrotako lepoa","natural":"saddle"}},
{"type":"Feature","geometry":{"type":"Point","coordinates":[-1.4465689,43.1208379]},"properties":{"alt_name":"Mizpira","ele":"749","name":"Mizpirako Kaskoa","natural":"peak"}},
{"type":"Feature","geometry":{"type":"Point","coordinates":[-1.4104673,43.1379696]},"properties":{"ele":"1003","mountain_pass":"yes","name":"Ixtauzko Lepoa","natural":"saddle"}},
{"type":"Feature","geometry":{"type":"Point","coordinates":[-1.4039969,43.1606778]},"properties":{"ele":"814","mountain_pass":"yes","name":"Nekaitzeko Lepoa","natural":"saddle"}},
{"type":"Feature","geometry":{"type":"Point","coordinates":[-1.3960216,43.1564738]},"properties":{"alt_name":"Elorriko Kaskoa","ele":"981","name":"Elhorriko Kaskoa","natural":"peak"}},
{"type":"Feature","geometry":{"type":"Point","coordinates":[-1.4030856,43.170678]},"properties":{"ele":"853","name":"Usatxarreta","natural":"peak"}},
{"type":"Feature","geometry":{"type":"Point","coordinates":[-1.3902856,43.1864306]},"properties":{"ele":"838.86","name":"Ttutturruko Kaskoa","natural":"peak"}},
{"type":"Feature","geometry":{"type":"Point","coordinates":[-1.3790525,43.1985125]},"properties":{"mountain_pass":"yes","name":"Sahastegiko Lepoa","natural":"saddle"}},
{"type":"Feature","geometry":{"type":"Point","coordinates":[-1.3690093,43.2065646]},"properties":{"ele":"634","name":"Armatarreko Kaskoa","natural":"peak"}},
{"type":"Feature","geometry":{"type":"Point","coordinates":[-1.3704694,43.1994115]},"properties":{"ele":"722","natural":"peak"}},
{"type":"Feature","geometry":{"type":"Point","coordinates":[-1.3515876,43.1863341]},"properties":{"name":"Irubeko Ithurria","natural":"spring"}},
{"type":"Feature","geometry":{"type":"Point","coordinates":[-1.3799415,43.1440694]},"properties":{"alt_name":"Koskoroï","ele":"705","name":"Koskorregi","natural":"peak"}},
{"type":"Feature","geometry":{"type":"Point","coordinates":[-1.3814746,43.141061]},"properties":{"ele":"684","name":"Gathuli","natural":"peak"}},
{"type":"Feature","geometry":{"type":"Point","coordinates":[-1.3898774,43.1381197]},"properties":{"name":"Gathuliko Ithurria","natural":"spring"}},
{"type":"Feature","geometry":{"type":"Point","coordinates":[-1.3931819,43.0999352]},"properties":{"ele":"792","mountain_pass":"yes","name":"Otsaxar Lepoa","natural":"saddle"}},
{"type":"Feature","geometry":{"type":"Point","coordinates":[-1.3487342,43.0392172]},"properties":{"ele":"1230","name":"Atxistoi","natural":"peak","wikidata":"Q12254450"}},
{"type":"Feature","geometry":{"type":"Point","coordinates":[-1.3716787,43.2152135]},"properties":{"ele":"629","mountain_pass":"yes","name":"Col de Larrarte","natural":"saddle"}},
{"type":"Feature","geometry":{"type":"Point","coordinates":[-1.4460967,43.2690747]},"properties":{"archaeological_site":"megalith","historic":"archaeological_site","megalith_type":"menhir","name":"Menhir Gorospil","name:eu":"Gorospil zutarria","panoramax":"39f5-43f0-b2ec-1a13c039df54;4f10-89c0-0f9ad0ccb387","source":"wiki.txoperena.es","wikidata":"Q66113808"}},
{"type":"Feature","geometry":{"type":"Point","coordinates":[-1.3879066,43.1869178]},"properties":{"alt_name":"Aintziaga","ele":"776","mountain_pass":"yes","name":"Aintziagako lepoa","name:es":"Alto de Aintziaga","name:eu":"Ahaintzeagako Lepoa","natural":"saddle","place":"locality","source":"Instituto Geográfico Nacional","source:date":"201011"}},
{"type":"Feature","geometry":{"type":"Point","coordinates":[-1.4025638,43.2645311]},"properties":{"ele":"712","name":"Bagamendi","natural":"peak","source":"Instituto Geográfico Nacional","source:date":"201011","wikidata":"Q109331760","wikipedia":"eu:Bagamendi"}},
{"type":"Feature","geometry":{"type":"Point","coordinates":[-1.4699592,43.0933202]},"properties":{"alt_name":"Hargibel","ele":"984.76","name":"Argibel","natural":"peak"}},
{"type":"Feature","geometry":{"type":"Point","coordinates":[-1.4647724,43.0967808]},"properties":{"alt_name":"Eihartzako Lephoa","ele":"849.78","mountain_pass":"yes","name":"Eñartzeko lepoa","natural":"saddle"}},
{"type":"Feature","geometry":{"type":"Point","coordinates":[-1.4516049,43.1036656]},"properties":{"alt_name":"Losteguyco Cascoa;Lostegiko Kaskoa","ele":"856.55","name":"Laztegi","natural":"peak","source":"cadastre-dgi-fr source : Direction Générale des Impôts - Cadastre;mise à jour : 2010"}},
{"type":"Feature","geometry":{"type":"Point","coordinates":[-1.3653074,43.0194655]},"properties":{"information":"guidepost","tourism":"information"}},
{"type":"Feature","geometry":{"type":"Point","coordinates":[-1.3333237,43.2251367]},"properties":{"mountain_pass":"yes","natural":"saddle"}},
{"type":"Feature","geometry":{"type":"Point","coordinates":[-1.4281566,43.0991021]},"properties":{"name":"Heguienia","note":"can't rememeber which house","phone":"+33 5 59 37 5768","tourism":"guest_house"}},
{"type":"Feature","geometry":{"type":"Point","coordinates":[-1.438917,43.1121912]},"properties":{"historic":"boundary_stone","image":"https://commons.wikimedia.org/wiki/File:Moj%C3%B3n_fronterizo_Navarra_117.jpg","name":"Mugarrien 117. zenbakia","name:fr":"Borne frontière #117","ref":"117","source":"survey"}},
{"type":"Feature","geometry":{"type":"Point","coordinates":[-1.3598921,43.0295931]},"properties":{"historic":"boundary_stone","inscription":"153","name":"Mugarrien 153. zenbakia","name:fr":"Borne frontière #153","ref":"153","source":"visual survey;estimate"}},
{"type":"Feature","geometry":{"type":"Point","coordinates":[-1.365342,43.0306592]},"properties":{"historic":"boundary_stone","inscription":"152","name":"Mugarrien 152. zenbakia","name:fr":"Borne frontière #152","ref":"154","source":"survey"}},
{"type":"Feature","geometry":{"type":"Point","coordinates":[-1.5761787,43.2491229]},"properties":{"alt_name":"Otxobi","mountain_pass":"yes","name":"Otsobi","natural":"saddle"}},
{"type":"Feature","geometry":{"type":"Point","coordinates":[-1.5752064,43.2499122]},"properties":{"ele":"521","mountain_pass":"yes","name":"Col des Trois Bornes","natural":"saddle"}},
{"type":"Feature","geometry":{"type":"Point","coordinates":[-1.4331582,43.2673219]},"properties":{"ele":"540","mountain_pass":"yes","name:eu":"Eguzkimendiko lepoa","name:fr":"Col des Veaux","natural":"saddle"}},
{"type":"Feature","geometry":{"type":"Point","coordinates":[-1.3842213,43.2108192]},"properties":{"information":"guidepost","tourism":"information"}},
{"type":"Feature","geometry":{"type":"Point","coordinates":[-1.6159549,43.2564365]},"properties":{"colour":"brown","ele":"472","hiking":"yes","information":"guidepost","material":"wood","name":"Xorilepo","ref":"GR 11.3;GRT 4;SL-NA 2","tourism":"information"}},
{"type":"Feature","geometry":{"type":"Point","coordinates":[-1.6187601,43.2604327]},"properties":{"hiking":"yes","information":"map","map_size":"site","map_type":"topo","name":"Chemin des Palombières","name:es":"Sendero de las palomas","name:eu":"Usotegietako ibilbidea","name:fr":"Chemin des Palombières","tourism":"information"}},
{"type":"Feature","geometry":{"type":"Point","coordinates":[-1.6185844,43.2604584]},"properties":{"colour":"brown","ele":"442","hiking":"yes","information":"guidepost","material":"wood","name":"Lizarrieta","ref":"GR 11;SL-NA 2","tourism":"information"}},
{"type":"Feature","geometry":{"type":"Point","coordinates":[-1.402076,43.1756404]},"properties":{"historic":"boundary_stone","name":"Mugarrien 91. zenbakia","name:fr":"Borne frontière #91"}},
{"type":"Feature","geometry":{"type":"Point","coordinates":[-1.4211222,43.0910134]},"properties":{"name":"Vue sur la Vallée des Aldudes","tourism":"viewpoint","wikidata":"Q3554046"}},
{"type":"Feature","geometry":{"type":"Point","coordinates":[-1.3336984,43.2227201]},"properties":{"archaeological_site":"fortification","ele":"579","fortification_type":"hill_fort","historic":"archaeological_site","name":"Larrango"}},
{"type":"Feature","geometry":{"type":"Point","coordinates":[-1.3342748,43.2192274]},"properties":{"archaeological_site":"fortification","ele":"566","fortification_type":"hill_fort","historic":"archaeological_site","name":"Azkona"}},
{"type":"Feature","geometry":{"type":"Point","coordinates":[-1.4131516,43.2734899]},"properties":{"archaeological_site":"megalith","historic":"archaeological_site","megalith_type":"stone_circle","name":"Cromlechs Mehatzeko Bizkarra 1-5","name:eu":"Mehatzeko Bizkarra 1-5 harrespilak","source":"wiki.txoperena.es"}},
{"type":"Feature","geometry":{"type":"Point","coordinates":[-1.4040808,43.2773233]},"properties":{"archaeological_site":"megalith","historic":"archaeological_site","megalith_type":"stone_circle","name":"Cromlech tumulaire de Zelai"}},
{"type":"Feature","geometry":{"type":"Point","coordinates":[-1.3995416,43.0636081]},"properties":{"ele":"557","name":"Curutche Lepoa","name:eu":"Kurutzelepoa","natural":"saddle"}},
{"type":"Feature","geometry":{"type":"Point","coordinates":[-1.4690739,43.093604]},"properties":{"alt_name":"Harri Kulunka","alt_name_1":"Arrikulunka","name":"Harrikulunka","tourism":"attraction"}},
{"type":"Feature","geometry":{"type":"Point","coordinates":[-1.3442202,43.2065606]},"properties":{"historic":"wayside_cross"}},
{"type":"Feature","geometry":{"type":"Point","coordinates":[-1.6097233,43.249678]},"properties":{"colour":"brown","ele":"432","hiking":"yes","information":"guidepost","material":"wood","name":"Lakaingo lepo","ref":"GR 11;GR 12;E.GR 11-GR 12;PR-NA 15;SL-NA 2","tourism":"information"}},
{"type":"Feature","geometry":{"type":"Point","coordinates":[-1.6005143,43.2530456]},"properties":{"colour":"brown","hiking":"yes","information":"guidepost","material":"wood","name":"Mugarrimakesbidea","ref":"GRT 4.1;PR-NA 15;SL-NA 2","tourism":"information"}},
{"type":"Feature","geometry":{"type":"Point","coordinates":[-1.3323107,43.2674955]},"properties":{"hiking":"yes","information":"guidepost","tourism":"information"}},
{"type":"Feature","geometry":{"type":"Point","coordinates":[-1.411848,43.2742683]},"properties":{"addr:city":"Itxassou","archaeological_site":"megalith","historic":"archaeological_site","megalith_type":"menhir","name":"Mehatseko Bizkarra B","source":"http://www.t4t35.fr/Megalithes/AfficheSite.aspx?NumSite=32423"}},
{"type":"Feature","geometry":{"type":"Point","coordinates":[-1.4125069,43.2733111]},"properties":{"addr:city":"Bidarray","archaeological_site":"megalith","historic":"archaeological_site","megalith_type":"menhir","name":"Mehatseko Bizkarra"}},
{"type":"Feature","geometry":{"type":"Point","coordinates":[-1.4058176,43.2778258]},"properties":{"archaeological_site":"megalith","historic":"archaeological_site","megalith_type":"menhir","name":"Mendittipiko Bizkarra"}},
{"type":"Feature","geometry":{"type":"Point","coordinates":[-1.405737,43.2783062]},"properties":{"archaeological_site":"megalith","historic":"archaeological_site","megalith_type":"stone_circle","name":"Mendittipiko Bizkarra","wikidata":"Q22920653"}},
{"type":"Feature","geometry":{"type":"Point","coordinates":[-1.347403,43.0450127]},"properties":{"ele":"1213","name":"Txapelarri","natural":"peak"}},
{"type":"Feature","geometry":{"type":"Point","coordinates":[-1.342739,43.0540811]},"properties":{"ele":"1279","name":"Lauriñaga","natural":"peak"}},
{"type":"Feature","geometry":{"type":"Point","coordinates":[-1.3343852,43.1020171]},"properties":{"ele":"1134","name":"Belabieta","natural":"peak"}},
{"type":"Feature","geometry":{"type":"Point","coordinates":[-1.4717611,43.0812665]},"properties":{"alt_name":"Arluxe","ele":"949.65","name":"Harluxe","natural":"peak"}},
{"type":"Feature","geometry":{"type":"Point","coordinates":[-1.3538902,43.0283035]},"properties":{"historic":"boundary_stone","name":"Mugarrien 155. zenbakia","name:fr":"Borne frontière #155"}},
{"type":"Feature","geometry":{"type":"Point","coordinates":[-1.4010553,43.0380886]},"properties":{"archaeological_site":"megalith","historic":"archaeological_site","megalith_type":"dolmen","name":"Dolmen Beardegi","name:eu":"Beardegi trikuharria"}},
{"type":"Feature","geometry":{"type":"Point","coordinates":[-1.4378448,43.0458906]},"properties":{"archaeological_site":"megalith","historic":"archaeological_site","megalith_type":"stone_circle","name":"Cromlech Isterbegi","name:eu":"Isterbegi harrespila","source":"wiki.txoperena.es"}},
{"type":"Feature","geometry":{"type":"Point","coordinates":[-1.3200947,43.1093108]},"properties":{"archaeological_site":"megalith","historic":"archaeological_site","megalith_type":"stone_circle","name":"Cromlech Leerza 1","name:eu":"Leerza 1 harrespila","source":"wiki.txoperena.es","wikidata":"Q66121885"}},
{"type":"Feature","geometry":{"type":"Point","coordinates":[-1.3199402,43.1092551]},"properties":{"archaeological_site":"megalith","historic":"archaeological_site","megalith_type":"stone_circle","name":"Cromlech Leerza 2","name:eu":"Leerza 2 harrespila","source":"wiki.txoperena.es","wikidata":"Q66121886"}},
{"type":"Feature","geometry":{"type":"Point","coordinates":[-1.319952,43.109385]},"properties":{"archaeological_site":"megalith","historic":"archaeological_site","megalith_type":"stone_circle","name":"Cromlech Leerza 3","name:eu":"Leerza 3 harrespila","source":"wiki.txoperena.es","wikidata":"Q66121887"}},
{"type":"Feature","geometry":{"type":"Point","coordinates":[-1.3426632,43.0835831]},"properties":{"archaeological_site":"megalith","historic":"archaeological_site","megalith_type":"stone_circle","name":"Cromlech Mehatze I.","name:eu":"Mehatze I. harrespila","source":"wiki.txoperena.es"}},
{"type":"Feature","geometry":{"type":"Point","coordinates":[-1.3438606,43.0644832]},"properties":{"archaeological_site":"megalith","historic":"archaeological_site","megalith_type":"stone_circle","name":"Cromlech Turaorko Bizkarra 1","name:eu":"Turaorko Bizkarra 1 harrespila","source":"wiki.txoperena.es"}},
{"type":"Feature","geometry":{"type":"Point","coordinates":[-1.3439285,43.064377]},"properties":{"archaeological_site":"megalith","historic":"archaeological_site","megalith_type":"stone_circle","name":"Cromlech Turaorko Bizkarra 2","name:eu":"Turaorko Bizkarra 2 harrespila","source":"wiki.txoperena.es"}},
{"type":"Feature","geometry":{"type":"Point","coordinates":[-1.3439916,43.0642911]},"properties":{"archaeological_site":"megalith","historic":"archaeological_site","megalith_type":"stone_circle","name":"Cromlech Turaorko Bizkarra 3","name:eu":"Turaorko Bizkarra 3 harrespila","source":"wiki.txoperena.es"}},
{"type":"Feature","geometry":{"type":"Point","coordinates":[-1.3439374,43.0642083]},"properties":{"archaeological_site":"megalith","historic":"archaeological_site","megalith_type":"stone_circle","name":"Cromlech Turaorko Bizkarra 4","name:eu":"Turaorko Bizkarra 4 harrespila","source":"wiki.txoperena.es"}},
{"type":"Feature","geometry":{"type":"Point","coordinates":[-1.3436647,43.065183]},"properties":{"archaeological_site":"megalith","historic":"archaeological_site","megalith_type":"stone_circle","name":"Cromlech Turaorko Bizkarra 5","name:eu":"Turaorko Bizkarra 5 harrespila","source":"wiki.txoperena.es"}},
{"type":"Feature","geometry":{"type":"Point","coordinates":[-1.3439279,43.0622766]},"properties":{"archaeological_site":"megalith","historic":"archaeological_site","megalith_type":"stone_circle","name":"Cromlech tumular Lauriñaga I. 1","name:eu":"Lauriñaga I. 1 tumuludun harrespila","source":"wiki.txoperena.es"}},
{"type":"Feature","geometry":{"type":"Point","coordinates":[-1.3441464,43.0616296]},"properties":{"archaeological_site":"megalith","historic":"archaeological_site","megalith_type":"stone_circle","name":"Cromlech tumular Lauriñaga I. 2","name:eu":"Lauriñaga I. 2 tumuludun harrespila","source":"wiki.txoperena.es"}},
{"type":"Feature","geometry":{"type":"Point","coordinates":[-1.3442684,43.0614087]},"properties":{"archaeological_site":"megalith","historic":"archaeological_site","megalith_type":"stone_circle","name":"Cromlech tumular Lauriñaga I. 3","name:eu":"Lauriñaga I. 3 tumuludun harrespila","source":"wiki.txoperena.es"}},
{"type":"Feature","geometry":{"type":"Point","coordinates":[-1.3415463,43.0796813]},"properties":{"archaeological_site":"megalith","historic":"archaeological_site","megalith_type":"stone_circle","name":"Cromlech tumular Mehatze 2","name:eu":"Mehatze 2 tumuludun harrespila","source":"wiki.txoperena.es"}},
{"type":"Feature","geometry":{"type":"Point","coordinates":[-1.3414002,43.079864]},"properties":{"archaeological_site":"megalith","historic":"archaeological_site","megalith_type":"stone_circle","name":"Cromlech tumular Mehatze 3","name:eu":"Mehatze 3 tumuludun harrespila","source":"wiki.txoperena.es"}},
{"type":"Feature","geometry":{"type":"Point","coordinates":[-1.3414401,43.0801205]},"properties":{"archaeological_site":"megalith","historic":"archaeological_site","megalith_type":"stone_circle","name":"Cromlech tumular Mehatze 5","name:eu":"Mehatze 5 tumuludun harrespila","source":"wiki.txoperena.es"}},
{"type":"Feature","geometry":{"type":"Point","coordinates":[-1.3221884,43.1098974]},"properties":{"archaeological_site":"hut_circle","historic":"archaeological_site","name":"Fondos cabaña Leerza 1-8","name:eu":"Leerza 1-8 etxola hondoa"}},
{"type":"Feature","geometry":{"type":"Point","coordinates":[-1.3483642,43.0425106]},"properties":{"archaeological_site":"tumulus","historic":"archaeological_site","name":"Tumulus Axixtoi I","name:es":"Túmulo Axixtoi I","name:eu":"Axixtoi I tumulua","name:fr":"Tumulus Axixtoi I"}},
{"type":"Feature","geometry":{"type":"Point","coordinates":[-1.3443697,43.0611961]},"properties":{"archaeological_site":"tumulus","historic":"archaeological_site","name":"Túmulo Lauriñaga I. 4","name:eu":"Lauriñaga I. 4 tumulua"}},
{"type":"Feature","geometry":{"type":"Point","coordinates":[-1.317899,43.108906]},"properties":{"archaeological_site":"tumulus","historic":"archaeological_site","name":"Túmulo Leerza E. 4","name:eu":"Leerza E. 4 tumulua"}},
{"type":"Feature","geometry":{"type":"Point","coordinates":[-1.3411633,43.0799231]},"properties":{"archaeological_site":"tumulus","historic":"archaeological_site","name":"Tumulus Mehatze 4","name:es":"Túmulo Mehatze 4","name:eu":"Mehatze 4 tumulua","name:fr":"Tumulus Mehatze 4"}},
{"type":"Feature","geometry":{"type":"Point","coordinates":[-1.3422064,43.0783535]},"properties":{"archaeological_site":"tumulus","historic":"archaeological_site","name":"Tumulus Mehatze 6","name:es":"Túmulo Mehatze 6","name:eu":"Mehatze 6 tumulua","name:fr":"Tumulus Mehatze 6"}},
{"type":"Feature","geometry":{"type":"Point","coordinates":[-1.3439686,43.0692328]},"properties":{"archaeological_site":"tumulus","historic":"archaeological_site","name":"Túmulo Turaor I. 1","name:es":"Túmulo Turaor I. 1","name:eu":"Turaor I. 1 tumulua","name:fr":"Tumulus Turaor I. 1"}},
{"type":"Feature","geometry":{"type":"Point","coordinates":[-1.3439227,43.0689946]},"properties":{"archaeological_site":"tumulus","historic":"archaeological_site","name":"Tumulus Turaor I. 2","name:es":"Túmulo Turaor I. 2","name:eu":"Turaor I. 2 tumulua","name:fr":"Tumulus Turaor I. 2"}},
{"type":"Feature","geometry":{"type":"Point","coordinates":[-1.345025,43.268301]},"properties":{"addr:city":"Bidarray","addr:postcode":"64780","name":"Noblia","phone":"+33 5 59 37 70 89","tourism":"hotel","website":"https://www.hotel-basque-noblia.com/"}},
{"type":"Feature","geometry":{"type":"Point","coordinates":[-1.4392328,43.1120187]},"properties":{"archaeological_site":"megalith","historic":"archaeological_site","image":"File:Berdaritz_trikuharria_2.jpg","megalith_type":"dolmen","name":"Dolmen Berdaritz","name:eu":"Berdaritz trikuharria","source":"wiki.txoperena.es"}},
{"type":"Feature","geometry":{"type":"Point","coordinates":[-1.4286056,43.2657284]},"properties":{"archaeological_site":"megalith","historic":"archaeological_site","megalith_type":"dolmen","name":"Dolmen Iguzki Mendebalde","name:eu":"Iguzki Mendebalde trikuharria","source":"wiki.txoperena.es","wikidata":"Q66113704"}},
{"type":"Feature","geometry":{"type":"Point","coordinates":[-1.4350503,43.114877]},"properties":{"archaeological_site":"megalith","historic":"archaeological_site","image":"File:Jeneralen_tonba_trikuharria.jpg","megalith_type":"dolmen","name":"Dolmen Jeneralen Tonba","name:eu":"Jeneralen Tonba trikuharria","source":"wiki.txoperena.es"}},
{"type":"Feature","geometry":{"type":"Point","coordinates":[-1.4307096,43.1229545]},"properties":{"archaeological_site":"megalith","historic":"archaeological_site","image":"File:Munautz_trikuharria.jpg","megalith_type":"dolmen","name":"Dolmen Munautz","name:eu":"Munautz trikuharria","source":"wiki.txoperena.es","wikidata":"Q66114767"}},
{"type":"Feature","geometry":{"type":"Point","coordinates":[-1.4493941,43.1138047]},"properties":{"archaeological_site":"megalith","historic":"archaeological_site","megalith_type":"dolmen","name":"Dolmen Sustera 1","name:eu":"Sustera 1 trikuharria","source":"wiki.txoperena.es"}},
{"type":"Feature","geometry":{"type":"Point","coordinates":[-1.4493818,43.1134461]},"properties":{"archaeological_site":"megalith","historic":"archaeological_site","megalith_type":"dolmen","name":"Dolmen Sustera 2","name:eu":"Sustera 2 trikuharria","source":"wiki.txoperena.es"}},
{"type":"Feature","geometry":{"type":"Point","coordinates":[-1.4359083,43.1133547]},"properties":{"archaeological_site":"megalith","historic":"archaeological_site","image":"File:Urriska_1_trikuharria.jpg","megalith_type":"dolmen","name":"Dolmen Urriska 1","name:eu":"Urriska 1 trikuharria","source":"wiki.txoperena.es"}},
{"type":"Feature","geometry":{"type":"Point","coordinates":[-1.4380739,43.118839]},"properties":{"archaeological_site":"megalith","historic":"archaeological_site","image":"File:Urriska_2_trikuharria.jpg","megalith_type":"dolmen","name":"Dolmen Urriska 2","name:eu":"Urriska 2 trikuharria","source":"wiki.txoperena.es"}},
{"type":"Feature","geometry":{"type":"Point","coordinates":[-1.4255929,43.1139606]},"properties":{"archaeological_site":"megalith","historic":"archaeological_site","image":"File:Urriska_3_trikuharria.jpg","megalith_type":"dolmen","name":"Dolmen Urriska 3","name:eu":"Urriska 3 trikuharria","source":"wiki.txoperena.es"}},
{"type":"Feature","geometry":{"type":"Point","coordinates":[-1.435892,43.1136523]},"properties":{"alt_name":"Urrixka Bizkarra trikuharria","archaeological_site":"megalith","historic":"archaeological_site","image":"File:Urriska_4_trikuharria.jpg","megalith_type":"dolmen","name":"Dolmen Urriska 4","name:eu":"Urriska 4 trikuharria","source":"wiki.txoperena.es"}},
{"type":"Feature","geometry":{"type":"Point","coordinates":[-1.4239934,43.1145232]},"properties":{"archaeological_site":"megalith","historic":"archaeological_site","image":"File:Urriska_5_trikuharria.jpg","megalith_type":"dolmen","name":"Dolmen Urriska 5","name:eu":"Urriska 5 trikuharria","source":"wiki.txoperena.es"}},
{"type":"Feature","geometry":{"type":"Point","coordinates":[-1.4726016,43.0854185]},"properties":{"archaeological_site":"tumulus","historic":"archaeological_site","image":"https://commons.wikimedia.org/wiki/File:Arpeko_Malda_tumulua.jpg","name":"Túmulo Arpeko malda","name:eu":"Arpeko malda tumulua","source":"wiki.txoperena.es"}},
{"type":"Feature","geometry":{"type":"Point","coordinates":[-1.4395696,43.1121302]},"properties":{"archaeological_site":"tumulus","historic":"archaeological_site","name":"Túmulo Berdaritz","name:eu":"Berdaritz tumulua","source":"wiki.txoperena.es"}},
{"type":"Feature","geometry":{"type":"Point","coordinates":[-1.3981408,43.1977214]},"properties":{"archaeological_site":"tumulus","historic":"archaeological_site","name":"Túmulo Ubedo 2","name:eu":"Ubedo 2 tumulua","source":"wiki.txoperena.es"}},
{"type":"Feature","geometry":{"type":"Point","coordinates":[-1.3983907,43.1977406]},"properties":{"archaeological_site":"tumulus","historic":"archaeological_site","name":"Túmulo Ubedo 1","name:eu":"Ubedo 1 tumulua","source":"wiki.txoperena.es"}},
{"type":"Feature","geometry":{"type":"Point","coordinates":[-1.3979751,43.1977082]},"properties":{"archaeological_site":"tumulus","historic":"archaeological_site","name":"Túmulo Ubedo 3","name:eu":"Ubedo 3 tumulua","source":"wiki.txoperena.es"}},
{"type":"Feature","geometry":{"type":"Point","coordinates":[-1.4720493,43.086773]},"properties":{"archaeological_site":"tumulus","historic":"archaeological_site","image":"https://commons.wikimedia.org/wiki/File:Zaho_tumulua.jpg","name":"Túmulo Zaho","name:eu":"Zaho tumulua","source":"wiki.txoperena.es"}},
{"type":"Feature","geometry":{"type":"Point","coordinates":[-1.4707954,43.0917939]},"properties":{"archaeological_site":"megalith","historic":"archaeological_site","image":"https://commons.wikimedia.org/wiki/File:Argibel_1-3_harrespilak.jpg","megalith_type":"stone_circle","name":"Cromlechs Argibel 1-3","name:eu":"Argibel 1-3 harrespilak","source":"wiki.txoperena.es"}},
{"type":"Feature","geometry":{"type":"Point","coordinates":[-1.4146939,43.1501085]},"properties":{"archaeological_site":"megalith","historic":"archaeological_site","image":"File:Arrigorriko_lepoa_harrespila.jpg","megalith_type":"stone_circle","name":"Cromlech Arrigorriko Lepoa","name:eu":"Arrigorriko Lepoa harrespila","source":"wiki.txoperena.es"}},
{"type":"Feature","geometry":{"type":"Point","coordinates":[-1.4406237,43.1116605]},"properties":{"archaeological_site":"megalith","historic":"archaeological_site","image":"File:Berdaritz_harrespila.jpg","megalith_type":"stone_circle","name":"Cromlech Berdaritz","name:eu":"Berdaritz harrespila","source":"wiki.txoperena.es"}},
{"type":"Feature","geometry":{"type":"Point","coordinates":[-1.4054407,43.1553733]},"properties":{"archaeological_site":"megalith","historic":"archaeological_site","image":"File:Elorrieta_13_tumuludun_harrespila.jpg","megalith_type":"stone_circle","name":"Cromlech tumular Elorrieta 13","name:eu":"Elorrieta 13 tumuludun harrespila","source":"wiki.txoperena.es"}},
{"type":"Feature","geometry":{"type":"Point","coordinates":[-1.4050732,43.1553908]},"properties":{"archaeological_site":"megalith","historic":"archaeological_site","image":"File:Elorrieta_19_tumuludun_harrespila.jpg","megalith_type":"stone_circle","name":"Cromlech tumular Elorrieta 19","name:eu":"Elorrieta 19 tumuludun harrespila","source":"wiki.txoperena.es"}},
{"type":"Feature","geometry":{"type":"Point","coordinates":[-1.406078,43.155646]},"properties":{"archaeological_site":"megalith","historic":"archaeological_site","image":"File:Elorrieta_4_tumuludun_harrespila.jpg","megalith_type":"stone_circle","name":"Cromlech tumular Elorrieta 4","name:eu":"Elorrieta 4 tumuludun harrespila","source":"wiki.txoperena.es"}},
{"type":"Feature","geometry":{"type":"Point","coordinates":[-1.4024181,43.1582517]},"properties":{"archaeological_site":"megalith","historic":"archaeological_site","image":"File:Nekaitz_harrespila.jpg","megalith_type":"stone_circle","name":"Cromlech Nekaitz","name:eu":"Nekaitz harrespila","source":"wiki.txoperena.es"}},
{"type":"Feature","geometry":{"type":"Point","coordinates":[-1.4726882,43.0878129]},"properties":{"archaeological_site":"megalith","historic":"archaeological_site","image":"https://commons.wikimedia.org/wiki/File:Zaho_1_tumuludun_harrespila.jpg","megalith_type":"stone_circle","name":"Cromlech tumular Zaho 1","name:eu":"Zaho 1 tumuludun harrespila","source":"wiki.txoperena.es"}},
{"type":"Feature","geometry":{"type":"Point","coordinates":[-1.4723739,43.087791]},"properties":{"archaeological_site":"megalith","historic":"archaeological_site","image":"https://commons.wikimedia.org/wiki/File:Zaho_2_tumuludun_harrespila.jpg","megalith_type":"stone_circle","name":"Cromlech tumular Zaho 2","name:eu":"Zaho 2 tumuludun harrespila","source":"wiki.txoperena.es"}},
{"type":"Feature","geometry":{"type":"Point","coordinates":[-1.4723474,43.0876756]},"properties":{"archaeological_site":"megalith","historic":"archaeological_site","image":"https://commons.wikimedia.org/wiki/File:Zaho_3_tumuludun_harrespila.jpg","megalith_type":"stone_circle","name":"Cromlech tumular Zaho 3","name:eu":"Zaho 3 tumuludun harrespila","source":"wiki.txoperena.es"}},
{"type":"Feature","geometry":{"type":"Point","coordinates":[-1.4722003,43.086809]},"properties":{"archaeological_site":"megalith","historic":"archaeological_site","image":"https://commons.wikimedia.org/wiki/File:Zaho_Ekialde_tumuludun_harrespila.jpg","megalith_type":"stone_circle","name":"Cromlech tumular Zaho Ekialde","name:eu":"Zaho Ekialde tumuludun harrespila","source":"wiki.txoperena.es"}},
{"type":"Feature","geometry":{"type":"Point","coordinates":[-1.4734192,43.0868371]},"properties":{"alt_name":"Peña de Alba 1 tumuludun harrespila","archaeological_site":"megalith","historic":"archaeological_site","image":"File:Zaho_Hegoalde_tumuludun_harrespila.jpg","megalith_type":"stone_circle","name":"Cromlech tumular Zaho Hegoalde","name:eu":"Zaho Hegoalde tumuludun harrespila","source":"wiki.txoperena.es"}},
{"type":"Feature","geometry":{"type":"Point","coordinates":[-1.4487498,43.266084]},"properties":{"access":"yes","archaeological_site":"megalith","historic":"archaeological_site","megalith_type":"stone_circle","name":"Cromlech tumulares Zotaleta 1-7","name:eu":"Zotaleta tumuludun harrespilak 1-7","panoramax":"b5cb-4a9b-b4e5-82175a9d08da","source":"wiki.txoperena.es;survey;local knowledge"}},
{"type":"Feature","geometry":{"type":"Point","coordinates":[-1.4213732,43.2649331]},"properties":{"archaeological_site":"megalith","historic":"archaeological_site","megalith_type":"stone_circle","name":"Cromlechs Iguzki Hegoalde 1-3","name:eu":"Iguzki Hegoalde 1-3 harrespilak","source":"wiki.txoperena.es"}},
{"type":"Feature","geometry":{"type":"Point","coordinates":[-1.4204077,43.2691079]},"properties":{"archaeological_site":"megalith","historic":"archaeological_site","megalith_type":"stone_circle","name":"Cromlechs Iguzkiko Tontorra 1-2","name:eu":"Iguzkiko Tontorra 1-2 harrespilak","source":"wiki.txoperena.es"}},
{"type":"Feature","geometry":{"type":"Point","coordinates":[-1.4699706,43.0924498]},"properties":{"archaeological_site":"megalith","historic":"archaeological_site","image":"https://commons.wikimedia.org/wiki/File:Argibel_1_zutarria.jpg","megalith_type":"menhir","name":"Menhir Argibel 1","name:eu":"Argibel zutarria","source":"wiki.txoperena.es"}},
{"type":"Feature","geometry":{"type":"Point","coordinates":[-1.4714256,43.0910063]},"properties":{"archaeological_site":"megalith","historic":"archaeological_site","image":"https://commons.wikimedia.org/wiki/File:Argibelgo_lepoa_zutarria.jpg","megalith_type":"menhir","name":"Menhir Argibelgo Lepoa","name:eu":"Argibelgo Lepoa zutarria","source":"wiki.txoperena.es"}},
{"type":"Feature","geometry":{"type":"Point","coordinates":[-1.4309838,43.2672641]},"properties":{"archaeological_site":"megalith","historic":"archaeological_site","image":"File:Iguzkiko_lepoa_zutarria.jpg","megalith_type":"menhir","name":"Menhir Iguzkiko Lepoa","name:eu":"Iguzkiko Lepoa zutarria","source":"wiki.txoperena.es"}},
{"type":"Feature","geometry":{"type":"Point","coordinates":[-1.412048,43.272392]},"properties":{"addr:city":"Baztan","archaeological_site":"megalith","historic":"archaeological_site","historic:civilization":"prehistoric","megalith_type":"menhir","name":"Menhir Mehatzeko Bizkarra","name:eu":"Mehatzeko Bizkarra zutarria","source":"wiki.txoperena.es"}},
{"type":"Feature","geometry":{"type":"Point","coordinates":[-1.4033612,43.1969734]},"properties":{"archaeological_site":"megalith","historic":"archaeological_site","image":"File:Ubedo_1_zutarria.jpg","megalith_type":"menhir","name":"Menhir Ubedo 1","name:eu":"Ubedo 1 zutarria","source":"wiki.txoperena.es"}},
{"type":"Feature","geometry":{"type":"Point","coordinates":[-1.4724279,43.0869203]},"properties":{"archaeological_site":"megalith","historic":"archaeological_site","image":"https://commons.wikimedia.org/wiki/File:Zaho_zutarria.jpg","megalith_type":"menhir","name":"Menhir Zaho","name:eu":"Zaho zutarria","source":"wiki.txoperena.es"}},
{"type":"Feature","geometry":{"type":"Point","coordinates":[-1.4713253,43.0893571]},"properties":{"historic":"boundary_stone","inscription":"127","name":"Mugarrien 127. zenbakia","name:fr":"Borne frontière #127","ref":"127","source":"survey"}},
{"type":"Feature","geometry":{"type":"Point","coordinates":[-1.4698137,43.0926276]},"properties":{"historic":"boundary_stone","name":"Mugarrien 126. zenbakia","name:fr":"Borne frontière #126","ref":"126","source":"survey"}},
{"type":"Feature","geometry":{"type":"Point","coordinates":[-1.4648317,43.0967328]},"properties":{"historic":"boundary_stone","name":"Mugarrien 125. zenbakia","name:fr":"Borne frontière #125","ref":"125","source":"survey"}},
{"type":"Feature","geometry":{"type":"Point","coordinates":[-1.447051,43.1056128]},"properties":{"historic":"boundary_stone","name":"Mugarrien 121. zenbakia","name:fr":"Borne frontière #121","ref":"121","source":"survey"}},
{"type":"Feature","geometry":{"type":"Point","coordinates":[-1.4407463,43.1076253]},"properties":{"historic":"boundary_stone","name":"Mugarrien 119. zenbakia","name:fr":"Borne frontière #119","ref":"119","source":"survey"}},
{"type":"Feature","geometry":{"type":"Point","coordinates":[-1.5711211,43.2684027]},"properties":{"addr:city":"Sare","addr:postcode":"64310","addr:street":"grotte de Sare","description":"Visite de la grotte , environ une heure en son et lumière à travers des sujets aussi divers que la géologie, la culture Basque ou l'ours.Température de 14°C toute l'année.Ouvert tous les jours de 10h à 18h00, juin-juillet-août.","email":"sarakolezea@gmail.com","name":"Grottes de Sare","phone":"+33 5 59 54 21 88","tourism":"attraction","website":"https://www.grottesdesare.fr/"}},
{"type":"Feature","geometry":{"type":"Point","coordinates":[-1.41292,43.150483]},"properties":{"alt_name":"Arrigorri","ele":"1113.56","name":"Harrigorri","name:eu":"Arrigorri","natural":"peak"}},
{"type":"Feature","geometry":{"type":"Point","coordinates":[-1.400293,43.1795425]},"properties":{"alt_name":"Kuartele","ele":"823","name":"Kuarteleko Kaskoa","natural":"peak"}},
{"type":"Feature","geometry":{"type":"Point","coordinates":[-1.4066940000000002,43.163822]},"properties":{"alt_name":"Olateko Kaskoa","ele":"936.92","name":"Olate","name:fr":"Olhate","natural":"peak","wikidata":"Q112787915","wikipedia":"eu:Olate"}},
{"type":"Feature","geometry":{"type":"Point","coordinates":[-1.409978,43.164309]},"properties":{"ele":"926","name":"Olhateko Ttutturru","natural":"peak"}},
{"type":"Feature","geometry":{"type":"Point","coordinates":[-1.603413,43.253343]},"properties":{"ele":"525","name":"Nabarlatsako Gaina","natural":"peak"}},
{"type":"Feature","geometry":{"type":"Point","coordinates":[-1.610738,43.254684]},"properties":{"ele":"491.77","name":"Gaztañarriko Gaina","natural":"peak"}},
{"type":"Feature","geometry":{"type":"Point","coordinates":[-1.591793,43.254029]},"properties":{"ele":"526","name":"Eguzkietako Gaina","natural":"peak"}},
{"type":"Feature","geometry":{"type":"Point","coordinates":[-1.617384,43.257682]},"properties":{"ele":"510.68","name":"Idoietako Gaina","natural":"peak"}},
{"type":"Feature","geometry":{"type":"Point","coordinates":[-1.6066824,43.2523559]},"properties":{"ele":"475","hiking":"yes","information":"guidepost","material":"wood","name":"Domikusantz","ref":"GRT 4;PR-NA 15;SL-NA 2;GR 11;GR 11.3","tourism":"information"}},
{"type":"Feature","geometry":{"type":"Point","coordinates":[-1.6001052,43.2543719]},"properties":{"colour":"brown","ele":"477","hiking":"yes","information":"guidepost","material":"wood","name":"Nabarlatsa","ref":"GRT 4;PR-NA 15;PR-NA 15.1;SL-NA 2","tourism":"information"}},
{"type":"Feature","geometry":{"type":"Point","coordinates":[-1.6000211,43.2544663]},"properties":{"format":"squared_stone","format:top":"flat","historic":"boundary_stone","inscription":"R 50","name":"Mugarrien 50. zenbakia","name:fr":"Borne frontière #50","wikimedia_commons":"File:Mojón_30.jpg"}},
{"type":"Feature","geometry":{"type":"Point","coordinates":[-1.4169233,43.0709546]},"properties":{"historic":"memorial","inscription":"Xalbador \n1920 - 1976","material":"stone","name":"Xalbadorren omenezko harria","wikidata":"Q3570544","wikipedia":"eu:Xalbador"}},
{"type":"Feature","geometry":{"type":"Point","coordinates":[-1.4169555,43.0710162]},"properties":{"description":"Départ randonnée  - Elizamendi\nRandonnée pédestre - facile - 2,80km - dénivelé 175m\nPlan Local de Randonnée Communauté d'Agglomération Pays Basque","information":"guidepost","name":"Elizamendi","operator":"Communauté d'Agglomération Pays Basque","tourism":"information"}},
{"type":"Feature","geometry":{"type":"Point","coordinates":[-1.5574297,43.2679302]},"properties":{"tourism":"information"}},
{"type":"Feature","geometry":{"type":"Point","coordinates":[-1.6129805,43.2548105]},"properties":{"information":"board","name":"Usotegietako ibilbidea - SL-NA 2","tourism":"information"}},
{"type":"Feature","geometry":{"type":"Point","coordinates":[-1.6123793,43.255203]},"properties":{"information":"board","name":"Usotegietako ibilbidea - SL-NA 2","tourism":"information"}},
{"type":"Feature","geometry":{"type":"Point","coordinates":[-1.6139711,43.2542895]},"properties":{"hiking":"yes","information":"guidepost","material":"wood","ref":"SL-NA 2","tourism":"information"}},
{"type":"Feature","geometry":{"type":"Point","coordinates":[-1.6135998,43.2545026]},"properties":{"hiking":"yes","information":"guidepost","material":"wood","ref":"SL-NA 2","tourism":"information"}},
{"type":"Feature","geometry":{"type":"Point","coordinates":[-1.4202213,43.2690191]},"properties":{"ele":"842","name":"Eguzkimendi","natural":"peak"}},
{"type":"Feature","geometry":{"type":"Point","coordinates":[-1.3985476,43.2670741]},"properties":{"name":"Zelaiburuko lepoa","natural":"saddle"}},
{"type":"Feature","geometry":{"type":"Point","coordinates":[-1.4353424,43.0824275]},"properties":{"addr:city":"Les Aldudes","addr:postcode":"64430","name":"Saint-Sylvestre","name:fr":"Hôtel Saint-Sylvestre","phone":"+33559375813","tourism":"hotel"}},
{"type":"Feature","geometry":{"type":"Point","coordinates":[-1.4628339,43.0979153]},"properties":{"alt_name":"Logialdeko kaskoa","ele":"865.99","name":"Eihartzeko Kaskoa","natural":"peak"}},
{"type":"Feature","geometry":{"type":"Point","coordinates":[-1.4394528,43.1236904]},"properties":{"ele":"797","name":"Arlegi","natural":"peak"}},
{"type":"Feature","geometry":{"type":"Point","coordinates":[-1.4436217,43.1116229]},"properties":{"alt_name":"Elhokadi","ele":"754.42","name":"Elokadi","natural":"peak"}},
{"type":"Feature","geometry":{"type":"Point","coordinates":[-1.4399916,43.1207346]},"properties":{"drinking_water":"yes","natural":"spring"}},
{"type":"Feature","geometry":{"type":"Point","coordinates":[-1.348556,43.1741914]},"properties":{"addr:city":"Saint-Étienne-de-Baigorry","addr:postcode":"64430","addr:street":"Route de Banca","name":"Juantorena","phone":"+33559374078","tourism":"hotel","website":"https://hotelrestaurantjuantorena.fr/"}},
{"type":"Feature","geometry":{"type":"Point","coordinates":[-1.4697213,43.0925472]},"properties":{"archaeological_site":"megalith","historic":"archaeological_site","image":"https://commons.wikimedia.org/wiki/File:Argibel_2_zutarria.jpg","megalith_type":"menhir","name":"Menhir Argibel 2","name:eu":"Argibel zutarria","source":"wiki.txoperena.es"}},
{"type":"Feature","geometry":{"type":"Point","coordinates":[-1.4408563,43.1074373]},"properties":{"ele":"758","hiking":"yes","information":"guidepost","name":"Elokadi","ref":"GRT 5","tourism":"information"}},
{"type":"Feature","geometry":{"type":"Point","coordinates":[-1.4712634,43.0908708]},"properties":{"ele":"942","hiking":"yes","information":"guidepost","name":"Argibel","ref":"GR 11;GRT 5","tourism":"information"}},
{"type":"Feature","geometry":{"type":"Point","coordinates":[-1.4391003,43.1121728]},"properties":{"hiking":"yes","information":"map","map_size":"region","map_type":"topo","name":"GRT 5 Kulunka Bidea","tourism":"information"}},
{"type":"Feature","geometry":{"type":"Point","coordinates":[-1.4391305,43.1121711]},"properties":{"hiking":"yes","information":"map","map_size":"region","map_type":"topo","material":"wood","name":"GRT 5 Kulunka Bidea","tourism":"information"}},
{"type":"Feature","geometry":{"type":"Point","coordinates":[-1.4557885,43.1001677]},"properties":{"ele":"758","hiking":"yes","information":"guidepost","name":"Belaun","ref":"GRT 5","tourism":"information"}},
{"type":"Feature","geometry":{"type":"Point","coordinates":[-1.4650784,43.0966571]},"properties":{"ele":"849","hiking":"yes","information":"guidepost","name":"Inartze","ref":"GRT 5","tourism":"information"}},
{"type":"Feature","geometry":{"type":"Point","coordinates":[-1.4391749,43.1121625]},"properties":{"ele":"688","hiking":"yes","information":"guidepost","material":"wood","name":"Berderiz","ref":"GRT 5","tourism":"information"}},
{"type":"Feature","geometry":{"type":"Point","coordinates":[-1.4041434,43.1607228]},"properties":{"hiking":"yes","information":"guidepost","material":"wood","ref":"SL-NA","tourism":"information"}},
{"type":"Feature","geometry":{"type":"Point","coordinates":[-1.4041444,43.1600796]},"properties":{"ele":"814","hiking":"yes","information":"guidepost","material":"wood","name":"Nekaizko lepoa","ref":"GRT 5","tourism":"information"}},
{"type":"Feature","geometry":{"type":"Point","coordinates":[-1.4038373,43.1602547]},"properties":{"hiking":"yes","information":"guidepost","material":"wood","ref":"SL-NA","tourism":"information"}},
{"type":"Feature","geometry":{"type":"Point","coordinates":[-1.4051247,43.1598839]},"properties":{"ele":"807","hiking":"yes","information":"guidepost","material":"wood","name":"Nekaizko borda","ref":"GRT 5","tourism":"information"}},
{"type":"Feature","geometry":{"type":"Point","coordinates":[-1.4089891,43.1598898]},"properties":{"abandoned":"yes","building":"bunker","historic":"yes","image":"File:Elortako_bunkerra.jpg","military":"bunker"}},
{"type":"Feature","geometry":{"type":"Point","coordinates":[-1.4066891,43.155709]},"properties":{"hiking":"yes","information":"guidepost","material":"wood","name":"SL-NA","tourism":"information"}},
{"type":"Feature","geometry":{"type":"Point","coordinates":[-1.4075228,43.1555513]},"properties":{"hiking":"yes","information":"guidepost","material":"wood","name":"Elorrietako lepoa","ref":"GRT 5","tourism":"information"}},
{"type":"Feature","geometry":{"type":"Point","coordinates":[-1.412022,43.1381829]},"properties":{"description:de":"gut erhalten","format:top":"pyramidal","historic":"boundary_stone","name":"Mugarrien 108. zenbakia","name:fr":"Borne frontière #108"}},
{"type":"Feature","geometry":{"type":"Point","coordinates":[-1.4129729,43.1372062]},"properties":{"ele":"966","hiking":"yes","information":"guidepost","material":"wood","name":"Istauz","ref":"GRT 5","tourism":"information"}},
{"type":"Feature","geometry":{"type":"Point","coordinates":[-1.4138654,43.136618]},"properties":{"description:de":"gut erhalten","format:top":"pyramidal","historic":"boundary_stone","name":"Mugarrien 109. zenbakia","name:fr":"Borne frontière #109"}},
{"type":"Feature","geometry":{"type":"Point","coordinates":[-1.4146949,43.1349377]},"properties":{"description:de":"gut erhalten","format:top":"pyramidal","historic":"boundary_stone","name":"Mugarrien 110. zenbakia","name:fr":"Borne frontière #110"}},
{"type":"Feature","geometry":{"type":"Point","coordinates":[-1.419157,43.1268035]},"properties":{"description:de":"gut erhalten","format":"squared_stone","format:top":"rounded","historic":"boundary_stone","inscription":"112","name":"Mugarrien 112. zenbakia","name:fr":"Borne frontière #112","ref":"115"}},
{"type":"Feature","geometry":{"type":"Point","coordinates":[-1.4293347,43.1136201]},"properties":{"drinking_water":"yes","natural":"spring"}},
{"type":"Feature","geometry":{"type":"Point","coordinates":[-1.4366447,43.1129769]},"properties":{"hiking":"yes","information":"guidepost","material":"wood","ref":"GRT 5","tourism":"information"}},
{"type":"Feature","geometry":{"type":"Point","coordinates":[-1.4380307,43.1126744]},"properties":{"hiking":"yes","information":"guidepost","material":"wood","ref":"GRT 5","tourism":"information"}},
{"type":"Feature","geometry":{"type":"Point","coordinates":[-1.4019479,43.1752306]},"properties":{"hiking":"yes","information":"map","map_size":"region","map_type":"topo","name":"GRT 5 Kulunka bidea","tourism":"information"}},
{"type":"Feature","geometry":{"type":"Point","coordinates":[-1.4017555,43.1751078]},"properties":{"hiking":"yes","information":"guidepost","material":"wood","tourism":"information"}},
{"type":"Feature","geometry":{"type":"Point","coordinates":[-1.3845873,43.1911976]},"properties":{"hiking":"yes","information":"guidepost","material":"wood","tourism":"information"}},
{"type":"Feature","geometry":{"type":"Point","coordinates":[-1.3848314,43.1912612]},"properties":{"ele":"855","hiking":"yes","information":"guidepost","material":"wood","name":"Buztanzelaiko lepoa","ref":"GR 10;GRT 5","tourism":"information"}},
{"type":"Feature","geometry":{"type":"Point","coordinates":[-1.4020846,43.1756905]},"properties":{"ele":"672","mountain_pass":"yes","name":"Izpegiko lepoa","name:es":"Puerto de Izpegi","name:eu":"Izpegiko lepoa","name:fr":"Col d'Ispéguy","natural":"saddle","source":"Instituto Geográfico Nacional","source:date":"201011","wikidata":"Q2982003"}},
{"type":"Feature","geometry":{"type":"Point","coordinates":[-1.4021123,43.1759184]},"properties":{"hiking":"yes","information":"guidepost","material":"wood","name":"GRT 5","tourism":"information"}},
{"type":"Feature","geometry":{"type":"Point","coordinates":[-1.4028074,43.175079]},"properties":{"hiking":"yes","information":"guidepost","ref":"SL-NA","tourism":"information"}},
{"type":"Feature","geometry":{"type":"Point","coordinates":[-1.4019504,43.1752659]},"properties":{"information":"board","name":"Baztan - ibilbide balizatuak","name:es":"Baztán - senderos balizados","name:eu":"Baztan - ibilbide balizatuak","tourism":"information"}},
{"type":"Feature","geometry":{"type":"Point","coordinates":[-1.4260991,43.1225324]},"properties":{"format":"squared_stone","format:top":"rounded","historic":"boundary_stone","image":"File:114_mugarria.jpg","inscription":"114","name":"Mugarrien 114. zenbakia","name:fr":"Borne frontière #114","ref":"114"}},
{"type":"Feature","geometry":{"type":"Point","coordinates":[-1.3731217,43.239398]},"properties":{"information":"guidepost","tourism":"information"}},
{"type":"Feature","geometry":{"type":"Point","coordinates":[-1.3733447,43.2402275]},"properties":{"information":"guidepost","tourism":"information"}},
{"type":"Feature","geometry":{"type":"Point","coordinates":[-1.3699976,43.2466445]},"properties":{"information":"guidepost","tourism":"information"}},
{"type":"Feature","geometry":{"type":"Point","coordinates":[-1.3647908,43.2522439]},"properties":{"information":"guidepost","ref:FFRP":"GR10","tourism":"information"}},
{"type":"Feature","geometry":{"type":"Point","coordinates":[-1.5894824,43.2632766]},"properties":{"historic":"ruins","name":"Larreako dorrea"}},
{"type":"Feature","geometry":{"type":"Point","coordinates":[-1.6073956,43.2521178]},"properties":{"name":"Gaztainlepo","natural":"saddle"}},
{"type":"Feature","geometry":{"type":"Point","coordinates":[-1.3841928,43.2107081]},"properties":{"backcountry":"yes","camp_site":"basic","tourism":"camp_site"}},
{"type":"Feature","geometry":{"type":"Point","coordinates":[-1.375462,43.1789104]},"properties":{"highway":"crossing"}},
{"type":"Feature","geometry":{"type":"Point","coordinates":[-1.3345887,43.1393958]},"properties":{"ele":"928","name":"Munhogain","natural":"peak","wikidata":"Q12263886"}},
{"type":"Feature","geometry":{"type":"Point","coordinates":[-1.3557789,43.2338696]},"properties":{"alt_name:eu":"Gastangarteko lepoa","ele":"345","mountain_pass":"yes","name":"Gastigarlepho","name:eu":"Gastigarlepho","name:fr":"Col de Gastangarte","natural":"saddle"}},
{"type":"Feature","geometry":{"type":"Point","coordinates":[-1.4233033,43.1248765]},"properties":{"ele":"1003.52","name":"Abraku","name:es":"Argañeta","name:eu":"Abarraku","name:fr":"Abraku","natural":"peak"}},
{"type":"Feature","geometry":{"type":"Point","coordinates":[-1.6287513,43.2823536]},"properties":{"historic":"boundary_stone","name":"Mugarrien 36. zenbakia","name:fr":"Borne frontière #36"}},
{"type":"Feature","geometry":{"type":"Point","coordinates":[-1.4465325,43.0656159]},"properties":{"destination":"Borda quinto real:3km;Urepel:3,9km;","ele":"720","information":"guidepost","name":"Garzéla Lépoa","name:eu":"Gartzelako lepoa","source:ref":"survey","tourism":"information"}},
{"type":"Feature","geometry":{"type":"Point","coordinates":[-1.3470599,43.0261681]},"properties":{"abandoned":"yes","building":"bunker","historic":"yes","location":"overground","military":"bunker","ruins":"no"}},
{"type":"Feature","geometry":{"type":"Point","coordinates":[-1.3445879,43.1765218]},"properties":{"leisure":"playground"}},
{"type":"Feature","geometry":{"type":"Point","coordinates":[-1.3439252,43.1766121]},"properties":{"tourism":"picnic_site"}},
{"type":"Feature","geometry":{"type":"Point","coordinates":[-1.6020834,43.2765394]},"properties":{"tourism":"picnic_site"}},
{"type":"Feature","geometry":{"type":"Point","coordinates":[-1.6019212,43.2789608]},"properties":{"description":"Départ randonnée - Circuit des palombières - Usategietako itzulia\nRandonnée pédestre - trail - moyen - 12,29km - dénivelé 468m\nPlan Local de Randonnée Communauté d'Agglomération Pays Basque","hiking":"yes","information":"guidepost","name":"Circuit des palombières","operator":"Communauté d'Agglomération Pays Basque","tourism":"information"}},
{"type":"Feature","geometry":{"type":"Point","coordinates":[-1.6019842,43.2788007]},"properties":{"description":"Départ randonnée  - Ibanteli\nRandonnée pédestre, trail - moyen - 1à,23km - dénivelé 560m\nPlan Local de Randonnée Communauté d'Agglomération Pays Basque","hiking":"yes","information":"guidepost","name":"Ibanteli","operator":"Communauté d'Agglomération Pays Basque","tourism":"information"}},
{"type":"Feature","geometry":{"type":"Point","coordinates":[-1.602015,43.2787978]},"properties":{"leisure":"picnic_table"}},
{"type":"Feature","geometry":{"type":"Point","coordinates":[-1.5965205,43.2623224]},"properties":{"ele":"462","natural":"peak"}},
{"type":"Feature","geometry":{"type":"Point","coordinates":[-1.5876196,43.2536513]},"properties":{"hiking":"yes","information":"guidepost","tourism":"information"}},
{"type":"Feature","geometry":{"type":"Point","coordinates":[-1.583595,43.2608291]},"properties":{"natural":"tree"}},
{"type":"Feature","geometry":{"type":"Point","coordinates":[-1.5831658,43.2610186]},"properties":{"natural":"tree"}},
{"type":"Feature","geometry":{"type":"Point","coordinates":[-1.5999216,43.2550266]},"properties":{"natural":"tree"}},
{"type":"Feature","geometry":{"type":"Point","coordinates":[-1.5834729,43.2536416]},"properties":{"ele":"485","hiking":"yes","information":"guidepost","mtb":"yes","name":"Otsobi","tourism":"information"}},
{"type":"Feature","geometry":{"type":"Point","coordinates":[-1.3742051,43.1254519]},"properties":{"contact:email":"http://hotel@erreguina.com","name":"Erreguina","phone":"+33 5 59 37 40 37","rooms":"16","tourism":"hotel","website":"http://www.erreguina.com/"}},
{"type":"Feature","geometry":{"type":"Point","coordinates":[-1.3739368,43.128628]},"properties":{"name":"Haut-fourneau métallurgique Mines de Banca","tourism":"attraction","website":"http://www.jpdugene.com/tourisme/pays_basque/banca.htm","wikidata":"Q3314929","wikipedia":"fr:Mines de cuivre de Banca"}},
{"type":"Feature","geometry":{"type":"Point","coordinates":[-1.5882407,43.2768622]},"properties":{"addr:city":"Sare","addr:street":"Route des Grottes","email":"parc-etxola@orange.fr","name":"Parc Animalier Etxola","postal_code":"64310","tourism":"zoo"}},
{"type":"Feature","geometry":{"type":"Point","coordinates":[-1.4253028,43.0948805]},"properties":{"contact:email":"http://errekagorri.aldude@gmail.com","name":"Erreka Gorri","name:eu":"Erreka Gorri gazte-aterpea","name:fr":"Auberge de jeunesse Erreka Gorri","phone":"+33 5 59 37 56 58","tourism":"chalet"}},
{"type":"Feature","geometry":{"type":"Point","coordinates":[-1.3628371,43.1504809]},"properties":{"name":"Agorrerreka","tourism":"guest_house","website":"https://www.agorerreka.com/"}},
{"type":"Feature","geometry":{"type":"Point","coordinates":[-1.4284025,43.0984786]},"properties":{"historic":"memorial","name":"Ameriketako euskal artzainen orroitharria","name:fr":"Stèle des bergers basques d'Amérique","website":"http://vallee-aldudes.com/listings/la-pierre-des-bergers-basques/"}},
{"type":"Feature","geometry":{"type":"Point","coordinates":[-1.4171387,43.0667031]},"properties":{"historic":"memorial","name":"Xalbador-en orroitgarriak: burdinlana","website":"http://vallee-aldudes.com/listings/xalbador-maison-natale/"}},
{"type":"Feature","geometry":{"type":"Point","coordinates":[-1.3126888,43.2382258]},"properties":{"leisure":"playground"}},
{"type":"Feature","geometry":{"type":"Point","coordinates":[-1.6190015,43.2606633]},"properties":{"denotation":"landmark","leaf_cycle":"deciduous","leaf_type":"broadleaved","natural":"tree"}},
{"type":"Feature","geometry":{"type":"Point","coordinates":[-1.730053,43.2958424]},"properties":{"historic":"boundary_stone","inscription":"Euskal Herriko probintzien arteko mugarria","name":"Euskal Herriko mugarrien 1. zenbakia","name:eu":"Lapurdi, Nafarroa eta Gipuzkoa arteko mugarria","name:fr":"Borne frontière #1 entre la Navarre, le Labourd et le Guipuscoa"}},
{"type":"Feature","geometry":{"type":"Point","coordinates":[-1.3347051,43.2233103]},"properties":{"ele":"529","name":"Larrango","natural":"peak","wikidata":"Q12261916"}},
{"type":"Feature","geometry":{"type":"Point","coordinates":[-1.4132586,43.2734978]},"properties":{"historic":"boundary_stone","inscription":"Euskal Herriko probintzien arteko mugarria","name":"Euskal Herriko mugarria","name:eu":"Nafarroa Beherea, Nafarroa eta Lapurdi arteko mugarria"}},
{"type":"Feature","geometry":{"type":"Point","coordinates":[-1.4046179,43.258713]},"properties":{"ele":"623","name":"Itsusiko Harriak","name:es":"Peñas de Itsusi","natural":"peak","source":"Instituto Geográfico Nacional","source:date":"201011"}},
{"type":"Feature","geometry":{"type":"Point","coordinates":[-1.4132349,43.2735444]},"properties":{"description":"Borne frontière No 80","historic":"boundary_stone","mountain_pass":"yes","name":"Mugarrien 81. zenbakia","name:fr":"Borne frontière #81","natural":"saddle","source":"cadastre-dgi-fr source : Direction Générale des Impôts - Cadastre. Mise à jour : 2010"}},
{"type":"Feature","geometry":{"type":"Point","coordinates":[-1.4100446,43.2719637]},"properties":{"description":"Borne frontière No 80","historic":"boundary_stone","mountain_pass":"yes","name":"Mugarrien 82. zenbakia","name:fr":"Borne frontière #82","natural":"saddle","source":"cadastre-dgi-fr source : Direction Générale des Impôts - Cadastre. Mise à jour : 2010"}},
{"type":"Feature","geometry":{"type":"Point","coordinates":[-1.4032838,43.172382]},"properties":{"historic":"boundary_stone","name":"Mugarrien 93. zenbakia (apurtuta)","name:fr":"Borne frontière #93 (détruite)","ref":"91","source":"cadastre-dgi-fr source : Direction Générale des Impôts - Cadastre;mise à jour : 2009","tourism":"attraction","wheelchair":"yes"}},
{"type":"Feature","geometry":{"type":"Point","coordinates":[-1.4069356,43.1556346]},"properties":{"historic":"boundary_stone","name":"Mugarrien 102. zenbakia","name:fr":"Borne frontière #102","ref":"91","source":"cadastre-dgi-fr source : Direction Générale des Impôts - Cadastre;mise à jour : 2009","tourism":"attraction","wheelchair":"yes"}},
{"type":"Feature","geometry":{"type":"Point","coordinates":[-1.4267364,43.1183609]},"properties":{"alt_name":"Urruskako Mendia;Urruxka","ele":"990","name":"Urrixka","natural":"peak"}},
{"type":"Feature","geometry":{"type":"Point","coordinates":[-1.3820183,43.1924233]},"properties":{"leaf_cycle":"deciduous","leaf_type":"broadleaved","natural":"tree"}},
{"type":"Feature","geometry":{"type":"Point","coordinates":[-1.3425217,43.1771747]},"properties":{"name":"Pont Romain","tourism":"attraction"}},
{"type":"Feature","geometry":{"type":"Point","coordinates":[-1.3644667,43.1909553]},"properties":{"name":"Source","natural":"spring"}},
{"type":"Feature","geometry":{"type":"Point","coordinates":[-1.3859779,43.1964418]},"properties":{"colour":"yellow","hiking":"yes","information":"guidepost","tourism":"information"}},
{"type":"Feature","geometry":{"type":"Point","coordinates":[-1.4204376,43.091]},"properties":{"leisure":"picnic_table","tourism":"picnic_site"}},
{"type":"Feature","geometry":{"type":"Point","coordinates":[-1.419472,43.0909863]},"properties":{"leisure":"picnic_table"}},
{"type":"Feature","geometry":{"type":"Point","coordinates":[-1.3783628,43.2282304]},"properties":{"ele":"1049","name":"Iparla","natural":"peak"}},
{"type":"Feature","geometry":{"type":"Point","coordinates":[-1.3342421,43.1537849]},"properties":{"denomination":"catholic","historic":"wayside_cross","religion":"christian"}},
{"type":"Feature","geometry":{"type":"Point","coordinates":[-1.395356,43.0921461]},"properties":{"name":"Source","name:en":"Water","natural":"spring"}},
{"type":"Feature","geometry":{"type":"Point","coordinates":[-1.4031244,43.093714]},"properties":{"name":"Source","name:en":"Water","natural":"spring"}},
{"type":"Feature","geometry":{"type":"Point","coordinates":[-1.4305983,43.0986733]},"properties":{"natural":"spring"}},
{"type":"Feature","geometry":{"type":"Point","coordinates":[-1.4276044,43.0985423]},"properties":{"natural":"spring"}},
{"type":"Feature","geometry":{"type":"Point","coordinates":[-1.3999177,43.168005]},"properties":{"ele":"743","name":"Arriurdin","natural":"peak"}},
{"type":"Feature","geometry":{"type":"Point","coordinates":[-1.5747339,43.2645248]},"properties":{"tourism":"information"}},
{"type":"Feature","geometry":{"type":"Point","coordinates":[-1.5757773,43.2586591]},"properties":{"tourism":"picnic_site"}},
{"type":"Feature","geometry":{"type":"Point","coordinates":[-1.3911371,43.103488]},"properties":{"ele":"825","name":"Otsaxar","natural":"peak"}},
{"type":"Feature","geometry":{"type":"Point","coordinates":[-1.3975817,43.1086708]},"properties":{"ele":"577","mountain_pass":"yes","name":"Ususkuluko lepoa","natural":"saddle"}},
{"type":"Feature","geometry":{"type":"Point","coordinates":[-1.3954271,43.1154122]},"properties":{"ele":"559","mountain_pass":"yes","name":"Sabukadiko lepoa","natural":"saddle"}},
{"type":"Feature","geometry":{"type":"Point","coordinates":[-1.3950963,43.1122382]},"properties":{"name":"Xoxako kaskoa","natural":"peak"}},
{"type":"Feature","geometry":{"type":"Point","coordinates":[-1.3945204,43.1175678]},"properties":{"name":"Kurutzegiko kaskoa","natural":"peak"}},
{"type":"Feature","geometry":{"type":"Point","coordinates":[-1.4126228,43.1452184]},"properties":{"historic":"boundary_stone","name":"Mugarrien 104. zenbakia","name:fr":"Borne frontière #104"}},
{"type":"Feature","geometry":{"type":"Point","coordinates":[-1.411015,43.1415051]},"properties":{"historic":"boundary_stone","name":"Mugarrien 106. zenbakia","name:fr":"Borne frontière #106"}},
{"type":"Feature","geometry":{"type":"Point","coordinates":[-1.4114658,43.1400497]},"properties":{"historic":"boundary_stone","name":"Mugarrien 107. zenbakia","name:fr":"Borne frontière #107"}},
{"type":"Feature","geometry":{"type":"Point","coordinates":[-1.414554,43.1333317]},"properties":{"historic":"boundary_stone","name":"Mugarrien 111. zenbakia","name:fr":"Borne frontière #111"}},
{"type":"Feature","geometry":{"type":"Point","coordinates":[-1.424492,43.1250202]},"properties":{"historic":"boundary_stone","name":"113"}},
{"type":"Feature","geometry":{"type":"Point","coordinates":[-1.4267604,43.1183377]},"properties":{"historic":"boundary_stone","name":"Mugarrien 115. zenbakia"}},
{"type":"Feature","geometry":{"type":"Point","coordinates":[-1.4272466,43.1168003]},"properties":{"historic":"boundary_stone","name":"Mugarrien 116. zenbakia"}},
{"type":"Feature","geometry":{"type":"Point","coordinates":[-1.443451,43.1116341]},"properties":{"historic":"boundary_stone","name":"118"}},
{"type":"Feature","geometry":{"type":"Point","coordinates":[-1.442743,43.1072532]},"properties":{"historic":"boundary_stone","name":"120"}},
{"type":"Feature","geometry":{"type":"Point","coordinates":[-1.4516429,43.103673]},"properties":{"historic":"boundary_stone","name":"122"}},
{"type":"Feature","geometry":{"type":"Point","coordinates":[-1.4572987,43.0993209]},"properties":{"historic":"boundary_stone","name":"Mugarrien 123. zenbakia","name:fr":"Borne frontière #123"}},
{"type":"Feature","geometry":{"type":"Point","coordinates":[-1.4629403,43.0981588]},"properties":{"historic":"boundary_stone","name":"Mugarrien 124. zenbakia","name:fr":"Borne frontière #124"}},
{"type":"Feature","geometry":{"type":"Point","coordinates":[-1.4696614,43.078342]},"properties":{"historic":"boundary_stone","name":"Mugarrien 131. zenbakia"}},
{"type":"Feature","geometry":{"type":"Point","coordinates":[-1.4650137,43.0731448]},"properties":{"historic":"boundary_stone","name":"Mugarrien 132. zenbakia"}},
{"type":"Feature","geometry":{"type":"Point","coordinates":[-1.4629398,43.0708296]},"properties":{"historic":"boundary_stone","name":"Mugarrien 133. zenbakia"}},
{"type":"Feature","geometry":{"type":"Point","coordinates":[-1.4597386,43.0672168]},"properties":{"historic":"boundary_stone","name":"Mugarrien 134. zenbakia"}},
{"type":"Feature","geometry":{"type":"Point","coordinates":[-1.4549739,43.0623994]},"properties":{"historic":"boundary_stone","name":"Mugarrien 136. zenbakia"}},
{"type":"Feature","geometry":{"type":"Point","coordinates":[-1.4531778,43.0601709]},"properties":{"historic":"boundary_stone","name":"Mugarrien 137. zenbakia"}},
{"type":"Feature","geometry":{"type":"Point","coordinates":[-1.4025596,43.1739095]},"properties":{"historic":"boundary_stone","name":"Mugarrien 92. zenbakia","name:fr":"Borne frontière #92"}},
{"type":"Feature","geometry":{"type":"Point","coordinates":[-1.4026882,43.1708761]},"properties":{"historic":"boundary_stone","name":"Mugarrien 94. zenbakia","name:fr":"Borne frontière #94"}},
{"type":"Feature","geometry":{"type":"Point","coordinates":[-1.4028312,43.1673621]},"properties":{"historic":"boundary_stone","name":"Mugarrien 95. zenbakia","name:fr":"Borne frontière #95"}},
{"type":"Feature","geometry":{"type":"Point","coordinates":[-1.403517,43.1637026]},"properties":{"historic":"boundary_stone","name":"Mugarrien 96. zenbakia","name:fr":"Borne frontière #96"}},
{"type":"Feature","geometry":{"type":"Point","coordinates":[-1.4042344,43.1635014]},"properties":{"historic":"boundary_stone","name":"Mugarrien 97. zenbakia"}},
{"type":"Feature","geometry":{"type":"Point","coordinates":[-1.4040092,43.1606545]},"properties":{"historic":"boundary_stone","name":"Mugarrien 98. zenbakia","name:fr":"Borne frontière #98"}},
{"type":"Feature","geometry":{"type":"Point","coordinates":[-1.4023621,43.1582411]},"properties":{"historic":"boundary_stone","name":"Mugarrien 99. zenbakia","name:fr":"Borne frontière #99"}},
{"type":"Feature","geometry":{"type":"Point","coordinates":[-1.4021337,43.1557637]},"properties":{"historic":"boundary_stone","name":"Mugarrien 100. zenbakia","name:fr":"Borne frontière #100"}},
{"type":"Feature","geometry":{"type":"Point","coordinates":[-1.4040831,43.1551762]},"properties":{"historic":"boundary_stone","name":"Mugarrien 101. zenbakia","name:fr":"Borne frontière #101"}},
{"type":"Feature","geometry":{"type":"Point","coordinates":[-1.4088679,43.1546486]},"properties":{"historic":"boundary_stone","name":"Mugarrien 103. zenbakia","name:fr":"Borne frontière #103"}},