{"type":"FeatureCollection","features":[
{"type":"Feature","geometry":{"type":"Point","coordinates":[-0.6037206,42.9524166]},"properties":{"name":"Pic de Pèneblangue d'Esque","name:oc":"Pic dera Pena Blanga d'Esca","natural":"peak","source:name:oc":"Lo Congrès"}},
{"type":"Feature","geometry":{"type":"Point","coordinates":[-0.6032693,43.0217377]},"properties":{"name":"chablis dégagé 30cmd","natural":"tree"}},
{"type":"Feature","geometry":{"type":"Point","coordinates":[-0.6001642,42.9767487]},"properties":{"historic":"wayside_cross","name":"Croix d'Espiate"}},
{"type":"Feature","geometry":{"type":"Point","coordinates":[-0.5967173,42.9739413]},"properties":{"information":"guidepost","tourism":"information"}},
{"type":"Feature","geometry":{"type":"Point","coordinates":[-0.5983526,42.974258]},"properties":{"information":"guidepost","tourism":"information"}},
{"type":"Feature","geometry":{"type":"Point","coordinates":[-0.5953635,42.9750736]},"properties":{"ele":"530","information":"guidepost","name":"Poey versant Sud","tourism":"information"}},
{"type":"Feature","geometry":{"type":"Point","coordinates":[-0.5957486,42.9747722]},"properties":{"information":"guidepost","tourism":"information"}},
{"type":"Feature","geometry":{"type":"Point","coordinates":[-0.5937736,42.9806493]},"properties":{"information":"guidepost","tourism":"information"}},
{"type":"Feature","geometry":{"type":"Point","coordinates":[-0.5938162,42.9809752]},"properties":{"information":"guidepost","tourism":"information"}},
{"type":"Feature","geometry":{"type":"Point","coordinates":[-0.5952546,42.9851169]},"properties":{"information":"guidepost","name":"Voie d'Arles","tourism":"information"}},
{"type":"Feature","geometry":{"type":"Point","coordinates":[-0.6091646,42.9974448]},"properties":{"ele":"424","information":"guidepost","name":"Abri Bus d'Osse","operator":"Commune d'Osse-en-Aspe","source":"survey","tourism":"information"}},
{"type":"Feature","geometry":{"type":"Point","coordinates":[-0.5949484,42.9962831]},"properties":{"information":"guidepost","tourism":"information"}},
{"type":"Feature","geometry":{"type":"Point","coordinates":[-0.5943986,42.9968762]},"properties":{"information":"guidepost","tourism":"information"}},
{"type":"Feature","geometry":{"type":"Point","coordinates":[-0.6057127,43.0051568]},"properties":{"ele":"413","information":"guidepost","name":"Carrière d'Ophite de Noucarrou","operator":"Commune d'Osse-en-Aspe","source":"survey","tourism":"information"}},
{"type":"Feature","geometry":{"type":"Point","coordinates":[-0.6083919,43.0015259]},"properties":{"ele":"424","information":"guidepost","name":"Abrevoirs d'Areille-Secout","operator":"Commune d'Osse-en-Aspe","source":"survey","tourism":"information"}},
{"type":"Feature","geometry":{"type":"Point","coordinates":[-0.6058755,43.0343899]},"properties":{"information":"guidepost","name":"Voie d'Arles","tourism":"information"}},
{"type":"Feature","geometry":{"type":"Point","coordinates":[-0.6062722,43.0365801]},"properties":{"information":"guidepost","name":"Voie d'Arles","tourism":"information"}},
{"type":"Feature","geometry":{"type":"Point","coordinates":[-0.600207,43.0417654]},"properties":{"historic":"archaeological_site","name":"Encorbellement du Mail de Couret"}},
{"type":"Feature","geometry":{"type":"Point","coordinates":[-0.6006056,43.0467627]},"properties":{"information":"guidepost","tourism":"information"}},
{"type":"Feature","geometry":{"type":"Point","coordinates":[-0.6030567,42.9946895]},"properties":{"leisure":"sports_centre","name":"Salle Polyvalente"}},
{"type":"Feature","geometry":{"type":"Point","coordinates":[-0.6033608,43.044921]},"properties":{"name":"souche ancienne","natural":"tree"}},
{"type":"Feature","geometry":{"type":"Point","coordinates":[-0.605549,42.9773372]},"properties":{"contact:phone":"+33 5 59 34 50 06","contact:website":"https://www.air-attitude.com/","free_flying:school":"yes","free_flying:tandem":"yes","leisure":"sports_centre","name":"Air Attitude","sport":"free_flying","wheelchair":"yes"}},
{"type":"Feature","geometry":{"type":"Point","coordinates":[-0.6064925,42.9773892]},"properties":{"name":"Fromagerie Les Fermiers Basco-Béarnais","shop":"farm","tourism":"museum","wheelchair":"limited"}},
{"type":"Feature","geometry":{"type":"Point","coordinates":[-0.6003608,42.9737304]},"properties":{"check_date":"2024-12-01","check_date:internet_access":"2024-12-01","internet_access":"wlan","name":"L'Arrayade","tourism":"guest_house"}},
{"type":"Feature","geometry":{"type":"Point","coordinates":[-0.6012795,42.9749064]},"properties":{"name":"Carricart","tourism":"guest_house"}},
{"type":"Feature","geometry":{"type":"Point","coordinates":[-0.5996853,42.975919]},"properties":{"contact:phone":"+33 5 59 34 52 07","contact:website":"https://www.ascendance.fr/","free_flying:school":"yes","free_flying:tandem":"yes","leisure":"sports_centre","name":"Ascendance","sport":"free_flying"}},
{"type":"Feature","geometry":{"type":"Point","coordinates":[-0.5948477,42.9777987]},"properties":{"ele":"630","name":"Le Poey","name:oc":"Eth Puei","natural":"peak","source:name:oc":"Lo Congrès"}},
{"type":"Feature","geometry":{"type":"Point","coordinates":[-0.5948575,42.9777936]},"properties":{"historic":"wayside_cross","man_made":"cross","name":"Calvaire"}},
{"type":"Feature","geometry":{"type":"Point","coordinates":[-0.5985203,42.9800403]},"properties":{"information":"guidepost","tourism":"information"}},
{"type":"Feature","geometry":{"type":"Point","coordinates":[-0.5985204,42.9801536]},"properties":{"information":"guidepost","tourism":"information"}},
{"type":"Feature","geometry":{"type":"Point","coordinates":[-0.589088,42.9904028]},"properties":{"information":"guidepost","tourism":"information"}},
{"type":"Feature","geometry":{"type":"Point","coordinates":[-0.5893378,42.9972732]},"properties":{"name":"La Roche qui Pleure","name:oc":"Era Pena Ploradora","natural":"spring","place":"locality","source:name:oc":"Lo Congrès"}},
{"type":"Feature","geometry":{"type":"Point","coordinates":[-0.5550625,42.9886296]},"properties":{"information":"guidepost","tourism":"information"}},
{"type":"Feature","geometry":{"type":"Point","coordinates":[-0.5519994,42.9908645]},"properties":{"description":"jalon","information":"guidepost","tourism":"information"}},
{"type":"Feature","geometry":{"type":"Point","coordinates":[-0.5516798,42.9908302]},"properties":{"information":"guidepost","tourism":"information"}},
{"type":"Feature","geometry":{"type":"Point","coordinates":[-0.5426972,43.0008019]},"properties":{"description":"jalon","information":"guidepost","tourism":"information"}},
{"type":"Feature","geometry":{"type":"Point","coordinates":[-0.5424982,43.0011451]},"properties":{"description":"jalon","information":"guidepost","tourism":"information"}},
{"type":"Feature","geometry":{"type":"Point","coordinates":[-0.5407253,43.0018685]},"properties":{"historic":"wayside_cross","name":"Croix d'Acot"}},
{"type":"Feature","geometry":{"type":"Point","coordinates":[-0.5892748,42.9971867]},"properties":{"information":"guidepost","tourism":"information"}},
{"type":"Feature","geometry":{"type":"Point","coordinates":[-0.5768754,42.997112]},"properties":{"information":"guidepost","name":"Variante par Sarrot Carboué","tourism":"information"}},
{"type":"Feature","geometry":{"type":"Point","coordinates":[-0.5771472,43.0001709]},"properties":{"information":"guidepost","tourism":"information"}},
{"type":"Feature","geometry":{"type":"Point","coordinates":[-0.5760578,43.0002904]},"properties":{"name":"Fontaine d'Orbe","name:oc":"Hondòrba","natural":"spring","source:name:oc":"Lo Congrès"}},
{"type":"Feature","geometry":{"type":"Point","coordinates":[-0.5750879,42.9997522]},"properties":{"information":"guidepost","name":"Variante par Sarrot Carboué","tourism":"information"}},
{"type":"Feature","geometry":{"type":"Point","coordinates":[-0.5753924,42.9996786]},"properties":{"name":"Source d'Ourtaig","name:oc":"Uelh d'Orteig","natural":"spring","source:name:oc":"Lo Congrès"}},
{"type":"Feature","geometry":{"type":"Point","coordinates":[-0.5750469,42.9998622]},"properties":{"mountain_pass":"yes","name":"Cotch de la Mina","name:oc":"Còth dera Mina","natural":"saddle","source:name:oc":"Lo Congrès"}},
{"type":"Feature","geometry":{"type":"Point","coordinates":[-0.5737121,42.9985158]},"properties":{"information":"guidepost","tourism":"information"}},
{"type":"Feature","geometry":{"type":"Point","coordinates":[-0.5920689,43.0020244]},"properties":{"description":"en regardant d'est en ouest, vue sur le Vallon de Bedous","information":"map","map_type":"toposcope","name":"Table d'Orientation de Bedous","source":"Bing ; knowledge","tourism":"viewpoint"}},
{"type":"Feature","geometry":{"type":"Point","coordinates":[-0.5920125,43.0021798]},"properties":{"board_type":"geology","description":"panneau d'interprétation géologique","information":"board","name":"Géolval RGTP Bedous","source":"survey","tourism":"information","website":"http://rgtp.geolval.fr/home_f.php?seccion=panneau&img=bedous&name=1%20de%20Bedous"}},
{"type":"Feature","geometry":{"type":"Point","coordinates":[-0.5918889,43.0020418]},"properties":{"ele":"665","information":"guidepost","name":"Table d'Orientation","tourism":"information"}},
{"type":"Feature","geometry":{"type":"Point","coordinates":[-0.5792111,43.0084711]},"properties":{"name":"Mailh Agor","name:oc":"Malh Agòr","natural":"peak","source:name:oc":"Lo Congrès"}},
{"type":"Feature","geometry":{"type":"Point","coordinates":[-0.5759805,43.0111801]},"properties":{"ele":"1429","mountain_pass":"yes","natural":"saddle"}},
{"type":"Feature","geometry":{"type":"Point","coordinates":[-0.586556,43.0154664]},"properties":{"ele":"1136","historic":"ruins","name":"Cabane Vieille de Castéruch","name:oc":"Capana Vielha de Castèthruche","source":"survey","source:name:oc":"Lo Congrès"}},
{"type":"Feature","geometry":{"type":"Point","coordinates":[-0.5747608,43.0131295]},"properties":{"mountain_pass":"yes","natural":"saddle"}},
{"type":"Feature","geometry":{"type":"Point","coordinates":[-0.574302,43.0132106]},"properties":{"ele":"1461","historic":"ruins","name":"Cabane Sud de Sept Chanchous","name:oc":"Capana Sud deras Sèt Chanchas","source":"survey, Bing","source:name:oc":"Lo Congrès"}},
{"type":"Feature","geometry":{"type":"Point","coordinates":[-0.5750718,43.0171045]},"properties":{"ele":"1565","name":"Pic des Taulères","name:oc":"Pic deras Taulèras","natural":"peak","source:name:oc":"Lo Congrès"}},
{"type":"Feature","geometry":{"type":"Point","coordinates":[-0.5659334,43.0028984]},"properties":{"mountain_pass":"yes","name":"Col de Piau","name:oc":"Còth deth Piau","natural":"saddle","source:name:oc":"Lo Congrès"}},
{"type":"Feature","geometry":{"type":"Point","coordinates":[-0.5683066,43.0006317]},"properties":{"name":"Fontaine d'Horotpon","name:oc":"Hondan deth Horat Pon","natural":"spring","source:name:oc":"Lo Congrès"}},
{"type":"Feature","geometry":{"type":"Point","coordinates":[-0.5643698,43.0012644]},"properties":{"name":"source de Berriet","name:oc":"Uelh de Berriet","natural":"spring","source:name:oc":"Lo Congrès"}},
{"type":"Feature","geometry":{"type":"Point","coordinates":[-0.5583647,43.0030053]},"properties":{"information":"guidepost","tourism":"information"}},
{"type":"Feature","geometry":{"type":"Point","coordinates":[-0.5469099,43.002609]},"properties":{"information":"guidepost","tourism":"information"}},
{"type":"Feature","geometry":{"type":"Point","coordinates":[-0.5441078,43.0010798]},"properties":{"information":"guidepost","tourism":"information"}},
{"type":"Feature","geometry":{"type":"Point","coordinates":[-0.5432557,43.0014895]},"properties":{"information":"guidepost","tourism":"information"}},
{"type":"Feature","geometry":{"type":"Point","coordinates":[-0.5301899,43.0002193]},"properties":{"historic":"ruins","name":"Les Bains de Chechit","name:oc":"Eths Banhs de Chichit","place":"isolated_dwelling","source:name:oc":"Lo Congrès"}},
{"type":"Feature","geometry":{"type":"Point","coordinates":[-0.5528101,42.9842448]},"properties":{"information":"guidepost","tourism":"information"}},
{"type":"Feature","geometry":{"type":"Point","coordinates":[-0.5528135,42.9847196]},"properties":{"name":"Cap de la Coste","name:oc":"Cap dera Còsta","natural":"peak","source:name:oc":"Lo Congrès"}},
{"type":"Feature","geometry":{"type":"Point","coordinates":[-0.5525644,42.9844894]},"properties":{"historic":"ruins","name":"Cabane du Cap de la Coste (Ruine)","name:oc":"Capana deth Cap dera Còsta arroeinada","source:name:oc":"Lo Congrès"}},
{"type":"Feature","geometry":{"type":"Point","coordinates":[-0.5579272,42.9902062]},"properties":{"description":"jalon","information":"guidepost","tourism":"information"}},
{"type":"Feature","geometry":{"type":"Point","coordinates":[-0.5573477,42.9905199]},"properties":{"name":"chablis 45cmd déjà tronçonné","natural":"tree"}},
{"type":"Feature","geometry":{"type":"Point","coordinates":[-0.5882613,42.9729409]},"properties":{"description":"jalon","information":"guidepost","tourism":"information"}},
{"type":"Feature","geometry":{"type":"Point","coordinates":[-0.5883806,42.973698]},"properties":{"information":"guidepost","tourism":"information"}},
{"type":"Feature","geometry":{"type":"Point","coordinates":[-0.566063,42.9666681]},"properties":{"information":"guidepost","tourism":"information"}},
{"type":"Feature","geometry":{"type":"Point","coordinates":[-0.562179,42.9651556]},"properties":{"description":"jalon","information":"guidepost","tourism":"information"}},
{"type":"Feature","geometry":{"type":"Point","coordinates":[-0.5600841,42.9648129]},"properties":{"information":"guidepost","tourism":"information"}},
{"type":"Feature","geometry":{"type":"Point","coordinates":[-0.5243831,42.9517804]},"properties":{"information":"guidepost","tourism":"information"}},
{"type":"Feature","geometry":{"type":"Point","coordinates":[-0.520191,42.9519433]},"properties":{"ele":"1829","mountain_pass":"yes","name":"Col d'Iseye","name:oc":"Còyth d'Iseia","natural":"saddle","source:name:oc":"Lo Congrès"}},
{"type":"Feature","geometry":{"type":"Point","coordinates":[-0.5941935,42.9736794]},"properties":{"information":"guidepost","tourism":"information"}},
{"type":"Feature","geometry":{"type":"Point","coordinates":[-0.593676,42.974482]},"properties":{"description":"jalon","information":"guidepost","tourism":"information"}},
{"type":"Feature","geometry":{"type":"Point","coordinates":[-0.5876575,42.9736498]},"properties":{"information":"guidepost","tourism":"information"}},
{"type":"Feature","geometry":{"type":"Point","coordinates":[-0.5769652,42.972312]},"properties":{"information":"guidepost","tourism":"information"}},
{"type":"Feature","geometry":{"type":"Point","coordinates":[-0.5799065,42.9743924]},"properties":{"information":"guidepost","tourism":"information"}},
{"type":"Feature","geometry":{"type":"Point","coordinates":[-0.580521,42.9747686]},"properties":{"description":"jalon","information":"guidepost","tourism":"information"}},
{"type":"Feature","geometry":{"type":"Point","coordinates":[-0.5794161,42.9742994]},"properties":{"information":"guidepost","tourism":"information"}},
{"type":"Feature","geometry":{"type":"Point","coordinates":[-0.5688133,42.9671117]},"properties":{"information":"guidepost","name":"fin itinéraire","tourism":"information"}},
{"type":"Feature","geometry":{"type":"Point","coordinates":[-0.5684954,42.9728307]},"properties":{"information":"guidepost","tourism":"information"}},
{"type":"Feature","geometry":{"type":"Point","coordinates":[-0.5654758,42.9713629]},"properties":{"information":"guidepost","tourism":"information"}},
{"type":"Feature","geometry":{"type":"Point","coordinates":[-0.56045,42.9751485]},"properties":{"description":"jalon","information":"guidepost","tourism":"information"}},
{"type":"Feature","geometry":{"type":"Point","coordinates":[-0.563481,42.9763512]},"properties":{"ele":"1170","mountain_pass":"yes","name":"Col de Bergout","name:oc":"Còth de Bergot","natural":"saddle","source:name:oc":"Lo Congrès"}},
{"type":"Feature","geometry":{"type":"Point","coordinates":[-0.5631315,42.9761371]},"properties":{"information":"guidepost","tourism":"information"}},
{"type":"Feature","geometry":{"type":"Point","coordinates":[-0.5602856,42.9752201]},"properties":{"description":"jalon","information":"guidepost","tourism":"information"}},
{"type":"Feature","geometry":{"type":"Point","coordinates":[-0.5637841,42.9835236]},"properties":{"information":"guidepost","tourism":"information"}},
{"type":"Feature","geometry":{"type":"Point","coordinates":[-0.5685666,42.9893374]},"properties":{"description":"jalon","information":"guidepost","tourism":"information"}},
{"type":"Feature","geometry":{"type":"Point","coordinates":[-0.5665685,42.9884913]},"properties":{"description":"jalon","information":"guidepost","tourism":"information"}},
{"type":"Feature","geometry":{"type":"Point","coordinates":[-0.5644296,42.9845147]},"properties":{"name":"chablis dégagés 2x15cmd","natural":"tree"}},
{"type":"Feature","geometry":{"type":"Point","coordinates":[-0.5620681,42.9840789]},"properties":{"name":"L'Oueil de Louise","name:oc":"Er Uelh de Loisa","natural":"spring","source:name:oc":"Lo Congrès"}},
{"type":"Feature","geometry":{"type":"Point","coordinates":[-0.564363,42.9874523]},"properties":{"historic":"ruins","name":"Borde de Casteigbou (ruine)","name:oc":"Bòrda de Castèthbon arroeinada","source:name:oc":"Lo Congrès"}},
{"type":"Feature","geometry":{"type":"Point","coordinates":[-0.5623504,42.9883848]},"properties":{"historic":"ruins","name":"Borde de Milhas (ruine)","name:oc":"Bòrda de Milhàs arroeinada","source:name:oc":"Lo Congrès"}},
{"type":"Feature","geometry":{"type":"Point","coordinates":[-0.5711212,42.9814691]},"properties":{"ele":"1220","name":"Soum de Bergout","name:oc":"Som de Bergot","natural":"peak","source:name:oc":"Lo Congrès"}},
{"type":"Feature","geometry":{"type":"Point","coordinates":[-0.56902,42.9729465]},"properties":{"alt_name":"fontaine des Cagots","amenity":"fountain","name":"fontaine de Saint-Christau","name:hu":"Szent Kristóf forrás","name:oc":"Hondan de Sent Cristau","natural":"spring","source:name:oc":"Lo Congrès"}},
{"type":"Feature","geometry":{"type":"Point","coordinates":[-0.5449213,43.0052178]},"properties":{"description":"jalon","information":"guidepost","tourism":"information"}},
{"type":"Feature","geometry":{"type":"Point","coordinates":[-0.5425985,43.0031013]},"properties":{"information":"guidepost","tourism":"information"}},
{"type":"Feature","geometry":{"type":"Point","coordinates":[-0.5428479,43.006138]},"properties":{"description":"jalon","information":"guidepost","tourism":"information"}},
{"type":"Feature","geometry":{"type":"Point","coordinates":[-0.5414032,43.0159916]},"properties":{"ele":"1604","name":"Soum de Pétraube","name:oc":"Som de Petrauba","natural":"peak","source:name:oc":"Lo Congrès"}},
{"type":"Feature","geometry":{"type":"Point","coordinates":[-0.540356,43.0148145]},"properties":{"name":"Mailh de la Cabille","name:oc":"Malh dera Cavilha","natural":"peak","source:name:oc":"Lo Congrès"}},
{"type":"Feature","geometry":{"type":"Point","coordinates":[-0.5409201,43.0155091]},"properties":{"mountain_pass":"yes","name":"Pas de Pétraube","name:oc":"Pas de Petrauba","natural":"saddle","source:name:oc":"Lo Congrès"}},
{"type":"Feature","geometry":{"type":"Point","coordinates":[-0.5367724,43.0157219]},"properties":{"historic":"ruins","name":"cabane d'Ilhurté (ruine)","name:oc":"Capana d'Ilhurte arroeinada","source":"Bing","source:name:oc":"Lo Congrès"}},
{"type":"Feature","geometry":{"type":"Point","coordinates":[-0.5362882,43.0167797]},"properties":{"mountain_pass":"yes","name":"Pas d'Ilhurté","name:oc":"Pas d'Ilurpe","natural":"saddle","source:name:oc":"Lo Congrès"}},
{"type":"Feature","geometry":{"type":"Point","coordinates":[-0.5362976,43.0167804]},"properties":{"ele":"1570","hiking":"yes","information":"guidepost","name":"Pas d'Ilhurté","operator":"Commune d'Aydius","tourism":"information"}},
{"type":"Feature","geometry":{"type":"Point","coordinates":[-0.5254111,43.0203518]},"properties":{"ele":"1609","hiking":"yes","information":"guidepost","name":"Col deth Uelhet","operator":"Commune d'Aydius","ref":"asp100","tourism":"information"}},
{"type":"Feature","geometry":{"type":"Point","coordinates":[-0.525606,43.020226]},"properties":{"mountain_pass":"yes","name":"Pas det Oeilher","name:oc":"Còth deth Uelhet","natural":"saddle","source:name:oc":"ieo-bdtopoc"}},
{"type":"Feature","geometry":{"type":"Point","coordinates":[-0.5202538,43.0226306]},"properties":{"name":"Gouffre","natural":"cave_entrance"}},
{"type":"Feature","geometry":{"type":"Point","coordinates":[-0.5967535,42.9984708]},"properties":{"information":"guidepost","name":"borne","tourism":"information"}},
{"type":"Feature","geometry":{"type":"Point","coordinates":[-0.5927982,42.995409]},"properties":{"information":"guidepost","tourism":"information"}},
{"type":"Feature","geometry":{"type":"Point","coordinates":[-0.5854058,42.9952953]},"properties":{"name":"souche ancienne","natural":"tree"}},
{"type":"Feature","geometry":{"type":"Point","coordinates":[-0.5789687,42.9958353]},"properties":{"name":"chablis ouvert en 2010 chêne 60cmd & souche","natural":"tree"}},
{"type":"Feature","geometry":{"type":"Point","coordinates":[-0.6101552,42.991466]},"properties":{"barrier":"block"}},
{"type":"Feature","geometry":{"type":"Point","coordinates":[-0.5470125,43.0091459]},"properties":{"information":"guidepost","name":"réservé aux riverains","tourism":"information"}},
{"type":"Feature","geometry":{"type":"Point","coordinates":[-0.5445705,43.0117382]},"properties":{"name":"chablis 30cmd","natural":"tree"}},
{"type":"Feature","geometry":{"type":"Point","coordinates":[-0.6048687,43.0453996]},"properties":{"historic":"castle","name":"Tour de Notre-Dame de la Paix"}},
{"type":"Feature","geometry":{"type":"Point","coordinates":[-0.5869552,42.9806047]},"properties":{"information":"guidepost","tourism":"information"}},
{"type":"Feature","geometry":{"type":"Point","coordinates":[-0.5624237,42.9856994]},"properties":{"name":"Hount de la Pucelle","name:oc":"Hont dera Piucèla","natural":"spring","source:name:oc":"Lo Congrès"}},
{"type":"Feature","geometry":{"type":"Point","coordinates":[-0.5477853,42.9915577]},"properties":{"name":"fontaine de Lezibat","name:oc":"Hondan de Lesibat","natural":"spring","source:name:oc":"Lo Congrès"}},
{"type":"Feature","geometry":{"type":"Point","coordinates":[-0.5445138,42.9939721]},"properties":{"historic":"ruins","name":"Lées-Lapou (ruines)","name:oc":"Lés e La Pau","ruins":"yes","source:name:oc":"Lo Congrès"}},
{"type":"Feature","geometry":{"type":"Point","coordinates":[-0.605211,43.0312794]},"properties":{"name":"Fontaine","name:oc":"Hondan","natural":"spring","source:name:oc":"Lo Congrès"}},
{"type":"Feature","geometry":{"type":"Point","coordinates":[-0.5877973,42.9345272]},"properties":{"description":"Jalon","information":"guidepost","tourism":"information"}},
{"type":"Feature","geometry":{"type":"Point","coordinates":[-0.601783,42.9529153]},"properties":{"ele":"1132","name":"Col de Pèneblangue","name:oc":"Còth dera Pena Blanca","natural":"saddle","source:name:oc":"Lo Congrès"}},
{"type":"Feature","geometry":{"type":"Point","coordinates":[-0.5408396,42.9416452]},"properties":{"mountain_pass":"yes","name":"Col de Ronglet","name:oc":"Còth de Ronglet","natural":"saddle","source:name:oc":"Lo Congrès"}},
{"type":"Feature","geometry":{"type":"Point","coordinates":[-0.5898304,43.0012532]},"properties":{"name":"Fontaine d'Esquisouse","name:oc":"Hondan der' Esquisosa","natural":"spring","source:name:oc":"Lo Congrès"}},
{"type":"Feature","geometry":{"type":"Point","coordinates":[-0.5808571,43.0012705]},"properties":{"name":"Fontaine de Lées","name:oc":"Hondan de Lées","natural":"spring","source:name:oc":"Lo Congrès"}},
{"type":"Feature","geometry":{"type":"Point","coordinates":[-0.5813665,43.0014276]},"properties":{"historic":"ruins","name":"Ruine","name:oc":"Arroeina","source:name:oc":"Lo Congrès"}},
{"type":"Feature","geometry":{"type":"Point","coordinates":[-0.587347,43.0131625]},"properties":{"name":"Abreuvoir","name:oc":"Tòs","natural":"spring","source:name:oc":"Lo Congrès"}},
{"type":"Feature","geometry":{"type":"Point","coordinates":[-0.5745143,42.9961583]},"properties":{"mountain_pass":"yes","name":"Sarrot Carboué","name:oc":"Sarròt Carboèr","natural":"saddle","source:name:oc":"Lo Congrès"}},
{"type":"Feature","geometry":{"type":"Point","coordinates":[-0.574616,42.996183]},"properties":{"description":"Jalon","information":"guidepost","tourism":"information"}},
{"type":"Feature","geometry":{"type":"Point","coordinates":[-0.5743973,42.9966534]},"properties":{"name":"Vue sur l'Ardoisière et le Vallon","tourism":"viewpoint"}},
{"type":"Feature","geometry":{"type":"Point","coordinates":[-0.5758055,42.9978412]},"properties":{"natural":"tree_stump"}},
{"type":"Feature","geometry":{"type":"Point","coordinates":[-0.5287533,42.9690186]},"properties":{"ele":"2148","name":"Pic de Bergon","name:oc":"Pic de Bergon","natural":"peak","source:name:oc":"Lo Congrès"}},
{"type":"Feature","geometry":{"type":"Point","coordinates":[-0.4987499,42.9653817]},"properties":{"ele":"2188","name":"Pic Mardas","name:oc":"Pic Mardàs","natural":"peak","source:name:oc":"Lo Congrès"}},
{"type":"Feature","geometry":{"type":"Point","coordinates":[-0.4978599,42.969433]},"properties":{"ele":"2173","name":"Montagnon d'Iseye","name:oc":"Montanhon d'Iseia","natural":"peak","source:name:oc":"Lo Congrès"}},
{"type":"Feature","geometry":{"type":"Point","coordinates":[-0.4933608,42.966127]},"properties":{"ele":"2076","name":"L'Escala","name:oc":"Er' Escala","natural":"peak","source:name:oc":"Lo Congrès"}},
{"type":"Feature","geometry":{"type":"Point","coordinates":[-0.5774285,42.9953511]},"properties":{"name":"Cascade de la Route d'Aydius","name:oc":"Chorrèra dera Rota d'Aidius","natural":"spring","source:name:oc":"Lo Congrès"}},
{"type":"Feature","geometry":{"type":"Point","coordinates":[-0.565311,42.9926241]},"properties":{"name":"Fontaine de Fringan","name:oc":"Hondan de Fringan","natural":"spring","source:name:oc":"Lo Congrès"}},
{"type":"Feature","geometry":{"type":"Point","coordinates":[-0.5726642,42.994868]},"properties":{"name":"chablis 15cmd","natural":"tree"}},
{"type":"Feature","geometry":{"type":"Point","coordinates":[-0.5854545,42.939008]},"properties":{"barrier":"gate"}},
{"type":"Feature","geometry":{"type":"Point","coordinates":[-0.5860312,42.9392456]},"properties":{"board_type":"geology","description":"panneau d'interprétation géologique","information":"board","name":"Géolval RGTP Cette","source":"survey","tourism":"information","website":"http://rgtp.geolval.fr/home_f.php?seccion=panneau&img=cette&name=1%20de%20Cette"}},
{"type":"Feature","geometry":{"type":"Point","coordinates":[-0.5856839,42.9392817]},"properties":{"barrier":"gate"}},
{"type":"Feature","geometry":{"type":"Point","coordinates":[-0.5966628,42.978404]},"properties":{"description":"en regardant du nord au sud, vue sur le Vallon de Bedous","information":"map","map_type":"toposcope","name":"Table d'Orientation du Poey","tourism":"viewpoint","wheelchair":"no"}},
{"type":"Feature","geometry":{"type":"Point","coordinates":[-0.5946122,42.9388752]},"properties":{"information":"guidepost","tourism":"information"}},
{"type":"Feature","geometry":{"type":"Point","coordinates":[-0.5930157,42.937437]},"properties":{"description":"Jalon","information":"guidepost","tourism":"information"}},
{"type":"Feature","geometry":{"type":"Point","coordinates":[-0.533765,42.9992039]},"properties":{"information":"guidepost","tourism":"information"}},
{"type":"Feature","geometry":{"type":"Point","coordinates":[-0.5440425,42.9997936]},"properties":{"information":"guidepost","name":"Sivom","tourism":"information"}},
{"type":"Feature","geometry":{"type":"Point","coordinates":[-0.5412443,42.9978135]},"properties":{"information":"guidepost","tourism":"information"}},
{"type":"Feature","geometry":{"type":"Point","coordinates":[-0.5407106,42.99828]},"properties":{"information":"guidepost","tourism":"information"}},
{"type":"Feature","geometry":{"type":"Point","coordinates":[-0.5433017,43.0010261]},"properties":{"name":"Fontaine d'Escraps","name:oc":"Hondan deths Craps","natural":"spring","source:name:oc":"Lo Congrès"}},
{"type":"Feature","geometry":{"type":"Point","coordinates":[-0.5336985,42.9992352]},"properties":{"name":"Fontaine","name:oc":"Hondan","natural":"spring","source:name:oc":"Lo Congrès"}},
{"type":"Feature","geometry":{"type":"Point","coordinates":[-0.5413349,42.9985429]},"properties":{"description":"Jalon","information":"guidepost","tourism":"information"}},
{"type":"Feature","geometry":{"type":"Point","coordinates":[-0.5390909,42.9980063]},"properties":{"description":"Jalon","information":"guidepost","tourism":"information"}},
{"type":"Feature","geometry":{"type":"Point","coordinates":[-0.5398307,43.0023841]},"properties":{"information":"guidepost","tourism":"information"}},
{"type":"Feature","geometry":{"type":"Point","coordinates":[-0.5398018,43.0047539]},"properties":{"description":"Jalon","information":"guidepost","source":"survey","tourism":"information"}},
{"type":"Feature","geometry":{"type":"Point","coordinates":[-0.5417026,42.9987777]},"properties":{"information":"guidepost","tourism":"information"}},
{"type":"Feature","geometry":{"type":"Point","coordinates":[-0.5386986,42.9983158]},"properties":{"description":"Jalon","information":"guidepost","tourism":"information"}},
{"type":"Feature","geometry":{"type":"Point","coordinates":[-0.5786191,42.9693677]},"properties":{"information":"guidepost","tourism":"information"}},
{"type":"Feature","geometry":{"type":"Point","coordinates":[-0.6021467,42.9945264]},"properties":{"historic":"wayside_cross"}},
{"type":"Feature","geometry":{"type":"Point","coordinates":[-0.5852247,42.9869176]},"properties":{"name":"Gros Châtaignier","natural":"tree"}},
{"type":"Feature","geometry":{"type":"Point","coordinates":[-0.5860635,42.9821613]},"properties":{"name":"Bourbier","name:oc":"Gravassar","natural":"spring","source:name:oc":"Lo Congrès"}},
{"type":"Feature","geometry":{"type":"Point","coordinates":[-0.5863022,42.9815519]},"properties":{"alt_name":"Gîte Equestre","amenity":"stables","name":"L’Auberge cavalière","phone":"+33 5 59 34 72 30","tourism":"trail_riding_station","website":"http://www.auberge-cavaliere.com"}},
{"type":"Feature","geometry":{"type":"Point","coordinates":[-0.5871959,42.9749584]},"properties":{"information":"guidepost","tourism":"information"}},
{"type":"Feature","geometry":{"type":"Point","coordinates":[-0.585401,42.9807578]},"properties":{"name":"chablis sec 40cmd","natural":"tree"}},
{"type":"Feature","geometry":{"type":"Point","coordinates":[-0.5864039,42.9805255]},"properties":{"information":"guidepost","tourism":"information"}},
{"type":"Feature","geometry":{"type":"Point","coordinates":[-0.5880652,42.9745682]},"properties":{"description":"Jalon","information":"guidepost","tourism":"information"}},
{"type":"Feature","geometry":{"type":"Point","coordinates":[-0.5826667,42.9763938]},"properties":{"information":"map","map_type":"toposcope","name":"Le Cassiau","tourism":"information"}},
{"type":"Feature","geometry":{"type":"Point","coordinates":[-0.5804865,42.9756123]},"properties":{"name":"Source de Gabercen","name:oc":"Uelh de Gabersen","natural":"spring","source:name:oc":"Lo Congrès"}},
{"type":"Feature","geometry":{"type":"Point","coordinates":[-0.5858599,42.9549595]},"properties":{"ele":"1668","name":"Pic d'Era Paou","name:oc":"Pic dera Pau","natural":"peak","source":"Bing","source:name:oc":"Lo Congrès"}},
{"type":"Feature","geometry":{"type":"Point","coordinates":[-0.5953093,42.9543645]},"properties":{"name":"Fontaine de Lacure","name:oc":"Hondan de Lacura","natural":"spring","source:name:oc":"Lo Congrès"}},
{"type":"Feature","geometry":{"type":"Point","coordinates":[-0.5811258,42.9542787]},"properties":{"mountain_pass":"yes","name":"Brêche de l'Ours","name:oc":"Breca der Ors","natural":"saddle","source":"Bing","source:name:oc":"Lo Congrès"}},
{"type":"Feature","geometry":{"type":"Point","coordinates":[-0.5917091,42.9492242]},"properties":{"ele":"1345","name":"Cot Dous Thèses","name:oc":"Còth deus Tès","natural":"peak","source":"survey","source:name:oc":"Lo Congrès"}},
{"type":"Feature","geometry":{"type":"Point","coordinates":[-0.5965948,42.9557977]},"properties":{"ele":"1282","name":"Pic de Narbissat","name:oc":"Pic de Narbissat","natural":"peak","source":"survey","source:name:oc":"Lo Congrès"}},
{"type":"Feature","geometry":{"type":"Point","coordinates":[-0.5380626,43.0006614]},"properties":{"name":"Chablis 40 Cmd souche en amont","natural":"tree"}},
{"type":"Feature","geometry":{"type":"Point","coordinates":[-0.4931011,42.9682077]},"properties":{"ele":"2125","natural":"peak","source":"Bing;cadastre-dgi-fr source : Direction Générale des Impôts - Cadastre. Mise à jour : 2012"}},
{"type":"Feature","geometry":{"type":"Point","coordinates":[-0.4928987,42.9556703]},"properties":{"ele":"2000","name":"Pic de Montaut","name:oc":"Pic de Montau","natural":"peak","source":"Bing;cadastre-dgi-fr source : Direction Générale des Impôts - Cadastre. Mise à jour : 2012","source:name:oc":"Lo Congrès"}},
{"type":"Feature","geometry":{"type":"Point","coordinates":[-0.5056558,42.934278]},"properties":{"ele":"2121","name":"Pic de la Ténèbre","name:oc":"Pic dera Tenèbra","natural":"peak","source":"Bing;cadastre-dgi-fr source : Direction Générale des Impôts - Cadastre. Mise à jour : 2012","source:name:oc":"Lo Congrès"}},
{"type":"Feature","geometry":{"type":"Point","coordinates":[-0.5605837,42.974713]},"properties":{"historic":"archaeological_site","name":"Sépulture des Pestiférés de 1569"}},
{"type":"Feature","geometry":{"type":"Point","coordinates":[-0.5292161,42.9408146]},"properties":{"ele":"2180","name":"Ronglet","name:oc":"Ronglet","natural":"peak","source:name:oc":"Lo Congrès"}},
{"type":"Feature","geometry":{"type":"Point","coordinates":[-0.5700376,42.9679801]},"properties":{"information":"guidepost","name":"fin itinéraire","tourism":"information"}},
{"type":"Feature","geometry":{"type":"Point","coordinates":[-0.5539982,43.0159483]},"properties":{"ele":"1601","name":"Pic de Mousté","natural":"peak","source:name:oc":"Lo Congrès"}},
{"type":"Feature","geometry":{"type":"Point","coordinates":[-0.5063297,43.0282977]},"properties":{"ele":"1973","name":"Mailh Massibé","name:oc":"Malh Vacivèr","natural":"peak","source:name:oc":"ieo-bdtopoc"}},
{"type":"Feature","geometry":{"type":"Point","coordinates":[-0.601658,42.974899]},"properties":{"highway":"street_lamp","lamp_mount":"wall"}},
{"type":"Feature","geometry":{"type":"Point","coordinates":[-0.5993608,42.9981124]},"properties":{"leisure":"playground","wheelchair":"no"}},
{"type":"Feature","geometry":{"type":"Point","coordinates":[-0.5514487,43.0043426]},"properties":{"name":"Fontaine d'Aïnce","name:oc":"Hondan d'Aïnce","natural":"spring","source:name:oc":"Lo Congrès"}},
{"type":"Feature","geometry":{"type":"Point","coordinates":[-0.5576297,43.0041567]},"properties":{"name":"Fontaine Tousset","name:oc":"Hondan Tosset","natural":"spring","source:name:oc":"Lo Congrès"}},
{"type":"Feature","geometry":{"type":"Point","coordinates":[-0.5176433,42.9983796]},"properties":{"historic":"ruins"}},
{"type":"Feature","geometry":{"type":"Point","coordinates":[-0.5188468,42.9987133]},"properties":{"historic":"ruins"}},
{"type":"Feature","geometry":{"type":"Point","coordinates":[-0.572051,43.0342022]},"properties":{"name":"Fontaine de L'Espugna","name:oc":"Hondan der' Espunha","natural":"spring","source":"memory ; survey","source:name:oc":"Lo Congrès"}},
{"type":"Feature","geometry":{"type":"Point","coordinates":[-0.5174804,43.046517]},"properties":{"name":"Abreuvoir de Gurmensès","name:oc":"Tòs de Gurmençés","natural":"spring","source:name:oc":"Lo Congrès"}},
{"type":"Feature","geometry":{"type":"Point","coordinates":[-0.6023426,42.971857]},"properties":{"historic":"memorial","memorial":"obelisk","name":"Colonne Despourrins","name:oc":"Colonne Despourrins","place":"locality","source":"Bing","source:name:oc":"Lo Congrès","wheelchair":"no"}},
{"type":"Feature","geometry":{"type":"Point","coordinates":[-0.5803457,42.9442772]},"properties":{"name":"Abreuvoir","name:oc":"Tòs","natural":"spring","source:name:oc":"Lo Congrès"}},
{"type":"Feature","geometry":{"type":"Point","coordinates":[-0.5756619,42.9408321]},"properties":{"name":"Captage","name:oc":"Captatge","natural":"spring","source:name:oc":"Lo Congrès"}},
{"type":"Feature","geometry":{"type":"Point","coordinates":[-0.5294137,42.9393466]},"properties":{"ele":"2115","mountain_pass":"yes","name":"Col de Liard","name:oc":"Còth de Liard","natural":"saddle","source:name:oc":"Lo Congrès"}},
{"type":"Feature","geometry":{"type":"Point","coordinates":[-0.552351,42.9386947]},"properties":{"description":"Jalon","information":"guidepost","tourism":"information"}},
{"type":"Feature","geometry":{"type":"Point","coordinates":[-0.5512274,42.9388429]},"properties":{"description":"Jalon","information":"guidepost","tourism":"information"}},
{"type":"Feature","geometry":{"type":"Point","coordinates":[-0.5845199,42.9425333]},"properties":{"description":"Jalon","information":"guidepost","tourism":"information"}},
{"type":"Feature","geometry":{"type":"Point","coordinates":[-0.5849127,42.9427344]},"properties":{"description":"Jalon","information":"guidepost","tourism":"information"}},
{"type":"Feature","geometry":{"type":"Point","coordinates":[-0.5677926,42.9428119]},"properties":{"description":"Jalon","information":"guidepost","tourism":"information"}},
{"type":"Feature","geometry":{"type":"Point","coordinates":[-0.5827011,42.9429001]},"properties":{"description":"Jalon","information":"guidepost","tourism":"information"}},
{"type":"Feature","geometry":{"type":"Point","coordinates":[-0.5786181,42.9434273]},"properties":{"description":"Jalon","ele":"1020","information":"guidepost","name":"Haut de Minvielle","tourism":"information"}},
{"type":"Feature","geometry":{"type":"Point","coordinates":[-0.5795333,42.9439275]},"properties":{"description":"Jalon","information":"guidepost","tourism":"information"}},
{"type":"Feature","geometry":{"type":"Point","coordinates":[-0.5643701,42.9446812]},"properties":{"description":"Jalon","information":"guidepost","tourism":"information"}},
{"type":"Feature","geometry":{"type":"Point","coordinates":[-0.603553,42.9450746]},"properties":{"description":"Jalon","information":"guidepost","tourism":"information"}},
{"type":"Feature","geometry":{"type":"Point","coordinates":[-0.6025903,42.9460269]},"properties":{"description":"Jalon","information":"guidepost","tourism":"information"}},
{"type":"Feature","geometry":{"type":"Point","coordinates":[-0.5179008,42.9367256]},"properties":{"ele":"2344","name":"Pic Permayou","name:oc":"Pic Pèramajor","natural":"peak","source:name:oc":"Lo Congrès"}},
{"type":"Feature","geometry":{"type":"Point","coordinates":[-0.5436472,42.9437424]},"properties":{"ele":"1980","name":"Pic d'Anchet","name:oc":"Pic d'Anchet","natural":"peak","source:name:oc":"Lo Congrès"}},
{"type":"Feature","geometry":{"type":"Point","coordinates":[-0.5609189,42.9356106]},"properties":{"information":"guidepost","tourism":"information"}},
{"type":"Feature","geometry":{"type":"Point","coordinates":[-0.5494372,42.9360495]},"properties":{"information":"guidepost","tourism":"information"}},
{"type":"Feature","geometry":{"type":"Point","coordinates":[-0.5496495,42.9375147]},"properties":{"information":"guidepost","tourism":"information"}},
{"type":"Feature","geometry":{"type":"Point","coordinates":[-0.5647201,42.9387892]},"properties":{"information":"guidepost","tourism":"information"}},
{"type":"Feature","geometry":{"type":"Point","coordinates":[-0.5890174,42.941878]},"properties":{"information":"guidepost","tourism":"information"}},
{"type":"Feature","geometry":{"type":"Point","coordinates":[-0.5815746,42.942759]},"properties":{"ele":"945","hiking":"yes","information":"guidepost","name":"Bordes Minvielle","tourism":"information"}},
{"type":"Feature","geometry":{"type":"Point","coordinates":[-0.5661216,42.9444138]},"properties":{"information":"guidepost","tourism":"information"}},
{"type":"Feature","geometry":{"type":"Point","coordinates":[-0.5996877,42.9448975]},"properties":{"information":"guidepost","tourism":"information"}},
{"type":"Feature","geometry":{"type":"Point","coordinates":[-0.6008647,42.9483861]},"properties":{"information":"guidepost","tourism":"information"}},
{"type":"Feature","geometry":{"type":"Point","coordinates":[-0.5975159,42.9500835]},"properties":{"information":"guidepost","tourism":"information"}},
{"type":"Feature","geometry":{"type":"Point","coordinates":[-0.5968158,42.951663]},"properties":{"information":"guidepost","tourism":"information"}},
{"type":"Feature","geometry":{"type":"Point","coordinates":[-0.5959187,42.9532562]},"properties":{"information":"guidepost","tourism":"information"}},
{"type":"Feature","geometry":{"type":"Point","coordinates":[-0.5949845,42.9549335]},"properties":{"information":"guidepost","tourism":"information"}},
{"type":"Feature","geometry":{"type":"Point","coordinates":[-0.5983757,42.9494198]},"properties":{"description":"Jalon","information":"guidepost","tourism":"information"}},
{"type":"Feature","geometry":{"type":"Point","coordinates":[-0.6005106,42.9774844]},"properties":{"tourism":"picnic_site"}},
{"type":"Feature","geometry":{"type":"Point","coordinates":[-0.6005832,42.9774578]},"properties":{"access":"yes","leisure":"playground"}},
{"type":"Feature","geometry":{"type":"Point","coordinates":[-0.4949166,42.9600635]},"properties":{"ele":"1970","mountain_pass":"yes","name":"Col du Montagnon","name:oc":"Còth deth Montanhon","natural":"saddle","source":"survey","source:name:oc":"Lo Congrès"}},
{"type":"Feature","geometry":{"type":"Point","coordinates":[-0.5338568,42.951301]},"properties":{"information":"guidepost","tourism":"information"}},
{"type":"Feature","geometry":{"type":"Point","coordinates":[-0.5365493,42.9519609]},"properties":{"information":"guidepost","tourism":"information"}},
{"type":"Feature","geometry":{"type":"Point","coordinates":[-0.5503392,42.9591258]},"properties":{"information":"guidepost","tourism":"information"}},
{"type":"Feature","geometry":{"type":"Point","coordinates":[-0.495069,42.9624586]},"properties":{"ele":"1964","name":"Col Intermédiaire du Montagnon","name:oc":"Còth Miejancèr deth Montanhon","natural":"saddle","source":"survey","source:name:oc":"Lo Congrès"}},
{"type":"Feature","geometry":{"type":"Point","coordinates":[-0.4953068,42.9663953]},"properties":{"ele":"2003","name":"Seuil du Lac du Montagnon","name:oc":"Portalèr deth Lac deth Montanhon","natural":"saddle","source:name:oc":"Lo Congrès"}},
{"type":"Feature","geometry":{"type":"Point","coordinates":[-0.6003429,42.9999721]},"properties":{"contact:phone":"+33 5 47 91 02 44","internet_access":"yes","name":"Maison Luard","rooms":"3","tourism":"guest_house","website":"http://www.maisonluard.fr/"}},
{"type":"Feature","geometry":{"type":"Point","coordinates":[-0.5882111,42.9355048]},"properties":{"internet_access":"yes","name":"Chez Alé","rooms":"5","tourism":"guest_house","website":"http://chezale.wix.com/une-maison-chez-ale"}},
{"type":"Feature","geometry":{"type":"Point","coordinates":[-0.5691644,43.0002377]},"properties":{"description":"jalon","information":"guidepost","tourism":"information"}},
{"type":"Feature","geometry":{"type":"Point","coordinates":[-0.5684499,43.0005553]},"properties":{"description":"jalon","information":"guidepost","tourism":"information"}},
{"type":"Feature","geometry":{"type":"Point","coordinates":[-0.592814,42.9965978]},"properties":{"information":"guidepost","tourism":"information"}},
{"type":"Feature","geometry":{"type":"Point","coordinates":[-0.5186876,42.9706879]},"properties":{"ele":"1570","name":"Rocher de Ponce","name:oc":"Malh de Ponce","natural":"rock","source":"survey","source:name:oc":"Lo Congrès"}},
{"type":"Feature","geometry":{"type":"Point","coordinates":[-0.5164033,42.9607877]},"properties":{"ele":"1934","mountain_pass":"yes","name":"Còth Arràs","name:oc":"Còth Arràs","natural":"saddle","source:name:oc":"Lo Congrès"}},
{"type":"Feature","geometry":{"type":"Point","coordinates":[-0.4984332,42.9792257]},"properties":{"drinking_water":"yes","name":"Fontaine de Cure deth Cam","natural":"spring"}},
{"type":"Feature","geometry":{"type":"Point","coordinates":[-0.4934579,42.9669976]},"properties":{"ele":"2012","mountain_pass":"yes","name":"Pas de l'Escala","name:oc":"Pas der Escalar","natural":"saddle","source:name:oc":"Lo Congrès"}},
{"type":"Feature","geometry":{"type":"Point","coordinates":[-0.5190869,42.9685111]},"properties":{"ele":"1656","name":"Rocher Noir avec Croix Bleue","name:oc":"Malh Negre senhat en Blu","natural":"rock","source":"survey","source:name:oc":"Lo Congrès"}},
{"type":"Feature","geometry":{"type":"Point","coordinates":[-0.5125339,42.9604875]},"properties":{"ele":"1889","name":"Source de Còth Arràs","name:oc":"Uelh deth Còth Arràs","natural":"spring","source":"survey","source:name:oc":"Lo Congrès"}},
{"type":"Feature","geometry":{"type":"Point","coordinates":[-0.4950593,42.9577833]},"properties":{"ele":"1905","name":"Source du Montagnon","name:oc":"Uelh deth Montanhon","natural":"spring","source":"survey","source:name:oc":"Lo Congrès"}},
{"type":"Feature","geometry":{"type":"Point","coordinates":[-0.5533981,42.9817072]},"properties":{"description":"jalon","information":"guidepost","tourism":"information"}},
{"type":"Feature","geometry":{"type":"Point","coordinates":[-0.5074743,43.0311995]},"properties":{"ele":"1867","name":"Col de Lansatté","name:oc":"Còth de Lansatté","natural":"saddle","source":"survey","source:name:oc":"Lo Congrès"}},
{"type":"Feature","geometry":{"type":"Point","coordinates":[-0.5036937,43.0287506]},"properties":{"ele":"1869","name":"Col de l'Osque","name:oc":"Còth der' Òsca","natural":"saddle","source:name:oc":"Lo Congrès"}},
{"type":"Feature","geometry":{"type":"Point","coordinates":[-0.5069722,43.0248358]},"properties":{"ele":"1775","name":"Col des Arrouyes","name:oc":"Còth de las Arrojas","natural":"saddle","source":"Bing","source:name:oc":"Lo Congrès"}},
{"type":"Feature","geometry":{"type":"Point","coordinates":[-0.5052997,43.0263639]},"properties":{"name":"Fontaine Captée de Bédout","name:oc":"Hont Captada de Bedoth","natural":"spring","source:name:oc":"Lo Congrès"}},
{"type":"Feature","geometry":{"type":"Point","coordinates":[-0.5124406,43.0303416]},"properties":{"name":"Les Tables de Roland","name:oc":"Las Taules de Rolan","natural":"rock","source":"Bing, knowledge","source:name:oc":"ieo-bdtopoc"}},
{"type":"Feature","geometry":{"type":"Point","coordinates":[-0.4998319,43.0339933]},"properties":{"information":"guidepost","name":"VTT n°12","tourism":"information"}},
{"type":"Feature","geometry":{"type":"Point","coordinates":[-0.5410094,43.0090671]},"properties":{"ele":"1090","information":"guidepost","name":"Bas d'Ilhurté","operator":"Commune d'Aydius","tourism":"information"}},
{"type":"Feature","geometry":{"type":"Point","coordinates":[-0.531998,43.0179299]},"properties":{"ele":"1610","hiking":"yes","information":"guidepost","name":"Houndarète","operator":"Commune d'Aydius","tourism":"information"}},
{"type":"Feature","geometry":{"type":"Point","coordinates":[-0.5201987,42.9519301]},"properties":{"ele":"1830","information":"guidepost","note":"Visite du 25/06/2021 : mât de signalétique renversé par le bétail faute d'un ancrage suffisant","source":"survey","tourism":"information"}},
{"type":"Feature","geometry":{"type":"Point","coordinates":[-0.5130035,42.9897824]},"properties":{"ele":"1408","name":"Tacha","name:oc":"Tacha","natural":"peak","source:name:oc":"Lo Congrès"}},
{"type":"Feature","geometry":{"type":"Point","coordinates":[-0.502722,43.0441201]},"properties":{"ele":"1654","mountain_pass":"yes","name":"Col d'Aran","name:oc":"Còth d'Aran","natural":"saddle","source:name:oc":"Lo Congrès"}},
{"type":"Feature","geometry":{"type":"Point","coordinates":[-0.5997549,42.9930923]},"properties":{"denotation":"natural_monument","leaf_cycle":"deciduous","leaf_type":"broadleaved","natural":"tree","species":"Platane"}},
{"type":"Feature","geometry":{"type":"Point","coordinates":[-0.599777,42.9931452]},"properties":{"denotation":"natural_monument","leaf_cycle":"deciduous","leaf_type":"broadleaved","natural":"tree","species":"Platane"}},
{"type":"Feature","geometry":{"type":"Point","coordinates":[-0.5997147,42.9931619]},"properties":{"denotation":"natural_monument","leaf_cycle":"deciduous","leaf_type":"broadleaved","natural":"tree","species":"Platane"}},
{"type":"Feature","geometry":{"type":"Point","coordinates":[-0.6000359,42.9986919]},"properties":{"information":"guidepost","tourism":"information"}},
{"type":"Feature","geometry":{"type":"Point","coordinates":[-0.5991501,42.9927326]},"properties":{"ele":"463","name":"Mont d'Orcun","name:oc":"Mont d'Orcun","natural":"peak","source:name:oc":"Lo Congrès"}},
{"type":"Feature","geometry":{"type":"Point","coordinates":[-0.5937888,42.9988632]},"properties":{"information":"guidepost","tourism":"information"}},
{"type":"Feature","geometry":{"type":"Point","coordinates":[-0.5934719,42.9999505]},"properties":{"information":"guidepost","name":"Jal","tourism":"information"}},
{"type":"Feature","geometry":{"type":"Point","coordinates":[-0.5942675,43.0021526]},"properties":{"information":"guidepost","name":"Jal","tourism":"information"}},
{"type":"Feature","geometry":{"type":"Point","coordinates":[-0.5944127,43.0022275]},"properties":{"information":"guidepost","name":"Jal","tourism":"information"}},
{"type":"Feature","geometry":{"type":"Point","coordinates":[-0.5936651,43.0031043]},"properties":{"information":"guidepost","tourism":"information"}},
{"type":"Feature","geometry":{"type":"Point","coordinates":[-0.5768764,43.0154933]},"properties":{"ele":"1500","information":"guidepost","name":"Col Nord-Ouest de l'Ourdinse","tourism":"information"}},
{"type":"Feature","geometry":{"type":"Point","coordinates":[-0.6030002,43.0238658]},"properties":{"historic":"ruins","name":"Ancien Four à Chaux","name:oc":"Horn Vielh","source:name:oc":"Lo Congrès"}},
{"type":"Feature","geometry":{"type":"Point","coordinates":[-0.6055155,43.012761]},"properties":{"name":"Abri sous Roche","name:oc":"Toa","natural":"rock","source:name:oc":"Lo Congrès"}},
{"type":"Feature","geometry":{"type":"Point","coordinates":[-0.5305569,43.0001629]},"properties":{"description":"Jalon","information":"guidepost","source":"survey","tourism":"information"}},
{"type":"Feature","geometry":{"type":"Point","coordinates":[-0.5346492,42.999107]},"properties":{"description":"jalon","information":"guidepost","source":"survey","tourism":"information"}},
{"type":"Feature","geometry":{"type":"Point","coordinates":[-0.5258315,43.004421]},"properties":{"description":"Jalon","information":"guidepost","source":"survey","tourism":"information"}},
{"type":"Feature","geometry":{"type":"Point","coordinates":[-0.526606,43.0045009]},"properties":{"description":"Jalon","information":"guidepost","source":"survey","tourism":"information"}},
{"type":"Feature","geometry":{"type":"Point","coordinates":[-0.5266549,43.0045764]},"properties":{"information":"guidepost","source":"survey","tourism":"information"}},
{"type":"Feature","geometry":{"type":"Point","coordinates":[-0.5280959,43.0048206]},"properties":{"description":"Jalon","information":"guidepost","source":"survey","tourism":"information"}},
{"type":"Feature","geometry":{"type":"Point","coordinates":[-0.5358877,43.0035044]},"properties":{"information":"guidepost","source":"survey","tourism":"information"}},
{"type":"Feature","geometry":{"type":"Point","coordinates":[-0.5371004,43.0012504]},"properties":{"name":"Point de Vue de Senhater","tourism":"viewpoint"}},
{"type":"Feature","geometry":{"type":"Point","coordinates":[-0.5743363,43.0131092]},"properties":{"ele":"1461","information":"guidepost","name":"Jalon","source":"survey","tourism":"information"}},
{"type":"Feature","geometry":{"type":"Point","coordinates":[-0.5821184,43.0051304]},"properties":{"ele":"965","information":"guidepost","name":"Fontaine de Laruns","tourism":"information"}},
{"type":"Feature","geometry":{"type":"Point","coordinates":[-0.5851764,43.0150066]},"properties":{"ele":"1195","information":"guidepost","name":"Cabane Neuve de Castéruch","source":"survey","tourism":"information"}},
{"type":"Feature","geometry":{"type":"Point","coordinates":[-0.5874645,43.010151]},"properties":{"information":"guidepost","tourism":"information"}},
{"type":"Feature","geometry":{"type":"Point","coordinates":[-0.577268,43.0100865]},"properties":{"ele":"1380","information":"guidepost","name":"Jalon","tourism":"information"}},
{"type":"Feature","geometry":{"type":"Point","coordinates":[-0.5791718,43.0045883]},"properties":{"ele":"1007","information":"guidepost","name":"Jalon","tourism":"information"}},
{"type":"Feature","geometry":{"type":"Point","coordinates":[-0.5822465,43.005205]},"properties":{"name":"Fontaine de Laruns","name:oc":"Hondan de Laruntz","natural":"spring","source:name:oc":"Lo Congrès"}},
{"type":"Feature","geometry":{"type":"Point","coordinates":[-0.5873708,43.0077668]},"properties":{"ele":"880","information":"guidepost","name":"Bourdious","tourism":"information"}},
{"type":"Feature","geometry":{"type":"Point","coordinates":[-0.5916593,43.0037514]},"properties":{"ele":"711","information":"guidepost","name":"Jalon","tourism":"information"}},
{"type":"Feature","geometry":{"type":"Point","coordinates":[-0.5965698,42.9808928]},"properties":{"information":"board","name":"Empreintes Faune","tourism":"information"}},
{"type":"Feature","geometry":{"type":"Point","coordinates":[-0.5916264,42.9784066]},"properties":{"board_type":"nature","check_date":"2023-07-01","information":"board","name":"Empreintes Faune","tourism":"information"}},
{"type":"Feature","geometry":{"type":"Point","coordinates":[-0.5942061,42.9803345]},"properties":{"information":"guidepost","tourism":"information"}},
{"type":"Feature","geometry":{"type":"Point","coordinates":[-0.5936991,42.9802163]},"properties":{"information":"guidepost","tourism":"information"}},
{"type":"Feature","geometry":{"type":"Point","coordinates":[-0.5942047,42.9804896]},"properties":{"information":"guidepost","tourism":"information"}},
{"type":"Feature","geometry":{"type":"Point","coordinates":[-0.5942758,42.9804822]},"properties":{"information":"guidepost","tourism":"information"}},
{"type":"Feature","geometry":{"type":"Point","coordinates":[-0.5975883,42.9745117]},"properties":{"description":"Jalon","information":"guidepost","tourism":"information"}},
{"type":"Feature","geometry":{"type":"Point","coordinates":[-0.598169,42.9763986]},"properties":{"information":"board","name":"Empreintes Faune","tourism":"information"}},
{"type":"Feature","geometry":{"type":"Point","coordinates":[-0.5963971,42.9780682]},"properties":{"information":"guidepost","tourism":"information"}},
{"type":"Feature","geometry":{"type":"Point","coordinates":[-0.600535,42.9990149]},"properties":{"addr:city":"Bedous","addr:postcode":"64490","addr:street":"Place François Sarraillé","description":"Bureau d’information de Bedous","information":"office","internet_access":"yes","name":"Office de Tourisme du Haut-Béarn","opening_hours":"Jan-May Mo-Sa 09:00-12:00,14:00-18:00; Jul-Sep Mo-Sa 09:00-12:30,14:00-18:30; Su 09:00-13:00; Oct-Dec Mo-Sa 09:00-12:00,14:00-18:00","phone":"+33 5 59 34 57 57","toilets:wheelchair":"yes","tourism":"information","website":"https://www.pyrenees-bearnaises.com/","wheelchair":"yes","wheelchair:description":"Marque Nationale \"Tourisme et Handicaps\", Auditif, Mental, Moteur et visuel, Place de parking réservée, Accès de plain-pied, Banque surbaissée, Boucle magnétique, Document en larges caractères"}},
{"type":"Feature","geometry":{"type":"Point","coordinates":[-0.6029928,43.0026934]},"properties":{"addr:city":"Bedous","addr:postcode":"64490","name":"Ponton de Pêche Handicapé","tourism":"attraction","wheelchair":"yes","wheelchair:description":"Accès véhicule jusqu'au ponton"}},
{"type":"Feature","geometry":{"type":"Point","coordinates":[-0.6018233,42.9748482]},"properties":{"leisure":"picnic_table"}},
{"type":"Feature","geometry":{"type":"Point","coordinates":[-0.6018332,42.9749304]},"properties":{"entrance":"service"}},
{"type":"Feature","geometry":{"type":"Point","coordinates":[-0.6017445,42.9749145]},"properties":{"entrance":"main"}},
{"type":"Feature","geometry":{"type":"Point","coordinates":[-0.5877139,42.9415066]},"properties":{"information":"guidepost","tourism":"information"}},
{"type":"Feature","geometry":{"type":"Point","coordinates":[-0.5869957,42.9411146]},"properties":{"information":"guidepost","tourism":"information"}},
{"type":"Feature","geometry":{"type":"Point","coordinates":[-0.5855171,42.9386483]},"properties":{"information":"guidepost","tourism":"information"}},
{"type":"Feature","geometry":{"type":"Point","coordinates":[-0.5833789,42.9370457]},"properties":{"information":"guidepost","tourism":"information"}},
{"type":"Feature","geometry":{"type":"Point","coordinates":[-0.5889079,42.9358748]},"properties":{"information":"guidepost","tourism":"information"}},
{"type":"Feature","geometry":{"type":"Point","coordinates":[-0.5890312,42.9375399]},"properties":{"description":"Jalon","information":"guidepost","tourism":"information"}},
{"type":"Feature","geometry":{"type":"Point","coordinates":[-0.5969464,42.9439759]},"properties":{"information":"guidepost","tourism":"information"}},
{"type":"Feature","geometry":{"type":"Point","coordinates":[-0.5934208,42.9436804]},"properties":{"information":"guidepost","tourism":"information"}},
{"type":"Feature","geometry":{"type":"Point","coordinates":[-0.5803264,42.9796107]},"properties":{"free_flying:official":"yes","free_flying:paragliding":"yes","free_flying:site":"takeoff","leisure":"yes","name":"Décollage intermédiaire","network":"FFVL","sport":"free_flying"}},
{"type":"Feature","geometry":{"type":"Point","coordinates":[-0.5072793,42.99455]},"properties":{"information":"board","name":"Bas du Barca","tourism":"information"}},
{"type":"Feature","geometry":{"type":"Point","coordinates":[-0.5072667,42.9945489]},"properties":{"ele":"1062","information":"guidepost","note":"Arrêté municipal du 09 juillet 2020 interdisant l'accès sur le sentier longeant la falaise au Nord-Est de l'Escala pour cause de danger d'éboulement de rochers depuis cette falaise","tourism":"information"}},
{"type":"Feature","geometry":{"type":"Point","coordinates":[-0.498447,42.9792847]},"properties":{"information":"guidepost","tourism":"information"}},
{"type":"Feature","geometry":{"type":"Point","coordinates":[-0.5125527,42.9884656]},"properties":{"information":"guidepost","name":"Jalon","source":"survey","tourism":"information"}},
{"type":"Feature","geometry":{"type":"Point","coordinates":[-0.5127525000000001,42.9878642]},"properties":{"information":"guidepost","name":"Plateau du Tacha","tourism":"information"}},
{"type":"Feature","geometry":{"type":"Point","coordinates":[-0.5134982,42.9874503]},"properties":{"information":"guidepost","name":"Jalon","source":"survey","tourism":"information"}},
{"type":"Feature","geometry":{"type":"Point","coordinates":[-0.5186938,42.9908916]},"properties":{"ele":"1182","information":"guidepost","name":"Haut de Gradiou","source":"survey","tourism":"information"}},
{"type":"Feature","geometry":{"type":"Point","coordinates":[-0.5212237,42.9929071]},"properties":{"ele":"1152","information":"guidepost","name":"Borde de Gradiou","source":"survey","tourism":"information"}},
{"type":"Feature","geometry":{"type":"Point","coordinates":[-0.5217835,42.9930379]},"properties":{"ele":"1152","information":"guidepost","name":"Stationnement des Labays","source":"survey","tourism":"information"}},
{"type":"Feature","geometry":{"type":"Point","coordinates":[-0.5219941,42.993135]},"properties":{"information":"board","name":"Les Labays","tourism":"information"}},
{"type":"Feature","geometry":{"type":"Point","coordinates":[-0.4925267,42.967939]},"properties":{"description":"Jalon","ele":"1926","information":"guidepost","source":"survey","tourism":"information"}},
{"type":"Feature","geometry":{"type":"Point","coordinates":[-0.4926916,42.9670585]},"properties":{"description":"Jalon","ele":"1988","information":"guidepost","source":"survey","tourism":"information"}},
{"type":"Feature","geometry":{"type":"Point","coordinates":[-0.4935114,42.9669876]},"properties":{"description":"Jalon","ele":"2012","information":"guidepost","source":"survey","tourism":"information"}},
{"type":"Feature","geometry":{"type":"Point","coordinates":[-0.4952484,42.9661182]},"properties":{"description":"Jalon","ele":"2006","information":"guidepost","source":"survey","tourism":"information"}},
{"type":"Feature","geometry":{"type":"Point","coordinates":[-0.495223,42.9651181]},"properties":{"description":"Jalon","ele":"1989","information":"guidepost","note":"Tête du jalon éclatée - constaté le 23/10/2017","source":"survey","tourism":"information"}},
{"type":"Feature","geometry":{"type":"Point","coordinates":[-0.4948153,42.9637511]},"properties":{"description":"Jalon","ele":"1960","information":"guidepost","source":"survey","tourism":"information"}},
{"type":"Feature","geometry":{"type":"Point","coordinates":[-0.4945662,42.9631502]},"properties":{"description":"Jalon","ele":"1949","information":"guidepost","source":"survey","tourism":"information"}},
{"type":"Feature","geometry":{"type":"Point","coordinates":[-0.4950996,42.9626004]},"properties":{"description":"Jalon","ele":"1964","information":"guidepost","source":"survey","tourism":"information"}},
{"type":"Feature","geometry":{"type":"Point","coordinates":[-0.4956831,42.9616663]},"properties":{"description":"Jalon","ele":"1961","information":"guidepost","source":"survey","tourism":"information"}},
{"type":"Feature","geometry":{"type":"Point","coordinates":[-0.4949001,42.9600484]},"properties":{"ele":"1970","information":"guidepost","source":"survey","tourism":"information"}},
{"type":"Feature","geometry":{"type":"Point","coordinates":[-0.4941528,42.958732]},"properties":{"description":"Jalon","ele":"1959","information":"guidepost","source":"survey","tourism":"information"}},
{"type":"Feature","geometry":{"type":"Point","coordinates":[-0.4948823,42.9578511]},"properties":{"description":"Jalon","ele":"1914","information":"guidepost","source":"survey","tourism":"information"}},
{"type":"Feature","geometry":{"type":"Point","coordinates":[-0.4975672,42.9593307]},"properties":{"description":"Jalon","ele":"1888","information":"guidepost","source":"survey","tourism":"information"}},
{"type":"Feature","geometry":{"type":"Point","coordinates":[-0.5006336,42.9600177]},"properties":{"description":"Jalon","ele":"1874","information":"guidepost","source":"survey","tourism":"information"}},
{"type":"Feature","geometry":{"type":"Point","coordinates":[-0.5020167,42.9597514]},"properties":{"description":"Jalon","ele":"1870","information":"guidepost","source":"survey","tourism":"information"}},
{"type":"Feature","geometry":{"type":"Point","coordinates":[-0.5029336,42.959751]},"properties":{"description":"Jalon","ele":"1879","information":"guidepost","source":"survey","tourism":"information"}},
{"type":"Feature","geometry":{"type":"Point","coordinates":[-0.5043331,42.9599685]},"properties":{"description":"Jalon","ele":"1876","information":"guidepost","source":"survey","tourism":"information"}},
{"type":"Feature","geometry":{"type":"Point","coordinates":[-0.506383,42.9597169]},"properties":{"description":"Jalon","ele":"1862","information":"guidepost","source":"survey","tourism":"information"}},
{"type":"Feature","geometry":{"type":"Point","coordinates":[-0.5077995,42.9597326]},"properties":{"description":"Jalon","ele":"1867","information":"guidepost","source":"survey","tourism":"information"}},
{"type":"Feature","geometry":{"type":"Point","coordinates":[-0.509383,42.9598153]},"properties":{"description":"Jalon","ele":"1877","information":"guidepost","source":"survey","tourism":"information"}},
{"type":"Feature","geometry":{"type":"Point","coordinates":[-0.5106498,42.9596325]},"properties":{"description":"Jalon","ele":"1879","information":"guidepost","source":"survey","tourism":"information"}},
{"type":"Feature","geometry":{"type":"Point","coordinates":[-0.5117998,42.9597514]},"properties":{"description":"Jalon","ele":"1886","information":"guidepost","source":"survey","tourism":"information"}},
{"type":"Feature","geometry":{"type":"Point","coordinates":[-0.5124964,42.9602523]},"properties":{"description":"Jalon","ele":"1883","information":"guidepost","source":"survey","tourism":"information"}},
{"type":"Feature","geometry":{"type":"Point","coordinates":[-0.5135015,42.9604844]},"properties":{"description":"Jalon","ele":"1886","information":"guidepost","source":"survey","tourism":"information"}},
{"type":"Feature","geometry":{"type":"Point","coordinates":[-0.5171331,42.9607317]},"properties":{"description":"Jalon","ele":"1938","information":"guidepost","source":"survey","tourism":"information"}},
{"type":"Feature","geometry":{"type":"Point","coordinates":[-0.5153033,42.960584]},"properties":{"description":"Jalon","ele":"1915","information":"guidepost","source":"survey","tourism":"information"}},
{"type":"Feature","geometry":{"type":"Point","coordinates":[-0.5127955,42.9605624]},"properties":{"ele":"1896","name":"Cairn avec Croix Bleue","natural":"stone","source":"survey"}},
{"type":"Feature","geometry":{"type":"Point","coordinates":[-0.5187178,42.967232]},"properties":{"ele":"1740","historic":"ruins","name":"Cabane de Ponce (Ruine)","name:oc":"Capana de Ponce arroeinada","source":"survey","source:name:oc":"Lo Congrès"}},
{"type":"Feature","geometry":{"type":"Point","coordinates":[-0.5092603,42.9727312]},"properties":{"ele":"1568","name":"Caillau du Termy","name:oc":"Calhau deth Tèrmi","natural":"rock","source":"survey","source:name:oc":"Lo Congrès"}},
{"type":"Feature","geometry":{"type":"Point","coordinates":[-0.5223709,42.961905]},"properties":{"ele":"2221","name":"L'Embarrère","name:oc":"Er' Embarrèra","natural":"peak","source":"Bing","source:name:oc":"Lo Congrès"}},
{"type":"Feature","geometry":{"type":"Point","coordinates":[-0.5137833,42.9543496]},"properties":{"description":"Jalon","ele":"1700","information":"guidepost","source":"survey","tourism":"information"}},
{"type":"Feature","geometry":{"type":"Point","coordinates":[-0.5145001,42.953949]},"properties":{"description":"Jalon","ele":"1703","information":"guidepost","source":"survey","tourism":"information"}},
{"type":"Feature","geometry":{"type":"Point","coordinates":[-0.5153499,42.9536667]},"properties":{"description":"Jalon","ele":"1720","information":"guidepost","source":"survey","tourism":"information"}},
{"type":"Feature","geometry":{"type":"Point","coordinates":[-0.5164,42.9538002]},"properties":{"description":"Jalon","ele":"1746","information":"guidepost","source":"survey","tourism":"information"}},
{"type":"Feature","geometry":{"type":"Point","coordinates":[-0.5176,42.9536821]},"properties":{"description":"Jalon","ele":"1764","information":"guidepost","source":"survey","tourism":"information"}},
{"type":"Feature","geometry":{"type":"Point","coordinates":[-0.5191342,42.9528173]},"properties":{"description":"Jalon","ele":"1803","information":"guidepost","source":"survey","tourism":"information"}},
{"type":"Feature","geometry":{"type":"Point","coordinates":[-0.5199831,42.9520149]},"properties":{"description":"Jalon","ele":"1821","information":"guidepost","source":"survey","tourism":"information"}},
{"type":"Feature","geometry":{"type":"Point","coordinates":[-0.5202667,42.9524139]},"properties":{"description":"Jalon","ele":"1831","information":"guidepost","source":"survey","tourism":"information"}},
{"type":"Feature","geometry":{"type":"Point","coordinates":[-0.5199355,42.9538843]},"properties":{"description":"Jalon","ele":"1844","information":"guidepost","source":"survey","tourism":"information"}},
{"type":"Feature","geometry":{"type":"Point","coordinates":[-0.5201983,42.9539986]},"properties":{"description":"Jalon","ele":"1851","information":"guidepost","source":"survey","tourism":"information"}},
{"type":"Feature","geometry":{"type":"Point","coordinates":[-0.521349,42.9540477]},"properties":{"description":"Jalon","ele":"1866","information":"guidepost","source":"survey","tourism":"information"}},
{"type":"Feature","geometry":{"type":"Point","coordinates":[-0.5182001,42.9587516]},"properties":{"description":"Jalon","ele":"1933","information":"guidepost","source":"survey","tourism":"information"}},
{"type":"Feature","geometry":{"type":"Point","coordinates":[-0.5180003,42.9595681]},"properties":{"description":"Jalon","ele":"1937","information":"guidepost","source":"survey","tourism":"information"}},
{"type":"Feature","geometry":{"type":"Point","coordinates":[-0.5495431,43.0043725]},"properties":{"ele":"918","name":"Planèr Deths Corets","name:oc":"Planèr deths Corets","natural":"saddle","source":"survey","source:name:oc":"Lo Congrès"}},
{"type":"Feature","geometry":{"type":"Point","coordinates":[-0.5443496,43.003252]},"properties":{"information":"guidepost","tourism":"information"}},
{"type":"Feature","geometry":{"type":"Point","coordinates":[-0.5433358,43.0028479]},"properties":{"description":"Jalon","information":"guidepost","tourism":"information"}},
{"type":"Feature","geometry":{"type":"Point","coordinates":[-0.5423665,43.0023006]},"properties":{"description":"Jalon","information":"guidepost","tourism":"information"}},
{"type":"Feature","geometry":{"type":"Point","coordinates":[-0.5417214,43.0020174]},"properties":{"information":"guidepost","tourism":"information"}},
{"type":"Feature","geometry":{"type":"Point","coordinates":[-0.541827,43.0012747]},"properties":{"information":"guidepost","tourism":"information"}},
{"type":"Feature","geometry":{"type":"Point","coordinates":[-0.5295143,43.0175387]},"properties":{"ele":"1695","name":"Sommet de Houndarète","name:oc":"Som dera Hondareta","natural":"peak","source:name:oc":"Lo Congrès"}},
{"type":"Feature","geometry":{"type":"Point","coordinates":[-0.5302627,43.0213323]},"properties":{"ele":"1422","name":"Source Captée d'Houndarète","name:oc":"Captatge dera Hondareta","natural":"spring","source":"survey","source:name:oc":"Lo Congrès"}},
{"type":"Feature","geometry":{"type":"Point","coordinates":[-0.5327082,43.0287354]},"properties":{"ele":"1399","name":"Collet du Bas de la Courade","name:oc":"Cothet deth Bas dera Corada","natural":"saddle","source":"survey","source:name:oc":"Lo Congrès"}},
{"type":"Feature","geometry":{"type":"Point","coordinates":[-0.5566813,42.9478514]},"properties":{"ele":"1787","name":"Pic Hia d'Anchet","name:oc":"Pic deth Hiar d'Anchet","natural":"peak","source:name:oc":"Lo Congrès"}},
{"type":"Feature","geometry":{"type":"Point","coordinates":[-0.5127626,42.986844]},"properties":{"information":"guidepost","name":"Jalon","source":"survey","tourism":"information"}},
{"type":"Feature","geometry":{"type":"Point","coordinates":[-0.5142505,42.9879123]},"properties":{"information":"guidepost","name":"Jalon","source":"survey","tourism":"information"}},
{"type":"Feature","geometry":{"type":"Point","coordinates":[-0.5152228,42.9886088]},"properties":{"information":"guidepost","name":"Jalon","source":"survey","tourism":"information"}},
{"type":"Feature","geometry":{"type":"Point","coordinates":[-0.5182162,42.9907611]},"properties":{"information":"guidepost","name":"Jalon","source":"survey","tourism":"information"}},
{"type":"Feature","geometry":{"type":"Point","coordinates":[-0.6017811,42.9529103]},"properties":{"information":"guidepost","tourism":"information"}},
{"type":"Feature","geometry":{"type":"Point","coordinates":[-0.5918482,43.0023306]},"properties":{"information":"board","name":"Table d'Orientation - Départ Randonnées","tourism":"information"}},
{"type":"Feature","geometry":{"type":"Point","coordinates":[-0.5724337,43.0125583]},"properties":{"ele":"1442","information":"guidepost","name":"Abreuvoir d'Ourdinse","tourism":"information"}},
{"type":"Feature","geometry":{"type":"Point","coordinates":[-0.5805963,43.0161571]},"properties":{"ele":"1270","name":"Fontaine de Pétraube","name:oc":"Hondan de Petrauba","natural":"spring","source":"survey","source:name:oc":"Lo Congrès"}},
{"type":"Feature","geometry":{"type":"Point","coordinates":[-0.5835501,43.0146298]},"properties":{"ele":"1234","information":"guidepost","name":"Jalon","source":"survey","tourism":"information"}},
{"type":"Feature","geometry":{"type":"Point","coordinates":[-0.5751253,43.0170876]},"properties":{"ele":"1565","information":"guidepost","name":"Pic des Taulères","source":"survey","tourism":"information"}},
{"type":"Feature","geometry":{"type":"Point","coordinates":[-0.5650069,43.0128054]},"properties":{"ele":"1518","historic":"ruins","name":"Cabane Est de Pareü","name:oc":"Capana Davant de Pareü","source":"survey","source:name:oc":"Lo Congrès"}},
{"type":"Feature","geometry":{"type":"Point","coordinates":[-0.5661097,43.0126069]},"properties":{"ele":"1511","historic":"ruins","name":"Cabane Ouest de Pareü","name:oc":"Capana Darrèr de Pareü","source":"survey","source:name:oc":"Lo Congrès"}},
{"type":"Feature","geometry":{"type":"Point","coordinates":[-0.5784599,43.0123406]},"properties":{"ele":"1428","historic":"ruins","name":"Cabane Sud-Ouest d'Ourdinse","name:oc":"Capana Sud Oèst d'Ordinsa","source":"survey","source:name:oc":"Lo Congrès"}},
{"type":"Feature","geometry":{"type":"Point","coordinates":[-0.5797835,43.0130845]},"properties":{"ele":"1438","name":"Col Ouest d'Ourdinse","name:oc":"Còth Oèst d'Ordinsa","natural":"saddle","source":"survey","source:name:oc":"Lo Congrès"}},
{"type":"Feature","geometry":{"type":"Point","coordinates":[-0.5853358,43.0124426]},"properties":{"ele":"1150","name":"Mailhs Nègres","name:oc":"Malhs Negres","natural":"rock","source":"Bing","source:name:oc":"Lo Congrès"}},
{"type":"Feature","geometry":{"type":"Point","coordinates":[-0.5739267,43.0143744]},"properties":{"ele":"1480","information":"guidepost","name":"Jalon","source":"survey","tourism":"information"}},
{"type":"Feature","geometry":{"type":"Point","coordinates":[-0.5740866,43.0144068]},"properties":{"ele":"1481","historic":"ruins","source":"survey"}},
{"type":"Feature","geometry":{"type":"Point","coordinates":[-0.5738466,43.014244]},"properties":{"ele":"1477","historic":"ruins","name":"Cabanes de Sept Chanchous","name:oc":"Capanas deras Sèt Chanchas","source":"survey","source:name:oc":"Lo Congrès"}},
{"type":"Feature","geometry":{"type":"Point","coordinates":[-0.5767903,43.0150505]},"properties":{"ele":"1499","historic":"ruins","name":"Cabane Nord-Ouest d'Ourdinse","name:oc":"Capana Nòrd Oèst d'Ordinsa","source":"survey","source:name:oc":"Lo Congrès"}},
{"type":"Feature","geometry":{"type":"Point","coordinates":[-0.5794271,43.0122917]},"properties":{"ele":"1428","historic":"ruins","name":"Cabane Ouest-Sud-Ouest d'Ourdinse","name:oc":"Capana Oèst Sud Oèst d'Ordinsa","source":"survey","source:name:oc":"Lo Congrès"}},
{"type":"Feature","geometry":{"type":"Point","coordinates":[-0.6003754,42.9991013]},"properties":{"addr:city":"Bedous","addr:housenumber":"2","addr:postcode":"64490","addr:street":"Rue de la Caserne","amenity":"coworking_space","contact:email":"epi-aspe@gap-solutions.fr","contact:phone":"+33 5 59 85 14 14","contact:website":"http://epi-oloron.fr/epi-aspe","leisure":"hackerspace","name":"EPI-ASPE"}},
{"type":"Feature","geometry":{"type":"Point","coordinates":[-0.6012104,42.9996146]},"properties":{"check_date":"2024-06-28","contact:phone":"+33 5 59 34 52 47","contact:website":"http://restaurant-chez-michel.fr","name":"Chez Michel","tourism":"guest_house"}},
{"type":"Feature","geometry":{"type":"Point","coordinates":[-0.5872844,43.0211705]},"properties":{"name":"Fontaine de Lescanet","name:oc":"Hondan de Lescanet","natural":"spring","source":"survey","source:name:oc":"Lo Congrès"}},
{"type":"Feature","geometry":{"type":"Point","coordinates":[-0.5903824,43.0151187]},"properties":{"ele":"992","name":"Pas des Castérulas","name:oc":"Pas deths Casterulàs","natural":"saddle","source:name:oc":"Lo Congrès"}},
{"type":"Feature","geometry":{"type":"Point","coordinates":[-0.5848691,43.0218666]},"properties":{"name":"Fontaine de Pouyet","name:oc":"Hondan de Pojet","natural":"spring","source":"survey","source:name:oc":"Lo Congrès"}},
{"type":"Feature","geometry":{"type":"Point","coordinates":[-0.591132,43.0253021]},"properties":{"ele":"1032","name":"Biscarce","name:oc":"Biscarce","natural":"peak","source:name:oc":"Lo Congrès"}},
{"type":"Feature","geometry":{"type":"Point","coordinates":[-0.6051166,42.9775505]},"properties":{"board_type":"geology","description":"panneau d'interprétation géologique","information":"board","name":"Géolval RGTP Accous","source":"survey","tourism":"information","website":"http://rgtp.geolval.fr/home_f.php?seccion=panneau&img=accous&name=Accous"}},
{"type":"Feature","geometry":{"type":"Point","coordinates":[-0.6057839,42.99915]},"properties":{"ele":"410","information":"guidepost","name":"Mont d'Osse","operator":"Commune d'Osse-en-Aspe","source":"survey","tourism":"information"}},
{"type":"Feature","geometry":{"type":"Point","coordinates":[-0.5943241,42.9967804]},"properties":{"addr:street":"Route d'Aydius","email":"info@moulin-orcun.com","name":"Gite Le Moulin d'Orcun","phone":"+33559347491","tourism":"hostel","website":"http://www.moulin-orcun.com"}},
{"type":"Feature","geometry":{"type":"Point","coordinates":[-0.6025295,43.0053575]},"properties":{"waterway":"weir"}},
{"type":"Feature","geometry":{"type":"Point","coordinates":[-0.6019572,43.0051114]},"properties":{"waterway":"weir"}},
{"type":"Feature","geometry":{"type":"Point","coordinates":[-0.6021659,43.0051534]},"properties":{"waterway":"weir"}},
{"type":"Feature","geometry":{"type":"Point","coordinates":[-0.6035708,42.9958865]},"properties":{"contact:facebook":"https://www.facebook.com/transhumance.hotel.Pyrenees","contact:phone":"+33 5 59 34 97 59","contact:website":"http://transhumance-pyrenees.fr/","internet_access":"wlan","name":"Transhumance & Cie","rooms":"7","tourism":"hotel","wheelchair":"yes"}},
{"type":"Feature","geometry":{"type":"Point","coordinates":[-0.6035413,42.9960639]},"properties":{"addr:housenumber":"8","addr:street":"Avenue Robert Balangué","description":"Hotel / Restaurant","diet:pescetarian":"yes","diet:vegan":"no","name":"Transhumance & Cie","phone":"+33 601 73 59 98","tourism":"hotel","website":"htpps://transhumance-pyrenees.fr"}},
{"type":"Feature","geometry":{"type":"Point","coordinates":[-0.6035547,42.9956197]},"properties":{"description":"panneau d'interprétation géologique","information":"board","name":"GéoTrain Bedous","operator":"Association GéolVal","source":"survey","tourism":"information","website":"https://www.geolval.fr/index.php/geotrain"}},
{"type":"Feature","geometry":{"type":"Point","coordinates":[-0.5877618,42.9349417]},"properties":{"leisure":"picnic_table"}},
{"type":"Feature","geometry":{"type":"Point","coordinates":[-0.6092651,42.9593915]},"properties":{"name":"Mine de Baryte d'Esquit","name:oc":"Mina de Barita d'Esquit","natural":"cave_entrance","source":"survey","source:name:oc":"Lo Congrès"}},
{"type":"Feature","geometry":{"type":"Point","coordinates":[-0.4995775,43.0282556]},"properties":{"ele":"1973","name":"Le Montagnon","name:oc":"Lo Montanhon","natural":"peak","source":"cadastre-dgi-fr source : Direction Générale des Finances Publiques - Cadastre. Mise à jour : 2020","source:name:oc":"Lo Congrès"}},
{"type":"Feature","geometry":{"type":"Point","coordinates":[-0.5174702,43.0322546]},"properties":{"ele":"1822","name":"Mail de la Cuette","name:oc":"Malh dera Cueta","natural":"peak","source":"cadastre-dgi-fr source : Direction Générale des Finances Publiques - Cadastre. Mise à jour : 2020","source:name:oc":"Lo Congrès"}},
{"type":"Feature","geometry":{"type":"Point","coordinates":[-0.5073586,42.9873541]},"properties":{"name":"Rocher de la Jonction","name:oc":"Malh dera Juntada","natural":"rock","source:name:oc":"Lo Congrès"}},
{"type":"Feature","geometry":{"type":"Point","coordinates":[-0.511702,42.9904747]},"properties":{"information":"guidepost","name":"Jalon","source":"survey","tourism":"information"}},
{"type":"Feature","geometry":{"type":"Point","coordinates":[-0.5184452,42.9906694]},"properties":{"information":"guidepost","name":"Jalon","source":"survey","tourism":"information"}},
{"type":"Feature","geometry":{"type":"Point","coordinates":[-0.492695,42.967076]},"properties":{"ele":"1987","information":"guidepost","name":"Passage Interdit Danger Éboulement","source":"survey","tourism":"information"}},
{"type":"Feature","geometry":{"type":"Point","coordinates":[-0.4926506,42.9675829]},"properties":{"description":"Jalon","ele":"1955","information":"guidepost","source":"survey","tourism":"information"}},
{"type":"Feature","geometry":{"type":"Point","coordinates":[-0.590096,42.9360787]},"properties":{"description":"panneau d'interprétation géologique","information":"board","name":"GéoTrain Eygun","operator":"Association GéolVal","source":"survey","tourism":"information","website":"https://www.geolval.fr/index.php/geotrain"}},
{"type":"Feature","geometry":{"type":"Point","coordinates":[-0.6038068,43.0401546]},"properties":{"bench":"yes","leisure":"picnic_table","lit":"no","material":"wood"}},
{"type":"Feature","geometry":{"type":"Point","coordinates":[-0.6039249,43.0401265]},"properties":{"bench":"yes","leisure":"picnic_table","lit":"no","material":"wood"}},
{"type":"Feature","geometry":{"type":"Point","coordinates":[-0.6040445,43.0400747]},"properties":{"bench":"yes","leisure":"picnic_table","lit":"no","material":"wood"}},
{"type":"Feature","geometry":{"type":"Point","coordinates":[-0.6041376,43.0400175]},"properties":{"bench":"yes","leisure":"picnic_table","lit":"no","material":"wood"}},
{"type":"Feature","geometry":{"type":"Point","coordinates":[-0.5908867,42.9367134]},"properties":{"bench":"yes","leisure":"picnic_table","lit":"no","material":"wood"}},
{"type":"Feature","geometry":{"type":"Point","coordinates":[-0.5905689,42.9365026]},"properties":{"bench":"yes","leisure":"picnic_table","lit":"no","material":"wood"}},
{"type":"Feature","geometry":{"type":"Point","coordinates":[-0.5904516,42.936319]},"properties":{"bench":"yes","leisure":"picnic_table","lit":"no","material":"wood"}},
{"type":"Feature","geometry":{"type":"Point","coordinates":[-0.5904558,42.9362972]},"properties":{"bench":"yes","leisure":"picnic_table","lit":"no","material":"wood"}},
{"type":"Feature","geometry":{"type":"Point","coordinates":[-0.5875977,42.9352912]},"properties":{"historic":"memorial","memorial":"war_memorial","name":"Monument aux Morts"}},
{"type":"Feature","geometry":{"type":"Point","coordinates":[-0.5827948,42.9372088]},"properties":{"tourism":"viewpoint"}},
{"type":"Feature","geometry":{"type":"Point","coordinates":[-0.5848236,42.93815]},"properties":{"bench":"yes","leisure":"picnic_table","lit":"no","material":"wood"}},
{"type":"Feature","geometry":{"type":"Point","coordinates":[-0.584848,42.9378177]},"properties":{"tourism":"viewpoint"}},
{"type":"Feature","geometry":{"type":"Point","coordinates":[-0.6036644,42.973699]},"properties":{"name":"Bords de la Berthe ?","tourism":"attraction"}},
{"type":"Feature","geometry":{"type":"Point","coordinates":[-0.5965368,42.985619]},"properties":{"entrance":"yes"}},
{"type":"Feature","geometry":{"type":"Point","coordinates":[-0.5986748,42.9845429]},"properties":{"tourism":"viewpoint"}},
{"type":"Feature","geometry":{"type":"Point","coordinates":[-0.5993874,42.974637]},"properties":{"information":"map","map_size":"area","map_type":"citymap","name":"Accous","tourism":"information"}},
{"type":"Feature","geometry":{"type":"Point","coordinates":[-0.6035931,42.9736408]},"properties":{"bench":"yes","covered":"no","leisure":"picnic_table","lit":"no","material":"wood"}},
{"type":"Feature","geometry":{"type":"Point","coordinates":[-0.6066341,42.977431]},"properties":{"bench":"yes","leisure":"picnic_table","material":"wood"}},
{"type":"Feature","geometry":{"type":"Point","coordinates":[-0.5983087,42.9747572]},"properties":{"historic":"wayside_cross"}},
{"type":"Feature","geometry":{"type":"Point","coordinates":[-0.5978883,42.972664]},"properties":{"check_date":"2024-12-01","leisure":"pitch","sport":"table_tennis"}},
{"type":"Feature","geometry":{"type":"Point","coordinates":[-0.5976177,42.9728964]},"properties":{"leisure":"picnic_table"}},
{"type":"Feature","geometry":{"type":"Point","coordinates":[-0.5944035,42.9967379]},"properties":{"name":"Moulin de Bedous","tourism":"attraction"}},
{"type":"Feature","geometry":{"type":"Point","coordinates":[-0.5432199,43.0014926]},"properties":{"bench":"yes","covered":"no","leisure":"picnic_table","material":"stone"}},
{"type":"Feature","geometry":{"type":"Point","coordinates":[-0.5436632,43.0015414]},"properties":{"information":"map","map_size":"village","map_type":"citymap","name":"Bienvenue à Aydius","tourism":"information"}},
{"type":"Feature","geometry":{"type":"Point","coordinates":[-0.5433114,43.0015858]},"properties":{"information":"map","map_size":"area","map_type":"hiking","tourism":"information"}},
{"type":"Feature","geometry":{"type":"Point","coordinates":[-0.6020177,43.001087]},"properties":{"denotation":"street","leaf_cycle":"deciduous","leaf_type":"broadleaved","natural":"tree"}},
{"type":"Feature","geometry":{"type":"Point","coordinates":[-0.6037425,42.9736407]},"properties":{"denotation":"street","leaf_cycle":"deciduous","leaf_type":"broadleaved","natural":"tree"}},
{"type":"Feature","geometry":{"type":"Point","coordinates":[-0.6035341,42.9736433]},"properties":{"denotation":"street","leaf_cycle":"deciduous","leaf_type":"broadleaved","natural":"tree"}},
{"type":"Feature","geometry":{"type":"Point","coordinates":[-0.6033655,42.9736486]},"properties":{"denotation":"street","leaf_cycle":"deciduous","leaf_type":"broadleaved","natural":"tree"}},
{"type":"Feature","geometry":{"type":"Point","coordinates":[-0.6032535,42.9735807]},"properties":{"denotation":"street","leaf_cycle":"deciduous","leaf_type":"broadleaved","natural":"tree"}},
{"type":"Feature","geometry":{"type":"Point","coordinates":[-0.6030295,42.9735931]},"properties":{"denotation":"street","leaf_cycle":"deciduous","leaf_type":"broadleaved","natural":"tree"}},
{"type":"Feature","geometry":{"type":"Point","coordinates":[-0.6026105,42.9735032]},"properties":{"bench":"yes","covered":"no","leisure":"picnic_table","material":"wood"}},
{"type":"Feature","geometry":{"type":"Point","coordinates":[-0.6025763,42.9735171]},"properties":{"denotation":"street","leaf_cycle":"deciduous","leaf_type":"broadleaved","natural":"tree"}},
{"type":"Feature","geometry":{"type":"Point","coordinates":[-0.6024166,42.973493]},"properties":{"denotation":"street","leaf_cycle":"deciduous","leaf_type":"broadleaved","natural":"tree"}},
{"type":"Feature","geometry":{"type":"Point","coordinates":[-0.602532,42.9734624]},"properties":{"denotation":"street","leaf_cycle":"deciduous","leaf_type":"broadleaved","natural":"tree"}},
{"type":"Feature","geometry":{"type":"Point","coordinates":[-0.602461,42.973443]},"properties":{"denotation":"street","leaf_cycle":"deciduous","leaf_type":"broadleaved","natural":"tree"}},
{"type":"Feature","geometry":{"type":"Point","coordinates":[-0.6023862,42.9734142]},"properties":{"denotation":"street","leaf_cycle":"deciduous","leaf_type":"broadleaved","natural":"tree"}},
{"type":"Feature","geometry":{"type":"Point","coordinates":[-0.6023216,42.9733929]},"properties":{"denotation":"street","leaf_cycle":"deciduous","leaf_type":"broadleaved","natural":"tree"}},
{"type":"Feature","geometry":{"type":"Point","coordinates":[-0.6023356,42.9734791]},"properties":{"denotation":"street","leaf_cycle":"deciduous","leaf_type":"broadleaved","natural":"tree"}},
{"type":"Feature","geometry":{"type":"Point","coordinates":[-0.602186,42.9733846]},"properties":{"denotation":"street","leaf_cycle":"deciduous","leaf_type":"broadleaved","natural":"tree"}},
{"type":"Feature","geometry":{"type":"Point","coordinates":[-0.6022012,42.9733261]},"properties":{"denotation":"street","leaf_cycle":"deciduous","leaf_type":"broadleaved","natural":"tree"}},
{"type":"Feature","geometry":{"type":"Point","coordinates":[-0.5993098,42.9748807]},"properties":{"denotation":"street","leaf_cycle":"deciduous","leaf_type":"broadleaved","natural":"tree"}},
{"type":"Feature","geometry":{"type":"Point","coordinates":[-0.5993114,42.9748331]},"properties":{"denotation":"street","leaf_cycle":"deciduous","leaf_type":"broadleaved","natural":"tree"}},
{"type":"Feature","geometry":{"type":"Point","coordinates":[-0.5993098,42.9747494]},"properties":{"denotation":"street","leaf_cycle":"deciduous","leaf_type":"broadleaved","natural":"tree"}},
{"type":"Feature","geometry":{"type":"Point","coordinates":[-0.5993098,42.9747075]},"properties":{"denotation":"street","leaf_cycle":"deciduous","leaf_type":"broadleaved","natural":"tree"}},
{"type":"Feature","geometry":{"type":"Point","coordinates":[-0.5813674,42.936392]},"properties":{"information":"map","map_size":"village","map_type":"citymap","tourism":"information"}},
{"type":"Feature","geometry":{"type":"Point","coordinates":[-0.590067,42.9363253]},"properties":{"denotation":"street","leaf_cycle":"deciduous","leaf_type":"broadleaved","natural":"tree"}},
{"type":"Feature","geometry":{"type":"Point","coordinates":[-0.590431,42.9363404]},"properties":{"denotation":"street","leaf_cycle":"deciduous","leaf_type":"broadleaved","natural":"tree"}},
{"type":"Feature","geometry":{"type":"Point","coordinates":[-0.5903926,42.9362969]},"properties":{"denotation":"street","leaf_cycle":"deciduous","leaf_type":"broadleaved","natural":"tree"}},
{"type":"Feature","geometry":{"type":"Point","coordinates":[-0.5903423,42.9362607]},"properties":{"denotation":"street","leaf_cycle":"deciduous","leaf_type":"broadleaved","natural":"tree"}},
{"type":"Feature","geometry":{"type":"Point","coordinates":[-0.5902544,42.9361816]},"properties":{"denotation":"street","leaf_cycle":"deciduous","leaf_type":"broadleaved","natural":"tree"}},
{"type":"Feature","geometry":{"type":"Point","coordinates":[-0.5901958,42.9361481]},"properties":{"denotation":"street","leaf_cycle":"deciduous","leaf_type":"broadleaved","natural":"tree"}},
{"type":"Feature","geometry":{"type":"Point","coordinates":[-0.5902791,42.9360905]},"properties":{"denotation":"street","leaf_cycle":"deciduous","leaf_type":"broadleaved","natural":"tree"}},
{"type":"Feature","geometry":{"type":"Point","coordinates":[-0.590313,42.9361334]},"properties":{"denotation":"street","leaf_cycle":"deciduous","leaf_type":"broadleaved","natural":"tree"}},
{"type":"Feature","geometry":{"type":"Point","coordinates":[-0.5903587,42.9361829]},"properties":{"denotation":"street","leaf_cycle":"deciduous","leaf_type":"broadleaved","natural":"tree"}},
{"type":"Feature","geometry":{"type":"Point","coordinates":[-0.5904027,42.9362198]},"properties":{"denotation":"street","leaf_cycle":"deciduous","leaf_type":"broadleaved","natural":"tree"}},
{"type":"Feature","geometry":{"type":"Point","coordinates":[-0.5904439,42.936266]},"properties":{"denotation":"street","leaf_cycle":"deciduous","leaf_type":"broadleaved","natural":"tree"}},
{"type":"Feature","geometry":{"type":"Point","coordinates":[-0.5904722,42.9362996]},"properties":{"denotation":"street","leaf_cycle":"deciduous","leaf_type":"broadleaved","natural":"tree"}},
{"type":"Feature","geometry":{"type":"Point","coordinates":[-0.5908166,42.9367011]},"properties":{"denotation":"street","leaf_cycle":"deciduous","leaf_type":"broadleaved","natural":"tree"}},
{"type":"Feature","geometry":{"type":"Point","coordinates":[-0.5907744,42.936663]},"properties":{"denotation":"street","leaf_cycle":"deciduous","leaf_type":"broadleaved","natural":"tree"}},
{"type":"Feature","geometry":{"type":"Point","coordinates":[-0.5906928,42.9366208]},"properties":{"denotation":"street","leaf_cycle":"deciduous","leaf_type":"broadleaved","natural":"tree"}},
{"type":"Feature","geometry":{"type":"Point","coordinates":[-0.5906337,42.9365734]},"properties":{"denotation":"street","leaf_cycle":"deciduous","leaf_type":"broadleaved","natural":"tree"}},
{"type":"Feature","geometry":{"type":"Point","coordinates":[-0.5905873,42.9365281]},"properties":{"denotation":"street","leaf_cycle":"deciduous","leaf_type":"broadleaved","natural":"tree"}},
{"type":"Feature","geometry":{"type":"Point","coordinates":[-0.5905887,42.9364415]},"properties":{"denotation":"street","leaf_cycle":"deciduous","leaf_type":"broadleaved","natural":"tree"}},
{"type":"Feature","geometry":{"type":"Point","coordinates":[-0.5906506,42.9365219]},"properties":{"denotation":"street","leaf_cycle":"deciduous","leaf_type":"broadleaved","natural":"tree"}},
{"type":"Feature","geometry":{"type":"Point","coordinates":[-0.5907322,42.936834]},"properties":{"denotation":"street","leaf_cycle":"deciduous","leaf_type":"broadleaved","natural":"tree"}},
{"type":"Feature","geometry":{"type":"Point","coordinates":[-0.5906717,42.9367938]},"properties":{"denotation":"street","leaf_cycle":"deciduous","leaf_type":"broadleaved","natural":"tree"}},
{"type":"Feature","geometry":{"type":"Point","coordinates":[-0.5906013,42.9367454]},"properties":{"denotation":"street","leaf_cycle":"deciduous","leaf_type":"broadleaved","natural":"tree"}},
{"type":"Feature","geometry":{"type":"Point","coordinates":[-0.5904775,42.936664]},"properties":{"denotation":"street","leaf_cycle":"deciduous","leaf_type":"broadleaved","natural":"tree"}},
{"type":"Feature","geometry":{"type":"Point","coordinates":[-0.5905423,42.936698]},"properties":{"denotation":"street","leaf_cycle":"deciduous","leaf_type":"broadleaved","natural":"tree"}},
{"type":"Feature","geometry":{"type":"Point","coordinates":[-0.5904044,42.9366146]},"properties":{"denotation":"street","leaf_cycle":"deciduous","leaf_type":"broadleaved","natural":"tree"}},
{"type":"Feature","geometry":{"type":"Point","coordinates":[-0.5877309,42.9349257]},"properties":{"denotation":"street","leaf_cycle":"deciduous","leaf_type":"broadleaved","natural":"tree"}},
{"type":"Feature","geometry":{"type":"Point","coordinates":[-0.5879036,42.9350571]},"properties":{"denotation":"street","leaf_cycle":"deciduous","leaf_type":"broadleaved","natural":"tree"}},
{"type":"Feature","geometry":{"type":"Point","coordinates":[-0.5879837,42.9351009]},"properties":{"denotation":"street","leaf_cycle":"deciduous","leaf_type":"broadleaved","natural":"tree"}},
{"type":"Feature","geometry":{"type":"Point","coordinates":[-0.5880425,42.9351369]},"properties":{"denotation":"street","leaf_cycle":"deciduous","leaf_type":"broadleaved","natural":"tree"}},
{"type":"Feature","geometry":{"type":"Point","coordinates":[-0.5881891,42.9352499]},"properties":{"denotation":"street","leaf_cycle":"deciduous","leaf_type":"broadleaved","natural":"tree"}},
{"type":"Feature","geometry":{"type":"Point","coordinates":[-0.5882933,42.9353014]},"properties":{"denotation":"street","leaf_cycle":"deciduous","leaf_type":"broadleaved","natural":"tree"}},
{"type":"Feature","geometry":{"type":"Point","coordinates":[-0.5883647,42.9353375]},"properties":{"denotation":"street","leaf_cycle":"deciduous","leaf_type":"broadleaved","natural":"tree"}},
{"type":"Feature","geometry":{"type":"Point","coordinates":[-0.5884486,42.9353692]},"properties":{"denotation":"street","leaf_cycle":"deciduous","leaf_type":"broadleaved","natural":"tree"}},
{"type":"Feature","geometry":{"type":"Point","coordinates":[-0.5885345,42.9354102]},"properties":{"denotation":"street","leaf_cycle":"deciduous","leaf_type":"broadleaved","natural":"tree"}},
{"type":"Feature","geometry":{"type":"Point","coordinates":[-0.5886107,42.9354392]},"properties":{"denotation":"street","leaf_cycle":"deciduous","leaf_type":"broadleaved","natural":"tree"}},
{"type":"Feature","geometry":{"type":"Point","coordinates":[-0.5886975,42.9354752]},"properties":{"denotation":"street","leaf_cycle":"deciduous","leaf_type":"broadleaved","natural":"tree"}},
{"type":"Feature","geometry":{"type":"Point","coordinates":[-0.5880889,42.9351673]},"properties":{"denotation":"street","leaf_cycle":"deciduous","leaf_type":"broadleaved","natural":"tree"}},
{"type":"Feature","geometry":{"type":"Point","coordinates":[-0.5880703,42.9351534]},"properties":{"bench":"yes","leisure":"picnic_table","lit":"no","material":"wood"}},
{"type":"Feature","geometry":{"type":"Point","coordinates":[-0.5830339,42.9372655]},"properties":{"denotation":"urban","leaf_cycle":"deciduous","leaf_type":"broadleaved","natural":"tree"}},
{"type":"Feature","geometry":{"type":"Point","coordinates":[-0.6027085,43.0114512]},"properties":{"denotation":"avenue","leaf_cycle":"deciduous","leaf_type":"broadleaved","natural":"tree"}},
{"type":"Feature","geometry":{"type":"Point","coordinates":[-0.6026307,43.0111413]},"properties":{"denotation":"avenue","leaf_cycle":"deciduous","leaf_type":"broadleaved","natural":"tree"}},
{"type":"Feature","geometry":{"type":"Point","coordinates":[-0.6024671,43.0106]},"properties":{"denotation":"avenue","leaf_cycle":"deciduous","leaf_type":"broadleaved","natural":"tree"}},
{"type":"Feature","geometry":{"type":"Point","coordinates":[-0.6024805,43.0107922]},"properties":{"denotation":"avenue","leaf_cycle":"deciduous","leaf_type":"broadleaved","natural":"tree"}},
{"type":"Feature","geometry":{"type":"Point","coordinates":[-0.602109,43.0102813]},"properties":{"denotation":"avenue","leaf_cycle":"deciduous","leaf_type":"broadleaved","natural":"tree"}},
{"type":"Feature","geometry":{"type":"Point","coordinates":[-0.6037331,43.0126368]},"properties":{"board_type":"notice","description":"Chapelle d'ORCUN XII","information":"board","name":"Bedous","tourism":"information"}},
{"type":"Feature","geometry":{"type":"Point","coordinates":[-0.6018233,43.0073579]},"properties":{"denotation":"avenue","leaf_cycle":"deciduous","leaf_type":"broadleaved","natural":"tree"}},
{"type":"Feature","geometry":{"type":"Point","coordinates":[-0.6019253,43.0076285]},"properties":{"denotation":"avenue","leaf_cycle":"deciduous","leaf_type":"broadleaved","natural":"tree"}},
{"type":"Feature","geometry":{"type":"Point","coordinates":[-0.6018609,43.009029]},"properties":{"denotation":"avenue","leaf_cycle":"deciduous","leaf_type":"broadleaved","natural":"tree"}},
{"type":"Feature","geometry":{"type":"Point","coordinates":[-0.6017107,43.0082287]},"properties":{"denotation":"avenue","leaf_cycle":"deciduous","leaf_type":"broadleaved","natural":"tree"}},
{"type":"Feature","geometry":{"type":"Point","coordinates":[-0.5693675,42.9727323]},"properties":{"access":"yes","entrance":"main"}},
{"type":"Feature","geometry":{"type":"Point","coordinates":[-0.5710208,42.9718284]},"properties":{"denotation":"landmark","leaf_cycle":"deciduous","leaf_type":"broadleaved","natural":"tree"}},
{"type":"Feature","geometry":{"type":"Point","coordinates":[-0.5707821,42.9719894]},"properties":{"denotation":"landmark","leaf_cycle":"deciduous","leaf_type":"broadleaved","natural":"tree"}},
{"type":"Feature","geometry":{"type":"Point","coordinates":[-0.570353,42.9714889]},"properties":{"denotation":"landmark","leaf_cycle":"deciduous","leaf_type":"broadleaved","natural":"tree"}},
{"type":"Feature","geometry":{"type":"Point","coordinates":[-0.5701679,42.9708825]},"properties":{"denotation":"landmark","leaf_cycle":"deciduous","leaf_type":"broadleaved","natural":"tree"}},
{"type":"Feature","geometry":{"type":"Point","coordinates":[-0.5701116,42.9718226]},"properties":{"denotation":"landmark","leaf_cycle":"deciduous","leaf_type":"broadleaved","natural":"tree"}},