{"type":"FeatureCollection","features":[
{"type":"Feature","geometry":{"type":"Point","coordinates":[4.4181965,44.3812563]},"properties":{"name":"Le Pont d'Arc","tourism":"viewpoint"}},
{"type":"Feature","geometry":{"type":"Point","coordinates":[4.4162049,44.3820076]},"properties":{"name":"Le Pont d'Arc","natural":"arch","place":"locality","tourism":"attraction","wheelchair":"no","wikidata":"Q1062180","wikipedia":"fr:Pont d'Arc"}},
{"type":"Feature","geometry":{"type":"Point","coordinates":[4.3565952,44.3594584]},"properties":{"name":"Domaine du Frigoulet","tourism":"hotel"}},
{"type":"Feature","geometry":{"type":"Point","coordinates":[4.3812708,44.3571125]},"properties":{"name":"Goule de Foussoubie","natural":"cave_entrance","wikidata":"Q3111639","wikipedia":"fr:Goule de Foussoubie"}},
{"type":"Feature","geometry":{"type":"Point","coordinates":[4.4116625,44.3908951]},"properties":{"name":"Aven du Marteau","natural":"cave_entrance"}},
{"type":"Feature","geometry":{"type":"Point","coordinates":[4.4129469,44.393073]},"properties":{"name":"Grotte Nouvelle","natural":"cave_entrance"}},
{"type":"Feature","geometry":{"type":"Point","coordinates":[4.3356771,44.4151055]},"properties":{"tourism":"viewpoint"}},
{"type":"Feature","geometry":{"type":"Point","coordinates":[4.3815368,44.3919575]},"properties":{"information":"map","map_type":"toposcope","tourism":"information"}},
{"type":"Feature","geometry":{"type":"Point","coordinates":[4.4016944,44.3860488]},"properties":{"tourism":"viewpoint"}},
{"type":"Feature","geometry":{"type":"Point","coordinates":[4.4006465,44.3890254]},"properties":{"tourism":"viewpoint"}},
{"type":"Feature","geometry":{"type":"Point","coordinates":[4.3329979,44.4352138]},"properties":{"email":"info@le-mas-saint-michel.com","internet_access":"yes","internet_access:fee":"no","name":"Mas Saint-Michel","phone":"+33 4 75 39 73 33","place":"hamlet","smoking":"separated","tourism":"guest_house","website":"https://www.le-mas-saint-michel.com","wheelchair":"yes"}},
{"type":"Feature","geometry":{"type":"Point","coordinates":[4.4061231,44.3819963]},"properties":{"access":"yes","name":"Event de Foussoubie","natural":"cave_entrance"}},
{"type":"Feature","geometry":{"type":"Point","coordinates":[4.4150037,44.3951227]},"properties":{"name":"Grotte du Déroc (entrée ouest)","natural":"cave_entrance"}},
{"type":"Feature","geometry":{"type":"Point","coordinates":[4.4126638,44.3936587]},"properties":{"name":"Grotte des Deux Avens","natural":"cave_entrance"}},
{"type":"Feature","geometry":{"type":"Point","coordinates":[4.3201939,44.4333333]},"properties":{"historic":"wayside_cross","name":"Croix de pierre"}},
{"type":"Feature","geometry":{"type":"Point","coordinates":[4.3291295,44.4454834]},"properties":{"historic":"wayside_cross","name":"Croix de pierre"}},
{"type":"Feature","geometry":{"type":"Point","coordinates":[4.322272,44.4487873]},"properties":{"name":"Les gorges de la Beaume","natural":"gorge","tourism":"viewpoint"}},
{"type":"Feature","geometry":{"type":"Point","coordinates":[4.3213201,44.4478591]},"properties":{"historic":"wayside_cross","name":"Croix de pierre"}},
{"type":"Feature","geometry":{"type":"Point","coordinates":[4.3159697,44.4394024]},"properties":{"name":"Mas de la Vignasse, Musée Alphonse Daudet","tourism":"museum","website":"https://www.masdaudet.com/"}},
{"type":"Feature","geometry":{"type":"Point","coordinates":[4.3435373,44.4513569]},"properties":{"historic":"wayside_cross","name":"Croix de pierre"}},
{"type":"Feature","geometry":{"type":"Point","coordinates":[4.3389907,44.4504472]},"properties":{"historic":"wayside_cross"}},
{"type":"Feature","geometry":{"type":"Point","coordinates":[4.4116081,44.3871922]},"properties":{"tourism":"viewpoint"}},
{"type":"Feature","geometry":{"type":"Point","coordinates":[4.3852944,44.3971932]},"properties":{"barrier":"gate","bicycle":"yes","foot":"yes"}},
{"type":"Feature","geometry":{"type":"Point","coordinates":[4.3834381,44.3975376]},"properties":{"barrier":"lift_gate","bicycle":"yes","foot":"yes","horse":"yes","motorcycle":"yes"}},
{"type":"Feature","geometry":{"type":"Point","coordinates":[4.3932876,44.395001]},"properties":{"leisure":"slipway"}},
{"type":"Feature","geometry":{"type":"Point","coordinates":[4.3979203,44.4106899]},"properties":{"historic":"memorial","name":"AD2000"}},
{"type":"Feature","geometry":{"type":"Point","coordinates":[4.4018004,44.4102086]},"properties":{"leisure":"playground"}},
{"type":"Feature","geometry":{"type":"Point","coordinates":[4.3918698,44.3993954]},"properties":{"amenity":"restaurant","name":"Le Clos des Bruyères","stars":"2","tourism":"hotel"}},
{"type":"Feature","geometry":{"type":"Point","coordinates":[4.4016035,44.3915824]},"properties":{"board_type":"board","information":"board","tourism":"information"}},
{"type":"Feature","geometry":{"type":"Point","coordinates":[4.4079484,44.3837619]},"properties":{"tourism":"viewpoint"}},
{"type":"Feature","geometry":{"type":"Point","coordinates":[4.4203347,44.3769305]},"properties":{"name":"Hôtel des Touristes","phone":"+33 4 75880001","tourism":"hotel","website":"http://hoteldestouristes.e-monsite.com/"}},
{"type":"Feature","geometry":{"type":"Point","coordinates":[4.4282024,44.3775492]},"properties":{"name":"Domaine de Chames","tourism":"chalet","website":"https://www.vacanceole.com/location-vacances/41-domaine-de-chames-vallon-pont-darc"}},
{"type":"Feature","geometry":{"type":"Point","coordinates":[4.3183857,44.4355796]},"properties":{"historic":"memorial","memorial":"war_memorial","ref:FR:MemorialGenWeb":"50414"}},
{"type":"Feature","geometry":{"type":"Point","coordinates":[4.3188115,44.4356074]},"properties":{"historic":"wayside_cross"}},
{"type":"Feature","geometry":{"type":"Point","coordinates":[4.4186635,44.3960092]},"properties":{"heritage":"3","heritage:operator":"mhs","mhs:inscription_date":"1995-08-25","name":"Grotte de Louoï","natural":"cave_entrance","ref:mhs":"PA00135639","source":"data.gouv.fr:Ministère de la Culture - 08/2011","source:heritage":"data.gouv.fr:Ministère de la Culture - 04/2015","wikidata":"Q3117144","wikipedia":"fr:Grotte de Louoï"}},
{"type":"Feature","geometry":{"type":"Point","coordinates":[4.4117764,44.3870606]},"properties":{"access":"no","alt_name":"Chauvet Cave;Grotte Chauvet-Pont d'Arc","archaeological_site":"pictographs","field":"yes","heritage":"1","heritage:operator":"whc","historic":"archaeological_site","int_name":"Chauvet-Pont-d'Arc Cave","name":"Grotte Chauvet","natural":"cave_entrance","petroglyph":"rock_art","ref:whc":"1426","whc:criteria":"(i),(iii)","whc:inscription_date":"2014","whc:name":"Decorated Cave of Pont d’Arc, known as Grotte Chauvet-Pont d’Arc, Ardèche","whc:website":"https://whc.unesco.org/en/list/1426","wikidata":"Q374096"}},
{"type":"Feature","geometry":{"type":"Point","coordinates":[4.4159182,44.3955223]},"properties":{"name":"Grotte du Déroc (entrée centrale)","natural":"cave_entrance","wikidata":"Q2403244","wikipedia":"fr:Grotte du Déroc"}},
{"type":"Feature","geometry":{"type":"Point","coordinates":[4.4026599,44.3914783]},"properties":{"heritage":"3","heritage:operator":"mhs","mhs:inscription_date":"1995-08-25","name":"Grotte de Mézelet","natural":"cave_entrance","ref:mhs":"PA00135638","source":"data.gouv.fr:Ministère de la Culture - 08/2011","source:heritage":"data.gouv.fr:Ministère de la Culture - 04/2015","wikidata":"Q3117153","wikipedia":"fr:Grotte de Mézelet"}},
{"type":"Feature","geometry":{"type":"Point","coordinates":[4.4152983,44.3880972]},"properties":{"heritage":"3","heritage:operator":"mhs","mhs:inscription_date":"1995-08-25","name":"Grotte de la Vacheresse","natural":"cave_entrance","ref:mhs":"PA00135640","source":"data.gouv.fr:Ministère de la Culture - 08/2011","source:heritage":"data.gouv.fr:Ministère de la Culture - 04/2015","wikidata":"Q3117202","wikipedia":"fr:Grotte de la Vacheresse"}},
{"type":"Feature","geometry":{"type":"Point","coordinates":[4.4271083,44.3681768]},"properties":{"heritage":"3","heritage:operator":"mhs","mhs:inscription_date":"1995-08-25","name":"Grotte du Colombier","natural":"cave_entrance","ref:mhs":"PA00135637","source":"data.gouv.fr:Ministère de la Culture - 08/2011","source:heritage":"Ministère de la Culture - 06/2019","wikidata":"Q3117227","wikipedia":"fr:Grotte du Colombier"}},
{"type":"Feature","geometry":{"type":"Point","coordinates":[4.4223757,44.3735519]},"properties":{"access":"restricted","alt_name":"Grotte de Chamas;Grotte du Château d'Ebbo","heritage":"2","heritage:operator":"mhs","mhs:inscription_date":"1947-06-19","name":"Grotte d'Ebbou","natural":"cave_entrance","ref:mhs":"PA00116842","source":"data.gouv.fr:Ministère de la Culture - 08/2011","source:heritage":"data.gouv.fr:Ministère de la Culture - 04/2015","wikidata":"Q3117111","wikipedia":"fr:Grotte d'Ebbou"}},
{"type":"Feature","geometry":{"type":"Point","coordinates":[4.4138478,44.3824203]},"properties":{"board_type":"geology","information":"board","tourism":"information"}},
{"type":"Feature","geometry":{"type":"Point","coordinates":[4.3644937,44.395386]},"properties":{"board_type":"board","information":"board","name":"Escalade de Ardeche","tourism":"information"}},
{"type":"Feature","geometry":{"type":"Point","coordinates":[4.4287553,44.4358441]},"properties":{"barrier":"gate","emergency":"yes"}},
{"type":"Feature","geometry":{"type":"Point","coordinates":[4.3634158,44.4492986]},"properties":{"addr:housenumber":"6440","source":"cadastre-dgi-fr source : Direction Générale des Finances Publiques - Cadastre. Mise à jour : 2022"}},
{"type":"Feature","geometry":{"type":"Point","coordinates":[4.3348824,44.4169636]},"properties":{"historic":"wayside_cross","name":"Mission 1857"}},
{"type":"Feature","geometry":{"type":"Point","coordinates":[4.3352995,44.4154655]},"properties":{"name":"Rocher de Sampzon","tourism":"viewpoint"}},
{"type":"Feature","geometry":{"type":"Point","coordinates":[4.3356213,44.4179975]},"properties":{"historic":"wayside_cross"}},
{"type":"Feature","geometry":{"type":"Point","coordinates":[4.3600006,44.4418084]},"properties":{"historic":"wayside_cross"}},
{"type":"Feature","geometry":{"type":"Point","coordinates":[4.3828656,44.3975902]},"properties":{"entrance":"main"}},
{"type":"Feature","geometry":{"type":"Point","coordinates":[4.3633155,44.3439045]},"properties":{"addr:street":"L'Estrade","name":"Hôtel La Bastide d'Iris","tourism":"hotel"}},
{"type":"Feature","geometry":{"type":"Point","coordinates":[4.4194654,44.4492583]},"properties":{"leisure":"picnic_table"}},
{"type":"Feature","geometry":{"type":"Point","coordinates":[4.4171858,44.4467917]},"properties":{"amenity":"cafe","name":"Le Cheval Blanc","tourism":"hotel"}},
{"type":"Feature","geometry":{"type":"Point","coordinates":[4.4036103,44.395833]},"properties":{"amenity":"stables","leisure":"horse_riding","name":"Ranch des Gorges"}},
{"type":"Feature","geometry":{"type":"Point","coordinates":[4.4088513,44.3862411]},"properties":{"access":"private","name":"Grotte de Cayre Creyt","natural":"cave_entrance","wikidata":"Q93615984"}},
{"type":"Feature","geometry":{"type":"Point","coordinates":[4.4020966,44.3892473]},"properties":{"name":"Grotte de la Chaire","natural":"cave_entrance"}},
{"type":"Feature","geometry":{"type":"Point","coordinates":[4.4195558,44.3791464]},"properties":{"access":"private","name":"IT39","natural":"cave_entrance"}},
{"type":"Feature","geometry":{"type":"Point","coordinates":[4.4236817,44.4092315]},"properties":{"name":"Aven de Chazot","natural":"cave_entrance"}},
{"type":"Feature","geometry":{"type":"Point","coordinates":[4.4126138,44.3911088]},"properties":{"name":"Aven de la Grand Combe","natural":"cave_entrance"}},
{"type":"Feature","geometry":{"type":"Point","coordinates":[4.4119839,44.3898631]},"properties":{"name":"Aven de la Plaine des Gras","natural":"cave_entrance"}},
{"type":"Feature","geometry":{"type":"Point","coordinates":[4.4119764,44.3871101]},"properties":{"access":"private","name":"Grotte du Maquis","natural":"cave_entrance"}},
{"type":"Feature","geometry":{"type":"Point","coordinates":[4.4086351,44.3877077]},"properties":{"access":"private","name":"Grotte des Huguenots","natural":"cave_entrance","wikidata":"Q92103556","wikipedia":"fr:Grotte des Huguenots"}},
{"type":"Feature","geometry":{"type":"Point","coordinates":[4.3341391,44.4501379]},"properties":{"name":"Camping l'Adrénaline","tourism":"camp_site"}},
{"type":"Feature","geometry":{"type":"Point","coordinates":[4.375912,44.3680764]},"properties":{"archaeological_site":"megalith","historic":"archaeological_site","megalith_type":"dolmen","name":"Dolmen de Champagnac","source":"GPS","website":"http://www.t4t35.fr/Megalithes/AfficheSite.aspx?NumSite=28959"}},
{"type":"Feature","geometry":{"type":"Point","coordinates":[4.3926135,44.395878]},"properties":{"leisure":"slipway"}},
{"type":"Feature","geometry":{"type":"Point","coordinates":[4.3326732,44.4514056]},"properties":{"denomination":"catholic","historic":"wayside_cross","religion":"christian"}},
{"type":"Feature","geometry":{"type":"Point","coordinates":[4.3394288,44.4055624]},"properties":{"ele":"315","hiking":"yes","information":"guidepost","name":"Les Agrenasses","tourism":"information"}},
{"type":"Feature","geometry":{"type":"Point","coordinates":[4.3411226,44.4075063]},"properties":{"ele":"285","hiking":"yes","information":"guidepost","name":"Le Pérérol","tourism":"information"}},
{"type":"Feature","geometry":{"type":"Point","coordinates":[4.3414364,44.4090411]},"properties":{"leisure":"picnic_table"}},
{"type":"Feature","geometry":{"type":"Point","coordinates":[4.3414257,44.4090756]},"properties":{"tourism":"viewpoint"}},
{"type":"Feature","geometry":{"type":"Point","coordinates":[4.3400658,44.4137526]},"properties":{"ele":"270","hiking":"yes","information":"guidepost","name":"Richard","tourism":"information"}},
{"type":"Feature","geometry":{"type":"Point","coordinates":[4.3321775,44.4022425]},"properties":{"ele":"335","hiking":"yes","information":"guidepost","name":"Bertras","tourism":"information"}},
{"type":"Feature","geometry":{"type":"Point","coordinates":[4.3134905,44.3966314]},"properties":{"ele":"340","hiking":"yes","information":"guidepost","name":"Combe de Bonne Fille","survey:date":"2024-01-29","tourism":"information"}},
{"type":"Feature","geometry":{"type":"Point","coordinates":[4.365602,44.3768595]},"properties":{"drinking_water":"yes","natural":"spring"}},
{"type":"Feature","geometry":{"type":"Point","coordinates":[4.4163539,44.3948987]},"properties":{"name":"Grotte de Chasserou","natural":"cave_entrance"}},
{"type":"Feature","geometry":{"type":"Point","coordinates":[4.3866741,44.3988087]},"properties":{"addr:postcode":"07150","addr:street":"Passage de la Première Armée","name":"CREPS Rhône-Alpes","opening_hours":"Mo-Fr 08:00-17:30","phone":"+33475881510","tourism":"guest_house","website":"https://www.creps-rhonealpes.sports.gouv.fr/"}},
{"type":"Feature","geometry":{"type":"Point","coordinates":[4.4164772,44.375943]},"properties":{"name":"Source de Vanmalle","natural":"cave_entrance"}},
{"type":"Feature","geometry":{"type":"Point","coordinates":[4.4269351,44.3716907]},"properties":{"tourism":"viewpoint"}},
{"type":"Feature","geometry":{"type":"Point","coordinates":[4.4132065,44.3885089]},"properties":{"ele":"235","hiking":"yes","information":"guidepost","name":"Combe d'Arc","tourism":"information"}},
{"type":"Feature","geometry":{"type":"Point","coordinates":[4.4022392,44.3509299]},"properties":{"information":"map","map_type":"scheme","name":"Labastide de Virac Info Rando","tourism":"information"}},
{"type":"Feature","geometry":{"type":"Point","coordinates":[4.3524895,44.3836441]},"properties":{"ele":"245","ele:signed":"no","hiking":"yes","information":"guidepost","name":"Bois des Bruyères","tourism":"information"}},
{"type":"Feature","geometry":{"type":"Point","coordinates":[4.3517148,44.3980071]},"properties":{"ele":"180","hiking":"yes","information":"guidepost","name":"Chat du Devès","tourism":"information"}},
{"type":"Feature","geometry":{"type":"Point","coordinates":[4.4282056,44.4352388]},"properties":{"ele":"120","hiking":"yes","information":"guidepost","name":"Ferrière","tourism":"information"}},
{"type":"Feature","geometry":{"type":"Point","coordinates":[4.3464672,44.364857]},"properties":{"hiking":"yes","information":"guidepost","name":"Grand chêne","tourism":"information"}},
{"type":"Feature","geometry":{"type":"Point","coordinates":[4.3491199,44.3813156]},"properties":{"ele":"225","hiking":"yes","information":"guidepost","name":"L'Épingle","tourism":"information"}},
{"type":"Feature","geometry":{"type":"Point","coordinates":[4.3464404,44.3704967]},"properties":{"ele":"245","hiking":"yes","information":"guidepost","name":"Lastic","tourism":"information"}},
{"type":"Feature","geometry":{"type":"Point","coordinates":[4.4153359,44.4445432]},"properties":{"ele":"180","ele:signed":"no","hiking":"yes","information":"guidepost","name":"Le Pertus","name:oc":"Lo Pertús","source:name:oc":"ieo-bdtopoc","survey:date":"2023-01-04","tourism":"information"}},
{"type":"Feature","geometry":{"type":"Point","coordinates":[4.3403996,44.3768919]},"properties":{"ele":"265","hiking":"yes","information":"guidepost","name":"Les Hubasses","tourism":"information"}},
{"type":"Feature","geometry":{"type":"Point","coordinates":[4.3700021,44.3976641]},"properties":{"ele":"105","hiking":"yes","information":"guidepost","name":"Pont de Lantousse","tourism":"information"}},
{"type":"Feature","geometry":{"type":"Point","coordinates":[4.3787301,44.3952068]},"properties":{"ele":"100","ele:signed":"no","hiking":"yes","information":"guidepost","name":"Salavas","tourism":"information"}},
{"type":"Feature","geometry":{"type":"Point","coordinates":[4.4089581,44.3984652]},"properties":{"name":"Aven Isa","natural":"cave_entrance"}},
{"type":"Feature","geometry":{"type":"Point","coordinates":[4.3132001,44.4332155]},"properties":{"denomination":"catholic","historic":"wayside_cross","religion":"christian"}},
{"type":"Feature","geometry":{"type":"Point","coordinates":[4.3154003,44.4339409]},"properties":{"denomination":"catholic","historic":"wayside_cross","religion":"christian"}},
{"type":"Feature","geometry":{"type":"Point","coordinates":[4.3220354,44.4389108]},"properties":{"denomination":"catholic","historic":"wayside_cross","religion":"christian"}},
{"type":"Feature","geometry":{"type":"Point","coordinates":[4.417586,44.3959384]},"properties":{"name":"Grotte du Déroc (entrée est)","natural":"cave_entrance"}},
{"type":"Feature","geometry":{"type":"Point","coordinates":[4.3444135,44.4242157]},"properties":{"ele":"125","hiking":"yes","information":"guidepost","name":"Les Trouillères","tourism":"information"}},
{"type":"Feature","geometry":{"type":"Point","coordinates":[4.4161563,44.3855841]},"properties":{"access":"permissive","name":"Grotte des Châtaigniers","natural":"cave_entrance"}},
{"type":"Feature","geometry":{"type":"Point","coordinates":[4.367596,44.4435514]},"properties":{"barrier":"gate","bicycle":"no","foot":"no"}},
{"type":"Feature","geometry":{"type":"Point","coordinates":[4.4233751,44.4256301]},"properties":{"leisure":"picnic_table"}},
{"type":"Feature","geometry":{"type":"Point","coordinates":[4.4233413,44.4256785]},"properties":{"leisure":"picnic_table"}},
{"type":"Feature","geometry":{"type":"Point","coordinates":[4.4248091,44.4264195]},"properties":{"leisure":"picnic_table"}},
{"type":"Feature","geometry":{"type":"Point","coordinates":[4.4230678,44.4250411]},"properties":{"tourism":"gallery","website":"https://www.domainedecoucouzac.fr/rp/exposition-coucouz-art"}},
{"type":"Feature","geometry":{"type":"Point","coordinates":[4.3421584,44.4349297]},"properties":{"covered":"no","leisure":"picnic_table"}},
{"type":"Feature","geometry":{"type":"Point","coordinates":[4.4036977,44.3799208]},"properties":{"access":"private","name":"Aven du Devès de Virac","natural":"cave_entrance"}},
{"type":"Feature","geometry":{"type":"Point","coordinates":[4.4051785,44.3820993]},"properties":{"tourism":"viewpoint"}},
{"type":"Feature","geometry":{"type":"Point","coordinates":[4.4070236,44.3791624]},"properties":{"tourism":"viewpoint"}},
{"type":"Feature","geometry":{"type":"Point","coordinates":[4.4010698,44.351795]},"properties":{"alt_name":"Musée de la Soie","name":"Ecomusée de la Soie du château","name:en":"Ecomuseum of silk","name:fr":"Ecomusée de la Soie","name:nl":"Zijde museum","tourism":"museum","website":"https://www.chateaudesroure.com/la-magnanerie-et-la-soie-du-chateau-des-roure-a-labastide-de-virac.html"}},
{"type":"Feature","geometry":{"type":"Point","coordinates":[4.3760428,44.3941982]},"properties":{"heritage":"3","heritage:operator":"mhs","historic":"castle","mhs:inscription_date":"1981-05-14","name":"Site médiéval","ref:mhs":"PA00116811","source:heritage":"data.gouv.fr, Ministère de la Culture - 2016","wikidata":"Q3485443","wikipedia":"fr:Site médiéval de Salavas"}},
{"type":"Feature","geometry":{"type":"Point","coordinates":[4.3649264,44.3512468]},"properties":{"format":"cylindrical + stone_cross","heritage":"3","heritage:operator":"mhs","historic":"milestone","historic:period":"roman","material":"stone","mhs:inscription_date":"1974-09-03","name":"Borne milliaire romaine","ref:mhs":"PA00116840","source:heritage":"data.gouv.fr, Ministère de la Culture - 2016","start_date":"C2","wikidata":"Q2911172","wikipedia":"fr:Borne milliaire de Vagnas"}},
{"type":"Feature","geometry":{"type":"Point","coordinates":[4.4141753,44.382265]},"properties":{"tourism":"viewpoint"}},
{"type":"Feature","geometry":{"type":"Point","coordinates":[4.3600727,44.3486714]},"properties":{"tourism":"guest_house"}},
{"type":"Feature","geometry":{"type":"Point","coordinates":[4.3429829,44.451986]},"properties":{"name":"Le Théodore","tourism":"hotel"}},
{"type":"Feature","geometry":{"type":"Point","coordinates":[4.3223289,44.4221799]},"properties":{"name":"Les Gîtes du Château de Sampzon","tourism":"guest_house"}},
{"type":"Feature","geometry":{"type":"Point","coordinates":[4.3462341,44.4428527]},"properties":{"craft":"winery","description":"Espace Découverte Oenologique des Vignerons Ardéchois","name":"Néovinum","tourism":"museum","website":"https://www.neovinum.fr/"}},
{"type":"Feature","geometry":{"type":"Point","coordinates":[4.3454052,44.4460429]},"properties":{"check_date":"2024-08-18","name":"Château de Chaussy","tourism":"guest_house"}},
{"type":"Feature","geometry":{"type":"Point","coordinates":[4.343816,44.4460094]},"properties":{"leisure":"pitch","name":"Les Archers du Tanargue","sport":"archery"}},
{"type":"Feature","geometry":{"type":"Point","coordinates":[4.3390377,44.4503876]},"properties":{"denomination":"catholic","historic":"wayside_cross","religion":"christian"}},
{"type":"Feature","geometry":{"type":"Point","coordinates":[4.3374646,44.4510558]},"properties":{"amenity":"boat_rental","canoe_rental":"yes","leisure":"sports_centre","name":"Les Argonautes","sport":"canoe"}},
{"type":"Feature","geometry":{"type":"Point","coordinates":[4.3129344,44.3913741]},"properties":{"ele":"355","hiking":"yes","information":"guidepost","name":"Plot de la Molle","survey:date":"2024-01-29","tourism":"information"}},
{"type":"Feature","geometry":{"type":"Point","coordinates":[4.3288305,44.446603]},"properties":{"barrier":"chain","bicycle":"yes","foot":"yes","motorcar":"yes","motorcycle":"yes"}},
{"type":"Feature","geometry":{"type":"Point","coordinates":[4.3203367,44.4333197]},"properties":{"ele":"100","hiking":"yes","information":"guidepost","name":"Le Béal","tourism":"information"}},
{"type":"Feature","geometry":{"type":"Point","coordinates":[4.3183324,44.435539]},"properties":{"leisure":"picnic_table"}},
{"type":"Feature","geometry":{"type":"Point","coordinates":[4.3184745,44.4357181]},"properties":{"name":"Arbre de la Liberté","natural":"tree"}},
{"type":"Feature","geometry":{"type":"Point","coordinates":[4.3153162,44.4375796]},"properties":{"name":"Gîte de Bousseyron","tourism":"guest_house"}},
{"type":"Feature","geometry":{"type":"Point","coordinates":[4.3159653,44.4417621]},"properties":{"name":"Mas de Chadenel","tourism":"guest_house"}},
{"type":"Feature","geometry":{"type":"Point","coordinates":[4.3188313,44.4468098]},"properties":{"check_date":"2024-08-19","name":"La Chandelette","tourism":"guest_house"}},
{"type":"Feature","geometry":{"type":"Point","coordinates":[4.3255341,44.4493469]},"properties":{"name":"Villa d'Isa","tourism":"guest_house"}},
{"type":"Feature","geometry":{"type":"Point","coordinates":[4.3260826,44.4489888]},"properties":{"name":"Mas des falaises","tourism":"guest_house"}},
{"type":"Feature","geometry":{"type":"Point","coordinates":[4.3288144,44.44802]},"properties":{"ele":"115","hiking":"yes","information":"guidepost","name":"Le Vieux Pont","survey:date":"2023-02-27","tourism":"information"}},
{"type":"Feature","geometry":{"type":"Point","coordinates":[4.4136412,44.347410000000007]},"properties":{"addr:housenumber":"588","addr:street":"Route du Mas de Serret","description":"Gîte écologique à ossature bois isolé en botte de paille","email":"contact@1000pailles.fr","internet_access":"yes","name":"Écogîte 1000 Pailles","tourism":"chalet","website":"https://1000pailles.fr/"}},
{"type":"Feature","geometry":{"type":"Point","coordinates":[4.4051318,44.3821106]},"properties":{"name":"Event supérieur de Foussoubie","natural":"cave_entrance"}},
{"type":"Feature","geometry":{"type":"Point","coordinates":[4.421687,44.3684354]},"properties":{"tourism":"viewpoint"}},
{"type":"Feature","geometry":{"type":"Point","coordinates":[4.424436,44.3661292]},"properties":{"tourism":"viewpoint"}},
{"type":"Feature","geometry":{"type":"Point","coordinates":[4.4196417,44.3790252]},"properties":{"access":"private","name":"Grotte de Rouvière","natural":"cave_entrance"}},
{"type":"Feature","geometry":{"type":"Point","coordinates":[4.4176438,44.448851]},"properties":{"denomination":"catholic","historic":"wayside_cross","religion":"christian"}},
{"type":"Feature","geometry":{"type":"Point","coordinates":[4.3386289,44.4521405]},"properties":{"entrance":"gate"}},
{"type":"Feature","geometry":{"type":"Point","coordinates":[4.3385808,44.4522963]},"properties":{"leisure":"playground","playground":"climbingframe"}},
{"type":"Feature","geometry":{"type":"Point","coordinates":[4.3387084,44.4522822]},"properties":{"leisure":"playground","playground":"structure","playground:theme":"castle"}},
{"type":"Feature","geometry":{"type":"Point","coordinates":[4.3385484,44.4522359]},"properties":{"leisure":"playground","playground":"structure"}},
{"type":"Feature","geometry":{"type":"Point","coordinates":[4.3386471,44.4522007]},"properties":{"leisure":"playground","playground":"springy"}},
{"type":"Feature","geometry":{"type":"Point","coordinates":[4.3790321,44.3877459]},"properties":{"leisure":"playground"}},
{"type":"Feature","geometry":{"type":"Point","coordinates":[4.3787233,44.3879126]},"properties":{"tourism":"information"}},
{"type":"Feature","geometry":{"type":"Point","coordinates":[4.3379222,44.4192287]},"properties":{"historic":"wayside_cross"}},
{"type":"Feature","geometry":{"type":"Point","coordinates":[4.3656807,44.3479126]},"properties":{"addr:housenumber":"270","addr:street":"Rue du Couvent","internet_access":"yes","internet_access:fee":"customers","name":"Hôtel du Couvent","phone":"+33 4 87 22 00 30","tourism":"hotel","website":"https://www.couventvagnas.com"}},
{"type":"Feature","geometry":{"type":"Point","coordinates":[4.3946759,44.4070046]},"properties":{"natural":"tree"}},
{"type":"Feature","geometry":{"type":"Point","coordinates":[4.3947859,44.4069558]},"properties":{"natural":"tree"}},
{"type":"Feature","geometry":{"type":"Point","coordinates":[4.3947094,44.4068609]},"properties":{"natural":"tree"}},
{"type":"Feature","geometry":{"type":"Point","coordinates":[4.3946665,44.4068892]},"properties":{"natural":"tree"}},
{"type":"Feature","geometry":{"type":"Point","coordinates":[4.3945914,44.4069265]},"properties":{"natural":"tree"}},
{"type":"Feature","geometry":{"type":"Point","coordinates":[4.3944935,44.4069759]},"properties":{"natural":"tree"}},
{"type":"Feature","geometry":{"type":"Point","coordinates":[4.3946001,44.4070501]},"properties":{"natural":"tree"}},
{"type":"Feature","geometry":{"type":"Point","coordinates":[4.3943762,44.4071574]},"properties":{"natural":"tree"}},
{"type":"Feature","geometry":{"type":"Point","coordinates":[4.394295,44.4070731]},"properties":{"natural":"tree"}},
{"type":"Feature","geometry":{"type":"Point","coordinates":[4.3943574,44.4070382]},"properties":{"natural":"tree"}},
{"type":"Feature","geometry":{"type":"Point","coordinates":[4.3241804,44.406647]},"properties":{"name":"L'Aiguille","tourism":"viewpoint"}},
{"type":"Feature","geometry":{"type":"Point","coordinates":[4.3372314,44.4034895]},"properties":{"tourism":"viewpoint"}},
{"type":"Feature","geometry":{"type":"Point","coordinates":[4.3291531,44.4194545]},"properties":{"name":"Aerodrome de Ruoms","name:fr":"Aérodrome de Ruoms","tourism":"viewpoint"}},
{"type":"Feature","geometry":{"type":"Point","coordinates":[4.3299211,44.4317289]},"properties":{"internet_access":"wlan","leisure":"fitness_centre","name":"La Chapoulière","opening_hours":"Mo-Su 09:00-18:00"}},
{"type":"Feature","geometry":{"type":"Point","coordinates":[4.3664917,44.4469482]},"properties":{"addr:housenumber":"5885","addr:street":"Route de Ruoms","check_date":"2024-08-04","name":"Domaine de Chaussy","tourism":"hotel"}},
{"type":"Feature","geometry":{"type":"Point","coordinates":[4.3950324,44.4475087]},"properties":{"addr:housenumber":"620","addr:street":"Chemin des Terriers","email":"poterie@laposte.net","name":"Poterie des Riailles","opening_hours":"Mo-Su 09:00-19:30","phone":"+33 4 75 37 13 06","tourism":"attraction","website":"https://www.moron.com.fr"}},
{"type":"Feature","geometry":{"type":"Point","coordinates":[4.3953563,44.4479016]},"properties":{"addr:housenumber":"520","addr:street":"Chemin des Terriers","leisure":"park","name":"Four à Bois","opening_hours":"24/7"}},
{"type":"Feature","geometry":{"type":"Point","coordinates":[4.3306466,44.452564]},"properties":{"ele":"128","hiking":"yes","information":"guidepost","name":"Peyroche","survey:date":"2023-02-27","tourism":"information"}},
{"type":"Feature","geometry":{"type":"Point","coordinates":[4.380011,44.4524177]},"properties":{"ele":"210","hiking":"yes","information":"guidepost","name":"Les Bouchets","tourism":"information"}},
{"type":"Feature","geometry":{"type":"Point","coordinates":[4.3734616,44.4503709]},"properties":{"ele":"220","hiking":"yes","information":"guidepost","name":"Petit Chaussy","tourism":"information"}},
{"type":"Feature","geometry":{"type":"Point","coordinates":[4.3503564,44.4495079]},"properties":{"ele":"128","hiking":"yes","information":"guidepost","name":"Les Faysses","tourism":"information"}},
{"type":"Feature","geometry":{"type":"Point","coordinates":[4.3514874,44.4488667]},"properties":{"ele":"128","hiking":"yes","information":"guidepost","name":"Serre de Nicard","tourism":"information"}},
{"type":"Feature","geometry":{"type":"Point","coordinates":[4.339811,44.4283327]},"properties":{"name":"Airjey","name:fr":"AirJey Filets","tourism":"attraction"}},
{"type":"Feature","geometry":{"type":"Point","coordinates":[4.3431915,44.4205457]},"properties":{"leisure":"track","sport":"cycling"}},
{"type":"Feature","geometry":{"type":"Point","coordinates":[4.366537,44.3449014]},"properties":{"historic":"memorial","memorial":"war_memorial","ref:FR:MemorialGenWeb":"23450"}},
{"type":"Feature","geometry":{"type":"Point","coordinates":[4.3164548,44.4396575]},"properties":{"name":"Mas Daudet : Musée Alphonse Daudet","phone":"+33 4 75 39 65 07","phone_1":"+33 6 77 45 98 28","source":"BDTopo IGN","tourism":"museum","website":"https://musee-daudet.com/"}},
{"type":"Feature","geometry":{"type":"Point","coordinates":[4.4008908,44.4522898]},"properties":{"name":"Lou Carretou","source":"BDTopo IGN","tourism":"camp_site","website":"http://loucarretou.chez-alice.fr/"}},
{"type":"Feature","geometry":{"type":"Point","coordinates":[4.3884782,44.431075]},"properties":{"source":"BDTopo IGN","tourism":"viewpoint"}},
{"type":"Feature","geometry":{"type":"Point","coordinates":[4.3352403,44.4176909]},"properties":{"information":"map","map_type":"toposcope","source":"BDTopo IGN","tourism":"viewpoint"}},
{"type":"Feature","geometry":{"type":"Point","coordinates":[4.4009907,44.3419583]},"properties":{"source":"BDTopo IGN","tourism":"viewpoint"}},
{"type":"Feature","geometry":{"type":"Point","coordinates":[4.3663303,44.3445403]},"properties":{"addr:city":"Vagnas","addr:housenumber":"285","addr:postcode":"07150","addr:street":"Chemin de la Fontinelle","alt_name":"Le Temps de Vagnas","description":"Musée de site archéologique","facebook":"https://www.facebook.com/musee.temps.de.vagnas","name":"Musée Médiéval de Vagnas","source":"BDTopo IGN","tourism":"museum","website":"https://www.pontdarc-ardeche.fr/patrimoine-culturel/musee-medieval-de-vagnas-le-temps-de-vagnas-vagnas/","wheelchair":"yes"}},
{"type":"Feature","geometry":{"type":"Point","coordinates":[4.4177451,44.4482119]},"properties":{"descent":"Vers à Soie","description":"Écomusée","name":"Musée Magnanerie","source":"BDTopo IGN","tourism":"museum","website":"https://www.mamagnanerie.com/"}},
{"type":"Feature","geometry":{"type":"Point","coordinates":[4.3203185,44.4486901]},"properties":{"leisure":"horse_riding","source":"BDOrtho IGN","sport":"equestrian"}},
{"type":"Feature","geometry":{"type":"Point","coordinates":[4.3713399,44.437575]},"properties":{"leisure":"horse_riding","source":"BDOrtho IGN","sport":"equestrian"}},
{"type":"Feature","geometry":{"type":"Point","coordinates":[4.3448976,44.3502077]},"properties":{"historic":"mine","source":"BDTopo IGN"}},
{"type":"Feature","geometry":{"type":"Point","coordinates":[4.397074,44.4088973]},"properties":{"name":"La Cour des Miracles","tourism":"apartment","website":"https://www.giteardeche.com/"}},
{"type":"Feature","geometry":{"type":"Point","coordinates":[4.4172828,44.4473349]},"properties":{"historic":"memorial","memorial":"war_memorial","ref:FR:MemorialGenWeb":"8347","source":"BDTopo IGN"}},
{"type":"Feature","geometry":{"type":"Point","coordinates":[4.3998762,44.3518188]},"properties":{"historic":"memorial","memorial":"war_memorial","ref:FR:MemorialGenWeb":"23454","source":"BDTopo IGN"}},
{"type":"Feature","geometry":{"type":"Point","coordinates":[4.3782311,44.3946267]},"properties":{"historic":"memorial","memorial":"war_memorial","name":"monument aux morts","source":"BDTopo IGN"}},
{"type":"Feature","geometry":{"type":"Point","coordinates":[4.3479453,44.4349898]},"properties":{"historic":"memorial","memorial":"stele","source":"BDTopo IGN"}},
{"type":"Feature","geometry":{"type":"Point","coordinates":[4.3950154,44.405242200000007]},"properties":{"leisure":"playground"}},
{"type":"Feature","geometry":{"type":"Point","coordinates":[4.3448015,44.3492859]},"properties":{"addr:housenumber":"1800","addr:street":"Route de Brujas","email":"contact@parcanimalier07.com","name":"Parc animalier des Gorges de l'Ardèche","phone":"+33 7 49 05 20 67","tourism":"zoo","website":"https://www.parcanimalier07.com/","zoo":"wildlife_park"}},
{"type":"Feature","geometry":{"type":"Point","coordinates":[4.408068,44.3825022]},"properties":{"email":"lodge@pontdarc.com","name":"Prehistoric Lodge","phone":"+33 4 75872442","tourism":"hotel","website":"https://www.pontdarc.com/"}},
{"type":"Feature","geometry":{"type":"Point","coordinates":[4.4190294,44.3784127]},"properties":{"email":"contact@le-belvedere-hotel.com","name":"Le Belvédère","phone":"+33 4 75880002","tourism":"hotel","website":"https://www.le-belvedere-hotel.com/"}},
{"type":"Feature","geometry":{"type":"Point","coordinates":[4.3815601,44.3919567]},"properties":{"tourism":"viewpoint"}},
{"type":"Feature","geometry":{"type":"Point","coordinates":[4.3782161,44.3917279]},"properties":{"addr:housenumber":"1225","addr:postcode":"07150","addr:street":"Route de Barjac","name":"Les Palettes","phone":"+33 4 75 87 55 73","tourism":"guest_house","website":"https://www.les-palettes.com/","wifi":"wlan"}},
{"type":"Feature","geometry":{"type":"Point","coordinates":[4.4067815,44.3945953]},"properties":{"ele":"92","hiking":"yes","information":"guidepost","name":"Mézelet","tourism":"information"}},
{"type":"Feature","geometry":{"type":"Point","coordinates":[4.4132381,44.3884654]},"properties":{"direction":"140","tourism":"viewpoint"}},
{"type":"Feature","geometry":{"type":"Point","coordinates":[4.4286264,44.3903839]},"properties":{"ele":"278","hiking":"yes","information":"guidepost","name":"Combe Longue","tourism":"information"}},
{"type":"Feature","geometry":{"type":"Point","coordinates":[4.4196632,44.4493155]},"properties":{"ele":"150","hiking":"yes","information":"guidepost","name":"Salastre","survey:date":"2022-11-04","tourism":"information"}},
{"type":"Feature","geometry":{"type":"Point","coordinates":[4.3924473,44.404685]},"properties":{"name":"Le Manoir du Raveyron","tourism":"hotel"}},
{"type":"Feature","geometry":{"type":"Point","coordinates":[4.3496452,44.4300043]},"properties":{"access":"customers","barrier":"gate"}},
{"type":"Feature","geometry":{"type":"Point","coordinates":[4.352493,44.4300229]},"properties":{"access":"customers","barrier":"gate"}},
{"type":"Feature","geometry":{"type":"Point","coordinates":[4.352501,44.4299894]},"properties":{"access":"customers","barrier":"gate"}},
{"type":"Feature","geometry":{"type":"Point","coordinates":[4.3557164,44.4292893]},"properties":{"barrier":"gate"}},
{"type":"Feature","geometry":{"type":"Point","coordinates":[4.425406,44.3738521]},"properties":{"tourism":"viewpoint"}},
{"type":"Feature","geometry":{"type":"Point","coordinates":[4.4155673,44.3806884]},"properties":{"alt_name":"Rocher du Moine","name":"Rocher de Charlemagne","natural":"rock"}},
{"type":"Feature","geometry":{"type":"Point","coordinates":[4.4175456,44.4497703]},"properties":{"addr:housenumber":"490","source":"cadastre-dgi-fr source : Direction Générale des Finances Publiques - Cadastre. Mise à jour : 2022"}},
{"type":"Feature","geometry":{"type":"Point","coordinates":[4.4122048,44.4338144]},"properties":{"addr:housenumber":"120","source":"cadastre-dgi-fr source : Direction Générale des Finances Publiques - Cadastre. Mise à jour : 2022"}},
{"type":"Feature","geometry":{"type":"Point","coordinates":[4.4296819,44.4511118]},"properties":{"ele":"220","hiking":"yes","information":"guidepost","name":"Notre Dame d'Ajude","survey:date":"2022-11-04","tourism":"information"}},
{"type":"Feature","geometry":{"type":"Point","coordinates":[4.4203482,44.4006909]},"properties":{"name":"Aven de la Roche des Fées n°1","natural":"cave_entrance"}},
{"type":"Feature","geometry":{"type":"Point","coordinates":[4.4197011,44.4478093]},"properties":{"ele":"150","hiking":"yes","information":"guidepost","name":"Sous la Magnanerie","tourism":"information"}},
{"type":"Feature","geometry":{"type":"Point","coordinates":[4.4116893,44.4523951]},"properties":{"ele":"170","hiking":"yes","information":"guidepost","name":"Auche d'Ozil","tourism":"information"}},
{"type":"Feature","geometry":{"type":"Point","coordinates":[4.3220534,44.354129]},"properties":{"historic":"memorial","memorial":"war_memorial","name":"monument aux morts de Brujas","ref:FR:MemorialGenWeb":"38505"}},
{"type":"Feature","geometry":{"type":"Point","coordinates":[4.395387,44.4072379]},"properties":{"historic":"memorial","memorial":"obelisk","name":"Mémorial de guerre 1914 - 1918"}},
{"type":"Feature","geometry":{"type":"Point","coordinates":[4.3925343,44.4411957]},"properties":{"ele":"225","hiking":"yes","information":"guidepost","name":"Pecoulas","note":"position du panneau à vérifier","tourism":"information"}},
{"type":"Feature","geometry":{"type":"Point","coordinates":[4.4176157,44.4473565]},"properties":{"ele":"185","ele:signed":"no","information":"map","name":"Lagorce Info rando","name:signed":"no","survey:date":"2023-01-04","tourism":"information"}},
{"type":"Feature","geometry":{"type":"Point","coordinates":[4.3348269,44.4170771]},"properties":{"historic":"memorial","memorial":"war_memorial","ref:FR:MemorialGenWeb":"23451"}},
{"type":"Feature","geometry":{"type":"Point","coordinates":[4.3651263,44.3460857]},"properties":{"historic":"wayside_cross","material":"stone","name":"Statue de la Vierge"}},
{"type":"Feature","geometry":{"type":"Point","coordinates":[4.3389827,44.4362016]},"properties":{"ele":"115","hiking":"yes","information":"guidepost","name":"Saint-Michel","tourism":"information"}},
{"type":"Feature","geometry":{"type":"Point","coordinates":[4.3479487,44.4498419]},"properties":{"ele":"120","hiking":"yes","information":"guidepost","name":"La Gare","tourism":"information"}},
{"type":"Feature","geometry":{"type":"Point","coordinates":[4.3850818,44.4370223]},"properties":{"ele":"195","hiking":"yes","information":"guidepost","name":"Les Terriers","tourism":"information"}},
{"type":"Feature","geometry":{"type":"Point","coordinates":[4.3658799,44.4320638]},"properties":{"ele":"110","hiking":"yes","information":"guidepost","name":"La Loubière","tourism":"information"}},
{"type":"Feature","geometry":{"type":"Point","coordinates":[4.3638468,44.4324803]},"properties":{"ele":"115","hiking":"yes","information":"guidepost","name":"Deserte","tourism":"information"}},
{"type":"Feature","geometry":{"type":"Point","coordinates":[4.358028,44.4437965]},"properties":{"ele":"185","hiking":"yes","information":"guidepost","name":"Chaussy","note":"position du panneau à vérifier","tourism":"information"}},
{"type":"Feature","geometry":{"type":"Point","coordinates":[4.3220848,44.4214768]},"properties":{"ele":"125","hiking":"yes","information":"guidepost","name":"La Bastide","tourism":"information"}},
{"type":"Feature","geometry":{"type":"Point","coordinates":[4.3358391,44.4178945]},"properties":{"ele":"280","hiking":"yes","information":"guidepost","name":"Sampzon","tourism":"information"}},
{"type":"Feature","geometry":{"type":"Point","coordinates":[4.3384409,44.4192259]},"properties":{"ele":"240","hiking":"yes","information":"guidepost","name":"Le Bournas","tourism":"information"}},
{"type":"Feature","geometry":{"type":"Point","coordinates":[4.3347435,44.4175678]},"properties":{"information":"map","name":"Sampzon Info Rando","tourism":"information"}},
{"type":"Feature","geometry":{"type":"Point","coordinates":[4.326548,44.3913453]},"properties":{"ele":"445","hiking":"yes","information":"guidepost","name":"Pas des Pigeons","note":"position du panneau à vérifier","tourism":"information"}},
{"type":"Feature","geometry":{"type":"Point","coordinates":[4.3369174,44.4003605]},"properties":{"ele":"370","hiking":"yes","information":"guidepost","name":"Les Costes","tourism":"information"}},
{"type":"Feature","geometry":{"type":"Point","coordinates":[4.3271541,44.4121794]},"properties":{"ele":"145","hiking":"yes","information":"guidepost","name":"L'Aiguille","tourism":"information"}},
{"type":"Feature","geometry":{"type":"Point","coordinates":[4.3219936,44.3771393]},"properties":{"ele":"315","hiking":"yes","information":"guidepost","name":"Sicouzac","note":"position du panneau à vérifier","tourism":"information"}},
{"type":"Feature","geometry":{"type":"Point","coordinates":[4.3303969,44.3732321]},"properties":{"ele":"265","hiking":"yes","information":"guidepost","name":"La Boriette","tourism":"information"}},
{"type":"Feature","geometry":{"type":"Point","coordinates":[4.3204325,44.4230611]},"properties":{"ele":"110","hiking":"yes","information":"guidepost","name":"Vallier","note":"position du panneau à vérifier","tourism":"information"}},
{"type":"Feature","geometry":{"type":"Point","coordinates":[4.366368,44.3778237]},"properties":{"ele":"190","hiking":"yes","information":"guidepost","name":"La Brulade","tourism":"information"}},
{"type":"Feature","geometry":{"type":"Point","coordinates":[4.3543652,44.3746681]},"properties":{"ele":"200","hiking":"yes","information":"guidepost","name":"Darbousset","note":"position du panneau à vérifier","tourism":"information"}},
{"type":"Feature","geometry":{"type":"Point","coordinates":[4.3785667,44.3943007]},"properties":{"ele":"100","ele:signed":"no","information":"map","map_type":"scheme","name":"Salavas","tourism":"information"}},
{"type":"Feature","geometry":{"type":"Point","coordinates":[4.3853205,44.3861126]},"properties":{"ele":"150","hiking":"yes","information":"guidepost","name":"Pont Romain","tourism":"information"}},
{"type":"Feature","geometry":{"type":"Point","coordinates":[4.4048631,44.3606326]},"properties":{"ele":"270","hiking":"yes","information":"guidepost","name":"Le Gras","tourism":"information"}},
{"type":"Feature","geometry":{"type":"Point","coordinates":[4.3811095,44.3886159]},"properties":{"ele":"165","hiking":"yes","information":"guidepost","name":"Cigeaille","note":"position du panneau à vérifier","tourism":"information"}},
{"type":"Feature","geometry":{"type":"Point","coordinates":[4.3745595,44.3748636]},"properties":{"ele":"190","hiking":"yes","information":"guidepost","name":"Champagnac","note":"position du panneau à vérifier","tourism":"information"}},
{"type":"Feature","geometry":{"type":"Point","coordinates":[4.3660603,44.376937]},"properties":{"ele":"180","hiking":"yes","information":"guidepost","name":"Gour d'Estelle","note":"position du panneau à vérifier","tourism":"information"}},
{"type":"Feature","geometry":{"type":"Point","coordinates":[4.4060165,44.425559]},"properties":{"ele":"140","hiking":"yes","information":"guidepost","name":"Sigaud","note":"position du panneau à vérifier","tourism":"information"}},
{"type":"Feature","geometry":{"type":"Point","coordinates":[4.4242072,44.4211493]},"properties":{"ele":"110","hiking":"yes","information":"guidepost","name":"Pont de Miquenly","note":"position du panneau à vérifier","tourism":"information"}},
{"type":"Feature","geometry":{"type":"Point","coordinates":[4.3930507,44.4083847]},"properties":{"ele":"110","hiking":"yes","information":"guidepost","name":"Bourdaric","tourism":"information"}},
{"type":"Feature","geometry":{"type":"Point","coordinates":[4.3982367,44.4141777]},"properties":{"ele":"125","hiking":"yes","information":"guidepost","name":"Mas de Boulle","note":"position du panneau à vérifier","tourism":"information"}},
{"type":"Feature","geometry":{"type":"Point","coordinates":[4.3909864,44.4109177]},"properties":{"ele":"105","hiking":"yes","information":"guidepost","name":"Coulette","note":"position du panneau à vérifier","tourism":"information"}},
{"type":"Feature","geometry":{"type":"Point","coordinates":[4.3779029,44.415207]},"properties":{"ele":"105","hiking":"yes","information":"guidepost","name":"Saint-Martin","tourism":"information"}},
{"type":"Feature","geometry":{"type":"Point","coordinates":[4.3844408,44.4255053]},"properties":{"ele":"305","hiking":"yes","information":"guidepost","name":"Coucouru","tourism":"information"}},
{"type":"Feature","geometry":{"type":"Point","coordinates":[4.3901834,44.4314508]},"properties":{"ele":"305","hiking":"yes","information":"guidepost","name":"Sommet de Sigaud","note":"position du panneau à vérifier","tourism":"information"}},
{"type":"Feature","geometry":{"type":"Point","coordinates":[4.4268567,44.3743852]},"properties":{"tourism":"viewpoint"}},
{"type":"Feature","geometry":{"type":"Point","coordinates":[4.3284464,44.4323359]},"properties":{"ref":"96","tourism":"camp_pitch"}},
{"type":"Feature","geometry":{"type":"Point","coordinates":[4.3281085,44.4324683]},"properties":{"ref":"92","tourism":"camp_pitch"}},
{"type":"Feature","geometry":{"type":"Point","coordinates":[4.3285424,44.4322959]},"properties":{"ref":"97","tourism":"camp_pitch"}},
{"type":"Feature","geometry":{"type":"Point","coordinates":[4.3295495,44.4321392]},"properties":{"ref":"H9","tourism":"camp_pitch"}},
{"type":"Feature","geometry":{"type":"Point","coordinates":[4.3282664,44.432401]},"properties":{"ref":"94","tourism":"camp_pitch"}},
{"type":"Feature","geometry":{"type":"Point","coordinates":[4.3281864,44.4324354]},"properties":{"ref":"93","tourism":"camp_pitch"}},
{"type":"Feature","geometry":{"type":"Point","coordinates":[4.3286313,44.4322636]},"properties":{"ref":"98","tourism":"camp_pitch"}},
{"type":"Feature","geometry":{"type":"Point","coordinates":[4.3283579,44.4323679]},"properties":{"ref":"95","tourism":"camp_pitch"}},
{"type":"Feature","geometry":{"type":"Point","coordinates":[4.3295181,44.4320928]},"properties":{"ref":"H8","tourism":"camp_pitch"}},
{"type":"Feature","geometry":{"type":"Point","coordinates":[4.3295769,44.4321826]},"properties":{"ref":"H10","tourism":"camp_pitch"}},
{"type":"Feature","geometry":{"type":"Point","coordinates":[4.3294827,44.4320456]},"properties":{"ref":"H8B","tourism":"camp_pitch"}},
{"type":"Feature","geometry":{"type":"Point","coordinates":[4.3296043,44.4322352]},"properties":{"ref":"H11","tourism":"camp_pitch"}},
{"type":"Feature","geometry":{"type":"Point","coordinates":[4.4199642,44.3794227]},"properties":{"access":"private","name":"IT39A","natural":"cave_entrance"}},
{"type":"Feature","geometry":{"type":"Point","coordinates":[4.3669671,44.3457562]},"properties":{"historic":"wayside_cross","material":"metal"}},
{"type":"Feature","geometry":{"type":"Point","coordinates":[4.4015935,44.39964]},"properties":{"ele":"115","hiking":"yes","information":"guidepost","name":"Vieux Vallon","tourism":"information"}},
{"type":"Feature","geometry":{"type":"Point","coordinates":[4.3987202,44.4000942]},"properties":{"ele":"140","hiking":"yes","information":"guidepost","name":"Le Château","tourism":"information"}},
{"type":"Feature","geometry":{"type":"Point","coordinates":[4.3967655,44.4052968]},"properties":{"ele":"105","hiking":"yes","information":"map","map_type":"scheme","name":"Vallon-Pont d'Arc","tourism":"information"}},
{"type":"Feature","geometry":{"type":"Point","coordinates":[4.3947713,44.4054597]},"properties":{"ele":"110","hiking":"yes","information":"guidepost","name":"Puits de Ronze","tourism":"information"}},
{"type":"Feature","geometry":{"type":"Point","coordinates":[4.38811,44.400303]},"properties":{"ele":"105","hiking":"yes","information":"guidepost","name":"Les Brugières","tourism":"information"}},
{"type":"Feature","geometry":{"type":"Point","coordinates":[4.4202925,44.4494781]},"properties":{"leisure":"picnic_table"}},
{"type":"Feature","geometry":{"type":"Point","coordinates":[4.4277611,44.3708978]},"properties":{"hiking":"yes","information":"guidepost","name":"Montagne du sable","tourism":"information"}},
{"type":"Feature","geometry":{"type":"Point","coordinates":[4.4232622,44.4067865]},"properties":{"name":"Grotte de la Pierre - Agusade","natural":"cave_entrance"}},
{"type":"Feature","geometry":{"type":"Point","coordinates":[4.4208701,44.3995933]},"properties":{"natural":"cave_entrance"}},
{"type":"Feature","geometry":{"type":"Point","coordinates":[4.4030608,44.388827]},"properties":{"natural":"cave_entrance"}},
{"type":"Feature","geometry":{"type":"Point","coordinates":[4.3156716,44.4387306]},"properties":{"capacity":"11","caravan_site":"motorhome_stopover","caravan_site:type":"museum","fee":"no","name":"Parking Musée Alphonse Daudet","tourism":"caravan_site","website":"https://www.tourisme-valdeligne.fr/musee-village-monument/mas-daudet-musee-parc/"}},
{"type":"Feature","geometry":{"type":"Point","coordinates":[4.3540637,44.4279176]},"properties":{"leisure":"playground"}},
{"type":"Feature","geometry":{"type":"Point","coordinates":[4.3787654,44.3947785]},"properties":{"name":"Hotel des Sites","tourism":"hotel"}},
{"type":"Feature","geometry":{"type":"Point","coordinates":[4.3995689,44.400854]},"properties":{"tourism":"viewpoint"}},
{"type":"Feature","geometry":{"type":"Point","coordinates":[4.3943976,44.4055984]},"properties":{"tourism":"picnic_site"}},
{"type":"Feature","geometry":{"type":"LineString","coordinates":[[4.4306225,44.4137445],[4.4311383,44.4119849],[4.43288,44.4119516],[4.4330687,44.4107819],[4.432228,44.410048],[4.4297772,44.4097619],[4.4282398,44.4090413],[4.4269652,44.4091488],[4.4257216,44.4100889],[4.4239342,44.4120391],[4.4216876,44.4109989],[4.4211365,44.4086761],[4.4207339,44.4077341],[4.4206617,44.4075652],[4.4205011,44.4071893],[4.4193304,44.4069619],[4.4178085,44.4066568],[4.4173069,44.4056667],[4.417505,44.4047465],[4.4174743,44.4039138],[4.416087,44.4041077],[4.4153173,44.4052884],[4.4137194,44.4060349],[4.4133855,44.4060584],[4.4131139,44.4064694],[4.4132567,44.4072426],[4.413305,44.4078289],[4.4134572,44.4086039],[4.4140956,44.4091213],[4.414774,44.4094637],[4.4160523,44.4104155],[4.4172839,44.4113322],[4.4190594,44.412215],[4.4217677,44.4131632],[4.4231521,44.4128872],[4.4244329,44.412946],[4.4256378,44.4140892],[4.4295226,44.4154308],[4.4306225,44.4137445]]},"properties":{"CLC:code":"323","CLC:id":"FR-202737","CLC:year":"2006","natural":"scrub","source":"Union européenne - SOeS, CORINE Land Cover, 2006."}},
{"type":"Feature","geometry":{"type":"LineString","coordinates":[[4.4294694,44.4484211],[4.4315737,44.4487149],[4.4328702,44.4486902],[4.4332012,44.4486839],[4.4340531,44.446585],[4.4343393,44.444913],[4.4349993,44.4439007],[4.4350357,44.4438834],[4.4359139,44.443466],[4.4371923,44.4434416],[4.4379901,44.4430102],[4.4399376,44.4422228],[4.4393161,44.4411519],[4.4346741,44.4414072],[4.4338516,44.4411732],[4.4332116,44.4396033],[4.4344557,44.4386631],[4.4350924,44.4379991],[4.4353509,44.4377295],[4.4375739,44.438103],[4.4389838,44.4384932],[4.4403874,44.4387159],[4.4427967,44.4378364],[4.4446467,44.4375512],[4.4452901,44.4376911],[4.445009,44.4384995],[4.4439031,44.4395227],[4.4446994,44.4404183],[4.4454856,44.4410408],[4.4457704,44.4418552],[4.4459315,44.442763],[4.4463344,44.4429587],[4.4467041,44.4430214],[4.4479712,44.4429059],[4.4502943,44.442172],[4.4507095,44.4419998],[4.4501993,44.4416526],[4.4500228,44.4415274],[4.4498382,44.4413965],[4.4496378,44.4412545],[4.448412,44.4408395],[4.4485472,44.4406939],[4.449136,44.4400597],[4.4490882,44.4387854],[4.4503005,44.4372135],[4.4540913,44.4365939],[4.4575249,44.4366186],[4.4603369,44.4370197],[4.4626443,44.4375215],[4.4644642,44.4385793],[4.464533,44.4403998],[4.4651031,44.4420283],[4.4658141,44.4440185],[4.4676515,44.4455314],[4.4693481,44.4466826],[4.4712816,44.4473737],[4.473064,44.4474301],[4.4746986,44.4469428],[4.4760271,44.4450951],[4.4759718,44.4436387],[4.4756693,44.4423694],[4.4740003,44.4419465],[4.4723348,44.4416145],[4.4707964,44.4412801],[4.4708786,44.4400943],[4.4708737,44.440067],[4.4711619,44.4400972],[4.4718243,44.4391678],[4.4716609,44.4379205],[4.4707941,44.4365217],[4.4733157,44.4355561],[4.4742449,44.435538],[4.4752428,44.4342692],[4.4765115,44.4339948],[4.4783453,44.4332922],[4.4796139,44.4330178],[4.481315,44.4319016],[4.4827497,44.4306469],[4.4827381,44.4303431],[4.4827104,44.4296158],[4.4825811,44.4288896],[4.4799584,44.429451],[4.4797307,44.4295382],[4.4798322,44.4295972],[4.4775438,44.4305584],[4.4756341,44.4292631],[4.4746332,44.4304487],[4.4738802,44.4320467],[4.4714085,44.4312616],[4.4701336,44.4313696],[4.4695059,44.4332148],[4.4689637,44.4336515],[4.467773,44.4334981],[4.4658513,44.4349512],[4.4641967,44.4342343],[4.4623249,44.4339367],[4.4613549,44.4328726],[4.4598502,44.4330681],[4.4588332,44.4338378],[4.4584879,44.4342317],[4.4565465,44.4342692],[4.4551491,44.4342962],[4.4543732,44.4339468],[4.4545828,44.4327586],[4.4554377,44.4318312],[4.4554035,44.430921],[4.4541127,44.4303994],[4.4519532,44.430441],[4.4503667,44.4322023],[4.4494085,44.4337693],[4.4490752,44.4350509],[4.4483369,44.4357028],[4.4479326,44.4358873],[4.4479531,44.4358211],[4.4454377,44.4350782],[4.444295,44.4346829],[4.4436306,44.4344937],[4.4424404,44.4343299],[4.4420924,44.4344203],[4.4398185,44.4328119],[4.4391027,44.4323252],[4.4376607,44.4317931],[4.4375703,44.4317597],[4.4367603,44.4318585],[4.4370607,44.4336857],[4.4372699,44.4361814],[4.4344132,44.4364448],[4.4341403,44.4363205],[4.4338596,44.4361907],[4.4335076,44.4361709],[4.433306,44.4362387],[4.4326219,44.4360805],[4.4319813,44.4359732],[4.4317069,44.4359383],[4.4313169,44.4358885],[4.4300555,44.4356909],[4.4290839,44.434921],[4.4278286,44.4355398],[4.4276328,44.4365432],[4.4256941,44.4375686],[4.4260805,44.4385721],[4.4267049,44.4397274],[4.4272984,44.440049],[4.4289852,44.4385168],[4.4299269,44.4388328],[4.429848,44.439834],[4.4291028,44.4416811],[4.4292652,44.4429273],[4.4281223,44.4434484],[4.4258039,44.443659],[4.4251314,44.4443386],[4.423627,44.4445337],[4.4222572,44.4452266],[4.4213187,44.4457189],[4.4214866,44.4463961],[4.4238048,44.4461968],[4.4242946,44.4468543],[4.4265271,44.4474775],[4.4280408,44.4475319],[4.4294694,44.4484211]]},"properties":{"CLC:code":"323","CLC:id":"FR-201588","CLC:year":"2006","natural":"scrub","source":"Union européenne - SOeS, CORINE Land Cover, 2006."}},
{"type":"Feature","geometry":{"type":"LineString","coordinates":[[4.2432869,44.3702101],[4.2432659,44.3703577],[4.2423747,44.3706016],[4.2424227,44.3708212],[4.2425905,44.3708681],[4.2427484,44.3708092],[4.2430642,44.3707027],[4.2432543,44.3707485],[4.2431854,44.3716059],[4.2431487,44.3720207],[4.2428253,44.3720146],[4.242826,44.3716701],[4.2425361,44.3716679],[4.2426308,44.370921],[4.2423657,44.3709009],[4.2423069,44.3707102],[4.241928,44.3715679],[4.2416724,44.3718152],[4.2409329,44.3712764],[4.2408682,44.3719261],[4.2415753,44.3719856],[4.2423844,44.3722093],[4.2430929,44.3722095],[4.2436796,44.372261],[4.2447057,44.3722726],[4.2457512,44.372413],[4.2462556,44.3723821],[4.2460526,44.3721745],[4.2459213,44.3714225],[4.2461688,44.3712673],[4.2462317,44.3712279],[4.2464785,44.3716023],[4.246706,44.371478],[4.2470601,44.371368],[4.2474412,44.3716872],[4.2474245,44.3712569],[4.2476115,44.3708494],[4.2481351,44.3703592],[4.2484672,44.370024],[4.2497287,44.3701186],[4.2499948,44.3703631],[4.2508681,44.3701195],[4.2505413,44.3698016],[4.2507386,44.3695079],[4.251217,44.3691581],[4.2517781,44.369098],[4.2526465,44.3691632],[4.2530798,44.3695341],[4.2532701,44.3701599],[4.255533,44.3696362],[4.2556338,44.3697349],[4.2566125,44.3707297],[4.2572144,44.3712163],[4.2574991,44.371341],[4.2579047,44.370993],[4.2583928,44.3710787],[4.2585038,44.371223],[4.2581695,44.3714992],[4.2590118,44.3717647],[4.2593904,44.3719862],[4.2593548,44.3722127],[4.2590357,44.372187],[4.258513,44.3727127],[4.2578065,44.3725218],[4.257545,44.3728593],[4.2577266,44.3734783],[4.2574243,44.3737838],[4.2570446,44.3740316],[4.2575796,44.374893899999999],[4.2595373,44.3755794],[4.2604645,44.3757319],[4.2612736,44.3763671],[4.261676,44.3763919],[4.2623303,44.3761976],[4.262668,44.3760629],[4.2635113,44.3762643],[4.264616,44.376034],[4.2665154,44.3778548],[4.2660232,44.3804462],[4.2667425,44.3810992],[4.2668599,44.3816347],[4.2667645,44.3820633],[4.2666081,44.3824598],[4.2662647,44.3828809],[4.2656333,44.3838633],[4.2648292,44.3847775],[4.2649564,44.3847191],[4.2651173,44.3846673],[4.2656672,44.3845753],[4.2662358,44.3844201],[4.2667133,44.3842935],[4.2668581,44.3842149],[4.2669466,44.3840271],[4.26696,44.3839351],[4.2671102,44.3839581],[4.2673892,44.3843645],[4.2674727,44.3845541],[4.2676949,44.3850584],[4.267754,44.3852424],[4.2674375,44.3855606],[4.2672336,44.3857638],[4.2671531,44.3859554],[4.2653882,44.3855644],[4.2653185,44.3856909],[4.2652541,44.3857254],[4.2644951,44.3855107],[4.2644682,44.3854283],[4.2645916,44.3852098],[4.2647231,44.3849989],[4.2648277,44.3848916],[4.2647874,44.3848753],[4.2647029,44.3849232],[4.264542,44.385113],[4.2643408,44.3853794],[4.26428,44.3854758],[4.263445,44.3865723],[4.2661181,44.3866084],[4.2696076,44.3857857],[4.2699148,44.385656],[4.2706385,44.3853504],[4.2724991,44.3854007],[4.2736137,44.3840487],[4.2763912,44.3837499],[4.2756474,44.3857622],[4.2752107,44.3852085],[4.2746345,44.3866965],[4.2726779,44.3872304],[4.2707328,44.3880979],[4.2695815,44.3884],[4.268395,44.3886507],[4.2687779,44.3896436],[4.270003,44.390526],[4.2687715,44.3918813],[4.268815,44.3931499],[4.2702018,44.3929388],[4.2724779,44.3915651],[4.2747843,44.3920359],[4.2761403,44.3909291],[4.2762227,44.3899281],[4.2776917,44.3887361],[4.2796426,44.3880359],[4.2820839,44.387147],[4.2825888,44.3859],[4.2833348,44.3856372],[4.2855432,44.3856811],[4.2845736,44.387864],[4.2819263,44.3885778],[4.2827762,44.3896455],[4.2856301,44.3894506],[4.2869083,44.390082],[4.2875383,44.3897224],[4.2879039,44.389601],[4.2884784,44.3894101],[4.2887684,44.389809],[4.2884602,44.3900984],[4.2881698,44.3903131],[4.2873696,44.3906469],[4.2855127,44.3915129],[4.2865046,44.393328],[4.2889432,44.3932846],[4.2900281,44.3944313],[4.290884,44.3956652],[4.2922889,44.3959741],[4.2932056,44.3989566],[4.2939803,44.4011916],[4.2923525,44.401875],[4.2923871,44.402874],[4.2935978,44.4042681],[4.294451,44.40542],[4.2949389,44.4060769],[4.2956315,44.4061946],[4.2971598,44.4064544],[4.2980944,44.4066041],[4.299253,44.4065001],[4.2996555,44.4073374],[4.3008781,44.4090651],[4.3011652,44.4106431],[4.3002838,44.4120139],[4.3041769,44.4136712],[4.3052594,44.414684],[4.3064238,44.4154519],[4.3074867,44.415277],[4.3098685,44.4169006],[4.3095517,44.4178227],[4.3125728,44.4200228],[4.3124999,44.4179417],[4.3140193,44.4181639],[4.3143986,44.4157418],[4.3136609,44.414589],[4.3109893,44.4146372],[4.3099065,44.4135738],[4.3095227,44.4125811],[4.3104203,44.4116486],[4.3115666,44.4112107],[4.313428,44.4112604],[4.3132477,44.4094308],[4.3129428,44.4073539],[4.3123036,44.4057001],[4.3116587,44.4038789],[4.3088046,44.4020143],[4.3089002,44.401429],[4.305457,44.3993252],[4.3030565,44.3971195],[4.3019299,44.3964729],[4.2999132,44.3952599],[4.298807,44.3935301],[4.2957307,44.3919199],[4.2953328,44.3905102],[4.2935339,44.388876],[4.2912965,44.3880006],[4.2896447,44.3872801],[4.2884685,44.385693],[4.2881825,44.385307],[4.2866475,44.3845843],[4.2838442,44.3841349],[4.2814739,44.3827603],[4.28038,44.3813641],[4.2791845,44.3803857],[4.2778338,44.378244],[4.2758203,44.3771126],[4.2742371,44.374975],[4.273495,44.3736557],[4.2722969,44.3725941],[4.2717867,44.3712696],[4.271778,44.3695396],[4.2718284,44.3691033],[4.2702456,44.3669657],[4.2692763,44.3652122],[4.2685128,44.3638311],[4.2682414,44.3635739],[4.2672147,44.3643487],[4.267704,44.3650889],[4.267266,44.3658466],[4.2654174,44.3661288],[4.2634436000000008,44.3671001],[4.2640846,44.3679018],[4.266165,44.3676155],[4.2667092,44.3699379],[4.2658202,44.3711196],[4.2653929,44.3719648],[4.2641045,44.3716265],[4.2613785,44.3719713],[4.2611942,44.3714393],[4.2597425,44.3702156],[4.2599652,44.3694381],[4.2604261,44.3683585],[4.2598112,44.3673585],[4.2587945,44.3659956],[4.2625078,44.3659303],[4.2624822,44.3651808],[4.2625669,44.364263],[4.2611232,44.3627895],[4.2599682,44.3629762],[4.2576222,44.3633311],[4.2567886,44.3638416],[4.2554982,44.3649346],[4.2548384,44.3653498],[4.2541482,44.3658149],[4.2523124,44.3654657],[4.2508241,44.3654537],[4.2510534,44.3659345],[4.2502064,44.3661023],[4.2507381,44.366999],[4.2509196,44.3668952],[4.2511394,44.3671366],[4.2516694,44.3668052],[4.2523112,44.3672181],[4.2523504,44.3671981],[4.2515819,44.3665704],[4.251873,44.36643],[4.2530541,44.3676211],[4.2512632,44.367799],[4.2502712,44.3680967],[4.2500087,44.3683192],[4.2496221,44.3689326],[4.2492848,44.3689316],[4.2490206,44.369123],[4.2489455,44.3692418],[4.2486137,44.3693674],[4.2484974,44.3692611],[4.2484831,44.3687138],[4.2480955,44.3689907],[4.2480862,44.3696167],[4.2478167,44.3702525],[4.2470599,44.3703518],[4.2470009,44.3709846],[4.246591,44.370914],[4.2463192,44.3706964],[4.2460901,44.3701526],[4.2456968,44.3702193],[4.2432869,44.3702101]]},"properties":{"CLC:code":"323","CLC:id":"FR-202635","CLC:year":"2006","natural":"scrub","source":"Union européenne - SOeS, CORINE Land Cover, 2006."}},
{"type":"Feature","geometry":{"type":"LineString","coordinates":[[4.3388788,44.3764932],[4.3395104,44.3752542],[4.3401722,44.3736992],[4.3386561,44.3745757],[4.3377005,44.3738432],[4.3395105,44.3724777],[4.3379605,44.371339999999999],[4.3374546,44.3701821],[4.3362879,44.370037],[4.3357496,44.3712128],[4.3337647,44.3709162],[4.3321099,44.3701131],[4.3310806,44.370549],[4.3309911,44.3712995],[4.3293923,44.3720786],[4.3287597,44.3705913],[4.3303636,44.3699785],[4.3318516,44.3693679],[4.3321766,44.3686963],[4.3311111,44.3681321],[4.3291146,44.3675028],[4.3287139,44.3660101],[4.3299758,44.3655711],[4.3316561,44.3671226],[4.3333012,44.3676762],[4.3342154,44.3672424],[4.3339415,44.3660814],[4.3348468,44.3653992],[4.3357306,44.3641327],[4.334996,44.3630633],[4.3332108,44.3618466],[4.3324791,44.3625189],[4.3295283,44.3611559],[4.3281682,44.362097],[4.3283076,44.3627612],[4.3273972,44.363277],[4.328489,44.3645907],[4.3276937,44.3651044],[4.3262806,44.3645476],[4.3252453,44.3648161],[4.3232314,44.3636866],[4.3245829,44.3624961],[4.3264133,44.3617129],[4.3263927,44.3611297],[4.3254287,44.3601476],[4.3269271,44.3597954],[4.3264128,44.358388],[4.3236193,44.3581891],[4.3233405,44.3568617],[4.3235284,44.3556091],[4.3251466,44.3554122],[4.326156,44.3543943],[4.3280382,44.3551101],[4.3291152,44.3560069],[4.329889,44.35491],[4.328592,44.35435],[4.3285744,44.3538511],[4.325701,44.3534929],[4.3247958,44.354175],[4.3241114,44.3545214],[4.3224874,44.3545508],[4.3218117,44.3551455],[4.3225636,44.3567151],[4.3223786,44.3580508],[4.3222436,44.3587882],[4.3220829,44.3595561],[4.3224945,44.3608755],[4.3220535,44.3615491],[4.322669,44.3625375],[4.3218891,44.3634681],[4.319733,44.3615911],[4.3196833,44.3601764],[4.3184964,44.3594479],[4.3166407,44.3588057],[4.3140757,44.3579436],[4.3115716,44.3560728],[4.3095993,44.356187],[4.309486,44.3561936],[4.3085199,44.3555892],[4.3080617,44.3553028],[4.3065215,44.3544142],[4.3063475,44.352751],[4.3052317,44.3517388],[4.3019867,44.3542449],[4.3025041,44.3557356],[4.3007749,44.3560994],[4.3004562,44.3569383],[4.3009785,44.3585953],[4.3019413,44.3595776],[4.3031687,44.3614715],[4.302253,44.3622481],[4.3035712,44.3630351],[4.3037967,44.3631885],[4.3053557,44.3642522],[4.3055585,44.3634154],[4.3068642,44.3642251],[4.306934,44.3662231],[4.3078999,44.3672885],[4.3082259,44.3679352],[4.3085239,44.3685264],[4.3109001,44.3700668],[4.3110717,44.3702222],[4.3120468,44.3696414],[4.3105929,44.367918],[4.3116261,44.3675665],[4.3125851,44.3652951],[4.3127404,44.365321],[4.3150251,44.3668237],[4.3163037,44.366915],[4.3166406,44.3666926],[4.3172394,44.3663273],[4.3172209,44.3657993],[4.3169876,44.3649816],[4.3166859,44.3645468],[4.3166406,44.3645128],[4.3166406,44.3645529],[4.3158031,44.3640077],[4.3141834,44.3617314],[4.3142367,44.361704],[4.3144359,44.3616015],[4.3148711,44.3607604],[4.3157904,44.3604942],[4.3166407,44.3611615],[4.3179172,44.3627911],[4.3190924,44.3631859],[4.3211561,44.3657313],[4.3236337,44.3668524],[4.3229814,44.3681134],[4.3224194,44.368624],[4.3201037,44.3688324],[4.3199292,44.3671691],[4.3180605,44.3668701],[4.3166406,44.3678652],[4.3145827,44.3690964],[4.3136917,44.3701952],[4.3126453,44.3714667],[4.3136308,44.3717671],[4.3143535,44.3725041],[4.3151987,44.3722156],[4.3153867,44.3721515],[4.3166404,44.3727608],[4.3192181,44.373852],[4.3196914,44.3740931],[4.3209741,44.3742362],[4.3223698,44.3742942],[4.3219844,44.3765511],[4.3221238,44.3772142],[4.3232128,44.3784448],[4.3253458,44.3778653],[4.3259335,44.3777055],[4.3278148,44.3771941],[4.3271785,44.3756236],[4.3257887,44.3757321],[4.3245984,44.3749205],[4.3275512,44.3730341],[4.3288368,44.3732615],[4.3309789,44.3747213],[4.3327792,44.3763549],[4.334059,44.3764148],[4.3346593,44.3769863],[4.3351711,44.3783106],[4.3372249,44.3772734],[4.3385912,44.3764985],[4.3388788,44.3764932]]},"properties":{"CLC:code":"323","CLC:id":"FR-204124","CLC:year":"2006","natural":"scrub","source":"Union européenne - SOeS, CORINE Land Cover, 2006."}},
{"type":"Feature","geometry":{"type":"LineString","coordinates":[[4.4113651,44.3493466],[4.4115143,44.3482347],[4.4097127,44.3480132],[4.4077906,44.3460642],[4.4064138,44.3471166],[4.4062157,44.3478601],[4.4081674,44.349018],[4.4083952,44.3492048],[4.409006,44.3500265],[4.4098422,44.3490942],[4.4113651,44.3493466]]},"properties":{"natural":"grassland","source":"Union européenne - SOeS, CORINE Land Cover, 2006."}},
{"type":"Feature","geometry":{"type":"LineString","coordinates":[[4.3485044,44.4625872],[4.3500036,44.4622268],[4.350844,44.4629614],[4.3506326,44.4635478],[4.3509005,44.4645425],[4.351843,44.4648592],[4.3532052,44.4639177],[4.3536309,44.462827],[4.3546655,44.462474],[4.3552617,44.462463],[4.3554997,44.4625112],[4.3561766,44.4624462],[4.3570734,44.4615133],[4.35812,44.461494],[4.3601344,44.4607469],[4.3605547,44.4612827],[4.3615833,44.4607644],[4.3620088,44.4604788],[4.3625959,44.4597133],[4.3633115,44.4584824],[4.3643542,44.4583789],[4.3665596,44.4582549],[4.3670899,44.4568293],[4.3650808,44.45595],[4.3627085,44.4546614],[4.3625505,44.4534982],[4.3637901,44.4523913],[4.3623715,44.4517518],[4.3606307,44.4518671],[4.3583748,44.4505762],[4.3569443,44.4496029],[4.3560089,44.4494526],[4.3539126,44.4485149],[4.3535586,44.4499385],[4.3514726,44.4501432],[4.3503198,44.450414],[4.3486148,44.4515282],[4.348326,44.4531999],[4.3471516,44.4528886],[4.3461624,44.4544889],[4.3469878,44.4548077],[4.3471693,44.4566373],[4.3468766,44.4582248],[4.3476362,44.4599898],[4.3476377,44.4599931],[4.3478666,44.4610167],[4.3485044,44.4625872]]},"properties":{"CLC:code":"321","CLC:id":"FR-201038","CLC:year":"2006","natural":"grassland","source":"Union européenne - SOeS, CORINE Land Cover, 2006."}},
{"type":"Feature","geometry":{"type":"LineString","coordinates":[[4.4185718,44.4336221],[4.4185318,44.4325399],[4.4181713,44.4322128],[4.4168717,44.431655],[4.4163975,44.4314132],[4.4163391,44.4298321],[4.4143793,44.4302853],[4.4128661,44.4302308],[4.4125855,44.432069],[4.4106225,44.432439],[4.4093594,44.4297146],[4.4102433,44.4284475],[4.4093621,44.4266312],[4.4078275,44.4259945],[4.4073175,44.4247549],[4.4061128,44.4236104],[4.4052204,44.4246269],[4.4057304,44.4258677],[4.4064886,44.4275187],[4.4070086,44.429009],[4.4081119,44.4305703],[4.4086206,44.4314889],[4.4094819,44.4330442],[4.4108761,44.4330178],[4.411271,44.4342596],[4.4113293,44.4358418],[4.4100795,44.436295],[4.4103261,44.4370269],[4.4099994,44.4376167],[4.4100393,44.4386988],[4.4120239,44.4389109],[4.4120638,44.439993],[4.4132252,44.4399711],[4.4135889,44.4372148],[4.4131055,44.4367247],[4.4132739,44.4349718],[4.4145513,44.4349476],[4.4159394,44.4347549],[4.4161354,44.4337515],[4.4185718,44.4336221]]},"properties":{"CLC:code":"321","CLC:id":"FR-201918","CLC:year":"2006","natural":"grassland","source":"Union européenne - SOeS, CORINE Land Cover, 2006."}},
{"type":"Feature","geometry":{"type":"LineString","coordinates":[[4.4142132,44.458217],[4.4138884,44.4579527],[4.412576,44.4570611],[4.4127752,44.4561409],[4.4139339,44.4560357],[4.4140293,44.4554503],[4.4138376,44.4545948],[4.4125852,44.4544363],[4.4125762,44.4538956],[4.4126555,44.4528944],[4.413779,44.4527113],[4.413806,44.4538026],[4.415439,44.4537054],[4.4155455,44.4524225],[4.4164018,44.4518955],[4.4163707,44.4510246],[4.4164562,44.4506751],[4.4167195,44.4506598],[4.4167261,44.4501576],[4.4163757,44.4488333],[4.4161407,44.4480021],[4.4154262,44.4456232],[4.415844,44.4447534],[4.4180271,44.4440452],[4.4177489,44.4428012],[4.4168126,44.4426525],[4.4171823,44.4400625],[4.4177419,44.4394694],[4.4176988,44.438303],[4.415818,44.4377562],[4.4160839,44.4386676],[4.4155466,44.4398439],[4.415874,44.4424195],[4.414724,44.4427753],[4.4146847,44.4448586],[4.4147615,44.4469397],[4.4148261,44.4486882],[4.4134376,44.4488809],[4.4139457,44.4500374],[4.4138428,44.4514169],[4.4136715,44.4522515],[4.413178,44.4520122],[4.4118954,44.4515294],[4.4105602,44.4512676],[4.4102284,44.4513654],[4.4081142,44.4518785],[4.408103,44.4516139],[4.408113,44.4511473],[4.4067771,44.4495893],[4.4073055,44.4481636],[4.4091652,44.4481285],[4.4106605,44.4476841],[4.4103762,44.4462726],[4.407963,44.4470683],[4.407468,44.4462444],[4.4091863,44.4455451],[4.4088959,44.4439684],[4.4094526,44.4432911],[4.4105712,44.4421038],[4.4101371,44.4397798],[4.4087673,44.4404714],[4.4078257,44.4401564],[4.4059632,44.4401083],[4.4049507,44.4410438],[4.4034708,44.441905],[4.4029271,44.4397494],[4.4051316,44.4396236],[4.4058166,44.4392778],[4.4058347,44.4366113],[4.4072107,44.4360861],[4.4070487,44.4348398],[4.4056606,44.4350324],[4.4058132,44.4328638],[4.4046389,44.432552],[4.4036975,44.4322368],[4.4032944,44.4307455],[4.4009581,44.4304555],[4.4009245,44.4295397],[4.4031165,44.4290824],[4.4028208,44.4283207],[4.4023461,44.4270976],[4.4011575,44.4263699],[4.4007537,44.4248786],[4.4021172,44.4240197],[4.4008432,44.4209615],[4.3992562,44.4204909],[4.3987332,44.422084],[4.3993476,44.4229889],[4.3990589,44.4241867],[4.3989444,44.4246619],[4.3988794,44.4260799],[4.3976479,44.4273524],[4.3975646,44.4282704],[4.3959567,44.4287999],[4.396449,44.4295407],[4.3996709,44.4286468],[4.3996557,44.4288619],[4.3995945,44.4297312],[4.398934,44.4307432],[4.3980292,44.4314271],[4.3950089,44.4314838],[4.3950454,44.4324828],[4.3954148,44.4330594],[4.3974787,44.4322707],[4.3987599,44.4323298],[4.3993714,44.4331515],[4.4002272,44.4343015],[4.4002699,44.4354668],[4.4005813,44.4376267],[4.4012265,44.4393643],[4.4018504,44.4405186],[4.4022475,44.4418448],[4.4011073,44.4424487],[4.4009171,44.4436184],[4.4015715,44.4456054],[4.4012782,44.447111],[4.4008467,44.4480356],[4.402174,44.4493432],[4.402911,44.4504122],[4.4017608,44.4507678],[4.4007916,44.449702],[4.3998469,44.4493037],[4.3979384,44.4480071],[4.3975437,44.4467641],[4.3963425,44.4457037],[4.3948106,44.44515],[4.3936179,44.4443391],[4.3925352,44.4433598],[4.3918623,44.4440392],[4.3909602,44.444805],[4.3920551,44.4461181],[4.3902319,44.447152],[4.3894319,44.4466721],[4.3889625,44.4474253],[4.3878183,44.447946],[4.3906421,44.4481457],[4.3915481,44.4488235],[4.3923305,44.4491941],[4.3940504,44.4492254],[4.3956314,44.4492161],[4.3957396,44.448298],[4.3977691,44.4485104],[4.3988698,44.4498642],[4.3990754,44.4504843],[4.3992137,44.4513185],[4.3999567,44.4523007],[4.4022779,44.4521738],[4.4034892,44.4534835],[4.404428,44.4537166],[4.4048465,44.4556237],[4.4028652,44.4554946],[4.4024153,44.4559203],[4.4035221,44.4575648],[4.4040365,44.4579916],[4.4048393,44.4584812],[4.4069542,44.4591666],[4.4069787,44.4592203],[4.4092219,44.4593644],[4.4106562,44.4592537],[4.4120456,44.4589769],[4.4142132,44.458217]]},"properties":{"CLC:code":"321","CLC:id":"FR-201203","CLC:year":"2006","natural":"grassland","source":"Union européenne - SOeS, CORINE Land Cover, 2006."}},
{"type":"Feature","geometry":{"type":"LineString","coordinates":[[4.3869411,44.4502877],[4.3867843,44.450007],[4.3872682,44.4487895],[4.3861028,44.4487281],[4.3855004,44.4481569],[4.3835439,44.4455272],[4.3817286,44.4435618],[4.3801606,44.4420077],[4.3801244,44.4410087],[4.381968,44.4405583],[4.3834652,44.443363],[4.3842169,44.4448479],[4.3855347,44.4459061],[4.3873822,44.4455388],[4.3882107,44.4459393],[4.3886272,44.444599],[4.3873488,44.4446229],[4.3868625,44.4440495],[4.3880127,44.4436941],[4.3880985,44.4428592],[4.3868200999999999,44.4428831],[4.3861108,44.4425635],[4.3850381,44.4418335],[4.3850108,44.4410851],[4.3872124,44.4408765],[4.3880166,44.4406118],[4.3877541,44.4397835],[4.3862528,44.4400623],[4.3849321,44.4389197],[4.3859381,44.4378181],[4.3852167,44.4371659],[4.3840856,44.4380191],[4.3836024,44.4375288],[4.3829264,44.438125],[4.3824886,44.4388821],[4.3816754,44.4388973],[4.3805998,44.4380841],[4.3805454,44.4365862],[4.3815515,44.4354846],[4.380133,44.4348442],[4.3770642,44.4335688],[4.3757378,44.432261],[4.3746827,44.4320298],[4.3749726,44.4315427],[4.3758976,44.4302587],[4.3747243,44.4299465],[4.3733663,44.4309714],[4.3723559,44.4287649],[4.3706868,44.4276061],[4.3708618,44.4260197],[4.3713916,44.4245941],[4.3700836,44.4237852],[4.3691876,44.4247182],[4.3686997,44.427309],[4.3667247,44.4273456],[4.3662245,44.4263552],[4.3660537,44.4248595],[4.3652077,44.4239587],[4.3628308,44.4225026],[4.3604779,44.4217139],[4.3567304,44.4209498],[4.3560096,44.4202963],[4.3539157,44.4202516],[4.3536244,44.4173789],[4.3550661,44.4168021],[4.3543765,44.4150851],[4.3524545,44.4155435],[4.3528743,44.4165285],[4.3523379,44.4171339],[4.3510182,44.418268],[4.3502994,44.4184596],[4.3495055,44.4178619],[4.3491303,44.4172317],[4.3468261,44.4181116],[4.3469339,44.4190215],[4.3473384,44.4205962],[4.3499447,44.4219652],[4.3525266,44.4226678],[4.3544272,44.4237989],[4.3556507,44.4232422],[4.3578786,44.4237848],[4.3613815,44.4242194],[4.3611875,44.4253059],[4.3625965,44.425697],[4.3645655,44.4254942],[4.3651825,44.4264824],[4.3654565,44.4276434],[4.3646884,44.4289069],[4.3644923,44.4299102],[4.3639382,44.4306705],[4.3645642,44.4319082],[4.3630235,44.4331826],[4.3651093,44.4341234],[4.3663156,44.4353504],[4.3666175,44.4372609],[4.368733,44.4378885],[4.3691413,44.4395475],[4.3687153,44.4406382],[4.3677934,44.4411028],[4.3693475,44.4420422],[4.3699467,44.4425315],[4.3717556,44.4425698],[4.3720413,44.4425759],[4.3731946,44.4423048],[4.3740621,44.4437876],[4.3750276,44.4447694],[4.3763973,44.4445797],[4.3758824,44.4426709],[4.3772648,44.4423124],[4.3772855,44.4423588],[4.3781505,44.4442952],[4.379542,44.4441861],[4.3797154,44.445765],[4.3801955,44.446839],[4.3817304,44.4468104],[4.382014,44.4482219],[4.3832369,44.4498645],[4.3841755,44.4500977],[4.3843348,44.4505388],[4.3845639,44.4511734],[4.3847114,44.4517588],[4.3848354,44.4522512],[4.3861018,44.4518936],[4.3869543,44.452929],[4.3883381,44.4526254],[4.3878275,44.4513857],[4.3869411,44.4502877]]},"properties":{"CLC:code":"321","CLC:id":"FR-201468","CLC:year":"2006","natural":"grassland","source":"Union européenne - SOeS, CORINE Land Cover, 2006."}},
{"type":"Feature","geometry":{"type":"LineString","coordinates":[[4.4213187,44.4457189],[4.4222572,44.4452266],[4.423627,44.4445337],[4.4251314,44.4443386],[4.4258039,44.443659],[4.4281223,44.4434484],[4.4292652,44.4429273],[4.4291028,44.4416811],[4.429848,44.439834],[4.4299269,44.4388328],[4.4289852,44.4385168],[4.4272984,44.440049],[4.4267049,44.4397274],[4.4260805,44.4385721],[4.4256941,44.4375686],[4.4254135,44.436265],[4.4243342,44.4353691],[4.4240488,44.4339576],[4.4255529,44.4337626],[4.4251739,44.4329365],[4.4247648,44.4305776],[4.4233722,44.4313887],[4.4216176,44.4310881],[4.4205479,44.4336081],[4.4225293,44.4337369],[4.4223373,44.4348234],[4.4218785,44.4349986],[4.4219185,44.4360807],[4.4216925,44.436352],[4.4215016,44.4376498],[4.420489,44.4378261],[4.4204813,44.4380838],[4.4204235,44.4388135],[4.4228696,44.4397881],[4.4240472,44.4401817],[4.4242979,44.4406774],[4.425142,44.4413034],[4.424338,44.4417595],[4.4228245,44.4417051],[4.4228399,44.4421209],[4.4213325,44.4422327],[4.4200603,44.4424244],[4.4196229,44.4431817],[4.4196507,44.4439312],[4.4201404,44.4445887],[4.4210759,44.4447374],[4.4213187,44.4457189]]},"properties":{"CLC:code":"321","CLC:id":"FR-201697","CLC:year":"2006","natural":"grassland","source":"Union européenne - SOeS, CORINE Land Cover, 2006."}},
{"type":"Feature","geometry":{"type":"LineString","coordinates":[[4.3396471,44.4242307],[4.3406602,44.4223849],[4.3408634,44.421548],[4.3430945,44.4209764],[4.3432703,44.4193911],[4.3415257,44.4183132],[4.3416606,44.4177323],[4.3420325,44.4162214],[4.340734,44.4156616],[4.3385096,44.415203],[4.3396329,44.4140996],[4.3414737,44.4135656],[4.3408384,44.4121],[4.3407531,44.4118775],[4.340965,44.4112491],[4.3412857,44.4108256],[4.3415902,44.4103149],[4.3408317,44.4102016],[4.3396039,44.4100184],[4.3383558,44.4108733],[4.3385885,44.4112978],[4.3388531,44.4117806],[4.3370065,44.4121483],[4.3361759,44.4116631],[4.3349817,44.4107684],[4.3334809,44.4110454],[4.3334416,44.4132129],[4.3313687,44.4137499],[4.3313982,44.4145826],[4.3303739,44.4151848],[4.3301882,44.4165207],[4.3296367,44.4173639],[4.3270407,44.416245],[4.3257394,44.4156018],[4.324513,44.4174073],[4.3241929,44.4178788],[4.32354,44.4191399],[4.3228842,44.4203189],[4.3221115,44.421499],[4.3231807,44.4221452],[4.3232994,44.4222654],[4.3238972,44.4220893],[4.3259144,44.4216234],[4.3280118,44.4214156],[4.3289822,44.4217038],[4.3294644,44.4213397],[4.3315375,44.4208016],[4.3337592,44.4211783],[4.3348227,44.4216582],[4.3361302,44.4224676],[4.3385455,44.4238089],[4.3396471,44.4242307]]},"properties":{"CLC:code":"323","CLC:id":"FR-202483","CLC:year":"2006","natural":"scrub","source":"Union européenne - SOeS, CORINE Land Cover, 2006."}},
{"type":"Feature","geometry":{"type":"LineString","coordinates":[[4.463398,44.4038362],[4.4640917,44.4037562],[4.4658941,44.4031162],[4.4664627,44.4031047],[4.4670635,44.4033155],[4.4672942,44.4037447],[4.4675571,44.4043426],[4.4681418,44.4045687],[4.4685602,44.4044116],[4.4683725,44.4039555],[4.4684046,44.4036834],[4.4686568,44.4034305],[4.4690598,44.4036727],[4.4712569,44.4040932],[4.4714319,44.4031868],[4.4700227,44.4027971],[4.4695199,44.4027556],[4.4692316,44.4027318],[4.468391,44.4026624],[4.4678256,44.4013768],[4.4655571,44.4014681],[4.4648069,44.4000658],[4.4641822,44.3989119],[4.4625193,44.3979445],[4.4621423,44.3972018],[4.4610695,44.3964736],[4.4586341,44.396604],[4.456422,44.3964804],[4.4556909,44.3955781],[4.453717,44.3956162],[4.4529454,44.3936318],[4.4530121,44.3922969],[4.4522686,44.3910619],[4.4512832,44.389582],[4.4497671,44.3879167],[4.4493451,44.3874526],[4.4472244,44.3866613],[4.4457815,44.3853555],[4.4434282,44.3845675],[4.4427224,44.3843314],[4.441794,44.3843493],[4.440721,44.3836199],[4.4394292,44.3832286],[4.4388394,44.3829903],[4.4382247,44.3820856],[4.4378296,44.3808439],[4.4368641,44.3798628],[4.4355208,44.3792217],[4.4332058,44.3794324],[4.4293319,44.3783404],[4.4276984,44.3788113],[4.4268195,44.3801616],[4.4281489,44.381552],[4.4303913,44.3825088],[4.4321143,44.3819766],[4.4347232,44.3834256],[4.4360374,44.3844001],[4.4365671,44.3861396],[4.4394215,44.3879178],[4.4423515,44.3886115],[4.4449618,44.3900603],[4.4459641,44.3905301],[4.448036,44.3915011],[4.4481988,44.3927473],[4.4494068,44.3939733],[4.4521147,44.3949208],[4.4529679,44.3959872],[4.453485,44.397394],[4.4536612,44.3989727],[4.4530114,44.4002346],[4.4521791,44.401148],[4.4520066,44.401338],[4.45002,44.4010423],[4.4495992,44.4005692],[4.4485643,44.399405],[4.4472336,44.4000367],[4.4467382,44.4002723],[4.4475976,44.4015062],[4.4497407,44.4028806],[4.4491002,44.404393],[4.4470318,44.4050153],[4.4435637,44.4054992],[4.4430492,44.4041755],[4.4413264,44.404709],[4.4405253,44.4050572],[4.4397405,44.4058223],[4.4399049,44.4068527],[4.4399279,44.4069972],[4.4430545,44.407424],[4.4450226,44.4072198],[4.4481888,44.4079921],[4.4504108,44.4083664],[4.4521688,44.4087486],[4.4530065,44.4093993],[4.4550938,44.4092757],[4.4580126,44.4096354],[4.4590456,44.4092825],[4.4594814,44.408524],[4.4601688,44.4082611],[4.4589892,44.4077835],[4.4565219,44.4070813],[4.4552843,44.4061934],[4.4540054,44.4050473],[4.4532743,44.404145],[4.4525244,44.4027437],[4.4529571,44.4019021],[4.4534359,44.4014307],[4.4540779,44.4007976],[4.4553446,44.4010973],[4.4570088,44.401491],[4.4598395,44.4026023],[4.4621875,44.4032236],[4.4627279,44.4035168],[4.463398,44.4038362]]},"properties":{"CLC:code":"323","CLC:id":"FR-202912","CLC:year":"2006","natural":"scrub","source":"Union européenne - SOeS, CORINE Land Cover, 2006."}},
{"type":"Feature","geometry":{"type":"LineString","coordinates":[[4.4084371,44.4048464],[4.4084555,44.4044491],[4.4085205,44.4037506],[4.4094255,44.4030666],[4.4092728,44.4020699],[4.4100671,44.4015556],[4.4111118,44.4015358],[4.4112829,44.4030315],[4.4120195,44.4041016],[4.4122121,44.4050845],[4.4143996,44.4042112],[4.4148064,44.4040488],[4.4157966,44.4025299],[4.4178345,44.4010756],[4.4182504,44.4018963],[4.4183362,44.4020657],[4.4185372,44.4021529],[4.4199892,44.4027832],[4.4214956,44.4026714],[4.4244108,44.4029498],[4.4261653,44.4032493],[4.427176,44.4023135],[4.4261005,44.4015008],[4.4245726,44.4010307],[4.4229372,44.400811],[4.4212266,44.4016768],[4.4197172,44.4017055],[4.4193224,44.4004637],[4.4184636,44.3992307],[4.4178491,44.398326],[4.4170971,44.3968402],[4.4151201,44.3967945],[4.4133177,44.3967849],[4.4110314,44.3972205],[4.4093208,44.3980861],[4.4082754,44.3981059],[4.4063351,44.3974409],[4.4053464,44.3980408],[4.4042183,44.3983489],[4.4049886,44.4001312],[4.4046682,44.400612],[4.4044877,44.4008595],[4.4043608,44.4010983],[4.4043669,44.4011656],[4.4027936,44.4007079],[4.4021702,44.4007783],[4.4016252,44.400564],[4.400624,44.4002255],[4.3995063,44.3997701],[4.3979757,44.3992165],[4.3964777,44.3995775],[4.3976435,44.4011613],[4.3979317,44.4013792],[4.3983141,44.4018523],[4.3984732,44.4018714],[4.3993819,44.4027964],[4.4005782,44.4036653],[4.4015436,44.4046468],[4.4016244,44.404701],[4.4026256,44.4053718],[4.4030948,44.4052787],[4.4051817,44.4061778],[4.4056479,44.4049112],[4.4063946,44.4051587],[4.406991,44.4053684],[4.4072094,44.4054535],[4.4084371,44.4048464]]},"properties":{"CLC:code":"323","CLC:id":"FR-203066","CLC:year":"2006","natural":"scrub","source":"Union européenne - SOeS, CORINE Land Cover, 2006."}},
{"type":"Feature","geometry":{"type":"LineString","coordinates":[[4.3713569,44.4036316],[4.3710232,44.4025514],[4.3701805,44.401735],[4.3703344,44.3995653],[4.3693757,44.398751],[4.3678596,44.3986116],[4.3664602,44.3984711],[4.364597,44.3983391],[4.3636496,44.3978574],[4.3621074,44.3969695],[4.3611459,44.3960708],[4.3612349,44.3953192],[4.3605114,44.3945826],[4.3618777,44.3938085],[4.359987,44.392927],[4.3590435,44.3925272],[4.3578285,44.3910507],[4.357004,44.390732],[4.3557268,44.3907555],[4.3517027,44.3886639],[4.3515302,44.387085],[4.3502411,44.3867748],[4.3492525,44.3851277],[4.3479873,44.3854837],[4.3464338,44.384263],[4.3461693,44.3833514],[4.3432407,44.3826551],[4.3410353,44.3826955],[4.3394155,44.3828915],[4.3381267,44.3825822],[4.3361186,44.3816193],[4.3337729,44.3809953],[4.3329035,44.3826775],[4.3312874,44.3829566],[4.3298013,44.3836504],[4.3287863,44.3845021],[4.3277823,44.3856863],[4.328967,44.3863305],[4.3298631,44.3853989],[4.3308994,44.3851293],[4.3319408,44.3850271],[4.3345932,44.3844795],[4.3357219,44.3835426],[4.3365579,44.3841929],[4.335549,44.385211],[4.333825,44.3857428],[4.33595,44.3867036],[4.3371496,44.3877646],[4.3383484,44.3888255],[4.3381637,44.3901613],[4.3397143,44.3913001],[4.3398657,44.392297],[4.3406998,44.3928642],[4.3413537,44.3949347],[4.342917,44.3964061],[4.3444441,44.3968774],[4.3461705,44.3964297],[4.3470188,44.3974137],[4.3467124,44.3985854],[4.3474447,44.3995716],[4.3493087,44.3997038],[4.3505972999999999,44.4000141],[4.3509907,44.4012561],[4.3516041,44.4021613],[4.3523216,44.4027305],[4.351413,44.4033308],[4.3512048,44.4040014],[4.3536855,44.4051219],[4.3557519,44.404417],[4.3575945,44.403967],[4.3603665,44.4034987],[4.3632612,44.4031956],[4.3662861,44.403306],[4.368064,44.4031854],[4.3713569,44.4036316]]},"properties":{"CLC:code":"323","CLC:id":"FR-203107","CLC:year":"2006","natural":"scrub","source":"Union européenne - SOeS, CORINE Land Cover, 2006."}},
{"type":"Feature","geometry":{"type":"LineString","coordinates":[[4.4122409,44.3949948],[4.4130599,44.393811],[4.4146582,44.3930307],[4.4159101,44.3923413],[4.4179937,44.3921353],[4.4205389,44.3918362],[4.420621,44.3909182],[4.4192094,44.3904458],[4.4186656,44.3882904],[4.4184981,44.388285],[4.4170368,44.3882381],[4.4155339,44.388433],[4.414822,44.3880294],[4.4122739,44.3882452],[4.411653,44.3885373],[4.4108707,44.3882779],[4.4098788,44.3884037],[4.4095153,44.3890463],[4.41002,44.3895366],[4.4087479,44.3900732],[4.4081882,44.3912203],[4.4065253,44.3911037],[4.4064606,44.3912697],[4.4073007,44.3920039],[4.4077651,44.3926332],[4.4079119,44.3928255],[4.4084082,44.3942959],[4.4111858,44.3946842],[4.4114041,44.3947138],[4.4122409,44.3949948]]},"properties":{"CLC:code":"321","CLC:id":"FR-203456","CLC:year":"2006","natural":"grassland","source":"Union européenne - SOeS, CORINE Land Cover, 2006."}},
{"type":"Feature","geometry":{"type":"LineString","coordinates":[[4.3464948,44.3770892],[4.3464083,44.3770154],[4.3463846,44.3763502],[4.3470873,44.3757302],[4.3473581,44.3754913],[4.3461567,44.373694],[4.347493,44.3720874],[4.3466332,44.3707022],[4.3451587,44.3712914],[4.3441709,44.3728916],[4.3429774,44.3719971],[4.3424118,44.3724246],[4.3426644,44.3730024],[4.3418906,44.3740994],[4.3405901,44.3734575],[4.3401722,44.3736992],[4.3395104,44.3752542],[4.3388788,44.3764932],[4.3395527,44.3763554],[4.3406171,44.3768382],[4.3413319,44.3784476],[4.3419153,44.3785201],[4.3459453,44.3775299],[4.3464948,44.3770892]]},"properties":{"CLC:code":"321","CLC:id":"FR-204110","CLC:year":"2006","natural":"grassland","source":"Union européenne - SOeS, CORINE Land Cover, 2006."}},
{"type":"Feature","geometry":{"type":"LineString","coordinates":[[4.3375211,44.3556872],[4.3389879,44.3544944],[4.339797,44.3543964],[4.3405824,44.353632],[4.340919,44.353293],[4.3420529,44.3525223],[4.343448,44.3525799],[4.3438938,44.3520714],[4.3443137,44.3508145],[4.3438198,44.3499904],[4.3441067,44.3487415],[4.3432445,44.3473417],[4.3402344,44.3475632],[4.3401807,44.3493138],[4.3384962,44.3509266],[4.3378503,44.3523552],[4.339278,44.3533287],[4.3382578,44.354013],[4.3376569,44.3534415],[4.3368301,44.3530395],[4.3355833,44.3538954],[4.3366294,44.355112],[4.3375211,44.3556872]]},"properties":{"CLC:code":"321","CLC:id":"FR-204915","CLC:year":"2006","natural":"grassland","source":"Union européenne - SOeS, CORINE Land Cover, 2006."}},
{"type":"Feature","geometry":{"type":"LineString","coordinates":[[4.3841188,44.3488282],[4.3846626,44.3478184],[4.3846112,44.3464026],[4.3815043,44.3455454],[4.3804907,44.3448144],[4.380687,44.3438111],[4.3786938,44.3432647],[4.3784453,44.3432199],[4.3780671,44.3438662],[4.3776065,44.343873],[4.3775405,44.3445028],[4.3765491,44.3445901],[4.3764153,44.3441687],[4.3762537,44.3445693],[4.3762084,44.344562],[4.3759711,44.3447919],[4.3756814,44.3447995],[4.3758723,44.3456058],[4.3752709,44.3456226],[4.3753546,44.3464752],[4.3760679,44.3463971],[4.376464,44.3468262],[4.3765238,44.34747],[4.3766116,44.3476559],[4.3768282,44.3478162],[4.3774043,44.3469553],[4.3789444,44.346055],[4.3804236,44.3456303],[4.3805895,44.3458625],[4.3806974,44.3458533],[4.3807836,44.3460993],[4.3792592,44.34658],[4.3791852,44.3466034],[4.3795411,44.3471572],[4.3802582,44.3468415],[4.3807594,44.3474809],[4.3798945,44.3479567],[4.3787923,44.3485338],[4.3788649,44.3495931],[4.3806016,44.3494764],[4.3818718,44.3492862],[4.3822909,44.3480292],[4.3834444,44.3478412],[4.3841188,44.3488282]]},"properties":{"CLC:code":"321","CLC:id":"FR-205119","CLC:year":"2006","natural":"grassland","source":"Union européenne - SOeS, CORINE Land Cover, 2006."}},
{"type":"Feature","geometry":{"type":"LineString","coordinates":[[4.322152,44.3417287],[4.3201682,44.3414307],[4.3184339,44.3402287],[4.3176705,44.3408879],[4.316641,44.3408245],[4.3152287,44.3412199],[4.3159126,44.3418023],[4.3166407,44.3424154],[4.316641,44.3424157],[4.318528,44.3442928],[4.3201577,44.3444297],[4.3217494,44.3446459],[4.3228516,44.3462912],[4.3225461,44.346851],[4.3257817,44.3470712],[4.3257319,44.3456564],[4.3271033,44.345048],[4.327074,44.3442153],[4.3227783,44.3442101],[4.3228159,44.3419606],[4.322152,44.3417287]]},"properties":{"CLC:code":"321","CLC:id":"FR-205252","CLC:year":"2006","natural":"grassland","source":"Union européenne - SOeS, CORINE Land Cover, 2006."}},
{"type":"Feature","geometry":{"type":"LineString","coordinates":[[4.3177773,44.3361433],[4.3206137,44.3375918],[4.3200716,44.3386844],[4.3229228,44.3405487],[4.3242474,44.3397691],[4.3247924,44.3387596],[4.3250813,44.337088],[4.3252484,44.3352522],[4.3265302,44.3353953],[4.326366,44.3373143],[4.329402,44.3378426],[4.3292027,44.3387626],[4.3296669,44.3387542],[4.3303285,44.3410741],[4.3306857,44.3413172],[4.3308193,44.3418152],[4.3319913,44.3421266],[4.3323153,44.3414551],[4.334784,44.3423253],[4.3346888,44.3429106],[4.3372757,44.343863],[4.3378381,44.3433534],[4.3368514,44.3417051],[4.3370447,44.3406188],[4.3356292,44.3399779],[4.333872,44.3395107],[4.3317606,44.3388825],[4.3313887,44.3382225],[4.3313299,44.3365583],[4.3303787,44.3359089],[4.330105,44.3347479],[4.3301922,44.3339131],[4.3308764,44.3335678],[4.3325322,44.334454],[4.3329062,44.335196],[4.3355769,44.3352305],[4.3359548,44.3360568],[4.3386196,44.3359249],[4.3385664,44.334427],[4.3389885,44.3332522],[4.3386977,44.3315923],[4.3413712,44.3317098],[4.3419867,44.3326981],[4.3415433,44.3332898],[4.3416446,44.3334451],[4.3414058,44.3336862],[4.341384,44.3341574],[4.3416686,44.3345676],[4.3429173,44.3349602],[4.343634,44.335584],[4.344687,44.335897],[4.3452852,44.3353598],[4.3456305,44.3342181],[4.3461417,44.3334055],[4.3473608,44.3329677],[4.3481497,44.3334517],[4.3494528,44.3342863],[4.3506321,44.3343154],[4.350649,44.3347879],[4.3535633,44.3351513],[4.3543601,44.3347195],[4.3547886,44.333712],[4.3558201,44.3333602],[4.3551843,44.3317888],[4.354928,44.3311278],[4.3540865,44.3303102],[4.353352,44.3292409],[4.3518148,44.328436],[4.3514131,44.330193],[4.3501373,44.3302165],[4.3489721,44.3300704],[4.3481783,44.3305853],[4.3474884,44.3307644],[4.3468668,44.3296098],[4.3466867,44.328753],[4.346587,44.3282825],[4.3471194,44.3269392],[4.3465969,44.3252836],[4.3442086,44.3266598],[4.3417264,44.3253729],[4.3411021,44.3241341],[4.3409183,44.3222215],[4.3384799,44.3221829],[4.3382571,44.3224377],[4.3387972,44.3245934],[4.3378727,44.3246935],[4.3371474,44.3238736],[4.3372072,44.3222894],[4.3372699,44.3207894],[4.3375709,44.3194515],[4.3378476,44.3174473],[4.3364562,44.3174727],[4.336206,44.3202253],[4.3361286,44.3213095],[4.3354535,44.3219054],[4.3362259,44.3240569],[4.3367217,44.3249642],[4.337914,44.3258587],[4.3372418,44.3265378],[4.3360849,44.3266422],[4.3356392,44.3271495],[4.3367681,44.3295452],[4.3362058,44.3300547],[4.3355454,44.3310664],[4.3346443,44.3318328],[4.334721,44.3339969],[4.3334539,44.3342697],[4.3327826,44.3317003],[4.3317186,44.3311362],[4.3313681,44.3299946],[4.3274012,44.3304648],[4.3270001,44.3289733],[4.3264633,44.3269007],[4.3249551,44.3269281],[4.3247821,44.3285976],[4.3248378,44.3301786],[4.3242738,44.3302428],[4.3245108,44.3307681],[4.3234901,44.3314522],[4.3212808,44.3313259],[4.3194454,44.3319427],[4.3204235,44.3333406],[4.3216384,44.3349017],[4.3199312,44.335849],[4.3177773,44.3361433]]},"properties":{"CLC:code":"323","CLC:id":"FR-205353","CLC:year":"2006","natural":"scrub","source":"Union européenne - SOeS, CORINE Land Cover, 2006."}},
{"type":"Feature","geometry":{"type":"LineString","coordinates":[[4.3274447,44.4807638],[4.3292966,44.4804806],[4.3296265,44.4792635],[4.3291097,44.4784847],[4.3273917,44.4792659],[4.3267954,44.4788606],[4.3258331,44.4779616],[4.3249781,44.4768099],[4.3233791,44.4776721],[4.3227543,44.4764341],[4.3227161,44.4753519],[4.3243407,44.4752393],[4.3256169,44.4751329],[4.3269886,44.4744413],[4.3268342,44.4733612],[4.3278537,44.4725927],[4.3304089,44.4724631],[4.3326297,44.4727567],[4.3340102,44.4718736],[4.3338438,44.4704609],[4.333332,44.4691366],[4.3319058,44.4687928],[4.3318573,44.4669145],[4.3311332,44.4661776],[4.3295081,44.4662903],[4.3271891,44.4665],[4.32689,44.4679211],[4.3251348,44.4676201],[4.3232333,44.4664873],[4.3229783,44.4659825],[4.3227335,44.4654967],[4.3217825,44.4649314],[4.3218252,44.4628481],[4.320509,44.4617891],[4.3204961,44.4613184],[4.3204737,44.4604988],[4.3201802,44.45999],[4.319802,44.4589671],[4.3200145,44.4583808],[4.3211587,44.4578597],[4.3215652,44.456187],[4.3234223,44.4560702],[4.3240506,44.4573913],[4.3246554,44.4580472],[4.3255586,44.4572808],[4.3286464,44.4558079],[4.3293821,44.4568774],[4.32757,44.458244],[4.3274834,44.4590788],[4.3274002,44.4599898],[4.3273579,44.4614143],[4.3279746,44.4624028],[4.3306161,44.4625047],[4.3304613,44.4622796],[4.3307323,44.4620894],[4.3307935,44.4618702],[4.3305901,44.4614009],[4.3305793,44.4611731],[4.330987,44.4609664],[4.3311614,44.4610793],[4.3315342,44.4611903],[4.3323255,44.4609726],[4.3325568,44.4604045],[4.3328139,44.4602837],[4.3327904,44.4599588],[4.3328462,44.4597788],[4.3329917,44.4595551],[4.3341368,44.453354],[4.3343746,44.4529765],[4.3346859,44.4525079],[4.3350281,44.4516301],[4.3357813,44.4501522],[4.3363386,44.4488621],[4.3347722,44.4492029],[4.3343435,44.4493366],[4.3339149,44.4495229],[4.3343472,44.4505794],[4.3342425,44.451986],[4.3340627,44.4524366],[4.3331846,44.4518573],[4.3324481,44.4514906],[4.3304819,44.4522669],[4.3290422,44.4505529],[4.3283066,44.4494834],[4.3264476,44.4495171],[4.3245211,44.4490911],[4.3236487,44.4489876],[4.3227565,44.4487415],[4.3228862,44.4485551],[4.3225955,44.4485996],[4.3224637,44.4487009],[4.3219387,44.4487441],[4.3217481,44.448378],[4.3214055,44.4483591],[4.3208147,44.4487863],[4.320049,44.4489975],[4.3217001,44.4501035],[4.320805,44.4511193],[4.3197828,44.4518035],[4.3182779,44.4519971],[4.3177893,44.4513402],[4.316639,44.450747],[4.3152851,44.4501238],[4.3137964,44.4499066],[4.3118176,44.4498591],[4.3102981,44.4496368],[4.3089729,44.448327],[4.3089234,44.4469122],[4.3068053,44.4462002],[4.3045944,44.4461567],[4.3039582,44.4479178],[4.3028336,44.4490208],[4.3012155,44.4492994],[4.2993963,44.450498],[4.2985974,44.4509295],[4.2971185,44.4518723],[4.2957556,44.4514345],[4.2952813,44.4526462],[4.295906,44.4538843],[4.2971605,44.456528],[4.2981083,44.4570103],[4.2987498,44.4587485],[4.3002441,44.4599893],[4.301239,44.4607066],[4.3033402,44.4609197],[4.3043984,44.4612336],[4.305003,44.4618895],[4.305157,44.4629696],[4.3058777,44.4636224],[4.3068483,44.4647721],[4.3086099,44.4652398],[4.3092234,44.4661452],[4.3088918,44.4666515],[4.3083483,44.4677442],[4.3083803,44.46866],[4.3078693,44.4693824],[4.3076045,44.4697568],[4.3075088,44.470341],[4.3068549,44.471602],[4.3079126,44.471917],[4.309215,44.4725593],[4.308201,44.473494],[4.3077823,44.4748351],[4.3086399,44.476069],[4.3094828,44.4768871],[4.3095178,44.4778861],[4.3095411,44.4785514],[4.311106,44.4800233],[4.311868,44.4818424],[4.3126066,44.4829953],[4.3135835,44.4843102],[4.3138714,44.4858882],[4.3152669,44.4858631],[4.3149644,44.4838692],[4.3141037,44.4825522],[4.3133825,44.4818984],[4.313243,44.4812341],[4.312516,44.480414],[4.3120185,44.4795065],[4.3115122,44.4783495],[4.3122998,44.4775864],[4.3141575,44.4774686],[4.3149303,44.4772692],[4.3152735,44.4759766],[4.315575,44.4748568],[4.3159056,44.4741649],[4.3160714,44.4737234],[4.3166387,44.4735299],[4.3185673,44.4731779],[4.3187186,44.4741749],[4.3197793,44.4745718],[4.3198321,44.4760709],[4.3208966,44.4765509],[4.3209211,44.477248],[4.3209288,44.4774668],[4.3193364,44.4784952],[4.319476,44.4791595],[4.3206941,44.4807196],[4.3228806,44.4800144],[4.3242642,44.4796554],[4.3253162,44.4798027],[4.3274447,44.4807638]]},"properties":{"CLC:code":"324","CLC:id":"FR-200291","CLC:year":"2006","landuse":"forest","natural":"scrub","source":"Union européenne - SOeS, CORINE Land Cover, 2006."}},
{"type":"Feature","geometry":{"type":"LineString","coordinates":[[4.3985915,44.3911109],[4.3987455,44.3910957],[4.3987371,44.3910457],[4.398599,44.3910566],[4.3986003,44.391075],[4.398585,44.391077],[4.3985915,44.3911109]]},"properties":{"natural":"water","source":"cadastre-dgi-fr source : Direction Générale des Impôts - Cadastre. Mise à jour : 2010"}},
{"type":"Feature","geometry":{"type":"LineString","coordinates":[[4.3812227,44.4031859],[4.3815654,44.4031603],[4.3819356,44.4031438],[4.3820214,44.4031813],[4.3820375,44.4032139],[4.3818325,44.4032663],[4.3816298,44.4033174],[4.3814662,44.4033615],[4.3812936,44.4033816],[4.3810853,44.4033442],[4.3809083,44.4033193],[4.3808997,44.4032897],[4.3809915,44.4032427],[4.3812227,44.4031859]]},"properties":{"place":"islet"}},
{"type":"Feature","geometry":{"type":"LineString","coordinates":[[4.3810891,44.4029229],[4.381214,44.402774],[4.381457,44.402557],[4.381756,44.402517],[4.3820929,44.4025107],[4.3821891,44.4025231],[4.3822695,44.4025442],[4.3822749,44.4025624],[4.3822078,44.4025959],[4.382114,44.4026294],[4.3822065,44.4026333],[4.3822561,44.4026572],[4.382236,44.4026956],[4.3822722,44.4027176],[4.3823419,44.4027396],[4.3823902,44.4027523],[4.3823701,44.402799],[4.3823291,44.4028461],[4.3822011,44.4029083],[4.3820295,44.4029744],[4.3818136,44.403005],[4.3815225,44.4030252],[4.3812074,44.403028],[4.3811014,44.4029916],[4.3810891,44.4029229]]},"properties":{"place":"islet"}},