{"type":"FeatureCollection","features":[
{"type":"Feature","geometry":{"type":"Point","coordinates":[6.9567848,44.7737948]},"properties":{"email":"contact@gitehotel-ristolas.fr","name":"Le Ristolas","phone":"+33492538174","tourism":"hotel","website":"https://www.gitehotel-ristolas.fr/","wheelchair":"no"}},
{"type":"Feature","geometry":{"type":"Point","coordinates":[6.9276756,44.7939371]},"properties":{"information":"office","name":"Office de tourisme","name:en":"Tourist Office","opening_hours":"Mo-Fr 09:00-12:00,14:30-18:00; Sa 09:00-12:00","tourism":"information"}},
{"type":"Feature","geometry":{"type":"Point","coordinates":[7.0663531,44.7108916]},"properties":{"ele":"2950","mountain_pass":"yes","name":"Col de la Traversette / Colle Delle Traversette","name:fr":"Col de la Traversette","name:it":"Colle Delle Traversette","natural":"saddle","wikidata":"Q1107458","wikipedia":"it:Colle delle Traversette"}},
{"type":"Feature","geometry":{"type":"Point","coordinates":[7.0041,44.7941499]},"properties":{"ele":"2525","mountain_pass":"yes","name":"Col d'Urine","name:fr":"Col d'Urine","name:it":"Colle dell'Urina","natural":"saddle","wikidata":"Q2982004","wikipedia":"it:Colle dell'Urina"}},
{"type":"Feature","geometry":{"type":"Point","coordinates":[6.9697412,44.8468844]},"properties":{"ele":"2889","name":"Pic Charbonnel","name:fr":"Pic Charbonnel","natural":"peak"}},
{"type":"Feature","geometry":{"type":"Point","coordinates":[6.9061533,44.6987498]},"properties":{"description":"Rocher : Tige de fer - Point constaté détruit en 2002","ele":"2985.78","man_made":"survey_point","note":"Ne pas déplacer ce point, cf. - Do not move this node, see - http://wiki.openstreetmap.org/wiki/WikiProject_France/Repères_Géodésiques#Permanence_des_rep.C3.A8res","ref":"0515702 - D","source":"©IGN 2010 dans le cadre de la cartographie réglementaire","url":"http://geodesie.ign.fr/fiches/index.php?module=e&action=fichepdf&source=carte&sit_no=0515702"}},
{"type":"Feature","geometry":{"type":"Point","coordinates":[7.0733489,44.695765]},"properties":{"ele":"3022","name":"Pointe d'Udine / Punta Udine","name:fr":"Pointe d'Udine","name:it":"Punta Udine","natural":"peak","source":"gps","summit:cross":"yes","wikidata":"Q3925733","wikipedia":"it:Punta Udine"}},
{"type":"Feature","geometry":{"type":"Point","coordinates":[7.0658621,44.7075194]},"properties":{"ele":"3153","name":"Pointe de Marte / Rocce Fourioun","name:fr":"Pointe de Marte","name:it":"Rocce Fourioun","natural":"peak","wikidata":"Q3939516","wikipedia":"it:Rocce Fourioun"}},
{"type":"Feature","geometry":{"type":"Point","coordinates":[7.0757192,44.689636900000007]},"properties":{"ele":"3070","name":"Pointe de Rome / Punta Roma","name:fr":"Pointe de Rome","name:it":"Punta Roma","natural":"peak","wikidata":"Q3925717","wikipedia":"it:Punta Roma"}},
{"type":"Feature","geometry":{"type":"Point","coordinates":[7.0707700000000008,44.7002352]},"properties":{"ele":"3095","name":"Pointe de Venise / Punta Venezia","name:fr":"Pointe de Venise","name:it":"Punta Venezia","natural":"peak","wikidata":"Q3925736","wikipedia":"it:Punta Venezia"}},
{"type":"Feature","geometry":{"type":"Point","coordinates":[7.0675407,44.7168047]},"properties":{"ele":"3170","name":"Monte Granero","natural":"peak","wikidata":"Q2289005","wikipedia":"it:Monte Granero"}},
{"type":"Feature","geometry":{"type":"Point","coordinates":[7.0716922,44.6969014]},"properties":{"ele":"2920","mountain_pass":"yes","name":"Col du Couloir du Porc / Colle del Coulour del Porco","name:fr":"Col du Couloir du Porc","name:it":"Colle del Coulour del Porco","natural":"saddle"}},
{"type":"Feature","geometry":{"type":"Point","coordinates":[7.0664792,44.7121903]},"properties":{"ele":"2882","name":"Buco di Viso","natural":"cave_entrance"}},
{"type":"Feature","geometry":{"type":"Point","coordinates":[6.9968855,44.736078]},"properties":{"hiking":"yes","information":"map","map_size":"region","map_type":"scheme","tourism":"information"}},
{"type":"Feature","geometry":{"type":"Point","coordinates":[7.0317015,44.7088855]},"properties":{"ele":"2147","name":"Grand Belvédère du Mont Viso","note":"L'altitude indiquée 2133m est erronée - Altitude réelle 2147m","tourism":"viewpoint"}},
{"type":"Feature","geometry":{"type":"Point","coordinates":[6.9960204,44.7366789]},"properties":{"tourism":"picnic_site"}},
{"type":"Feature","geometry":{"type":"Point","coordinates":[6.9062003,44.6987058]},"properties":{"ele":"2989","name":"Pic de Château Renard","natural":"peak","wikidata":"Q20899951"}},
{"type":"Feature","geometry":{"type":"Point","coordinates":[7.0015598,44.6876608]},"properties":{"ele":"3219","historic":"wayside_cross","name":"Pic d'Asti","name:fr":"Pic d'Asti","name:it":"Pic d'Asti","natural":"peak","wikidata":"Q3902505","wikipedia":"it:Pic d'Asti"}},
{"type":"Feature","geometry":{"type":"Point","coordinates":[6.9964476,44.6904678]},"properties":{"ele":"3210","name":"Pain de Sucre / Pan di Zucchero","name:fr":"Pain de Sucre","name:it":"Pan di Zucchero","natural":"peak","source":"GPS","wikidata":"Q3360590","wikipedia":"it:Pan di Zucchero (Alpi Cozie)"}},
{"type":"Feature","geometry":{"type":"Point","coordinates":[7.0244772,44.6914519]},"properties":{"alt_name:fr":"Mont Aiguillette","ele":"3298","name":"L'Asti / Monte Aiguillette","name:fr":"L'Asti","name:it":"Monte Aiguillette","natural":"peak","wikidata":"Q3321647","wikipedia":"it:Monte Aiguillette"}},
{"type":"Feature","geometry":{"type":"Point","coordinates":[6.982092,44.7244035]},"properties":{"source":"© CNES 2004-2007 / Spot Image"}},
{"type":"Feature","geometry":{"type":"Point","coordinates":[6.9813859,44.7252042]},"properties":{"source":"© CNES 2004-2007 / Spot Image"}},
{"type":"Feature","geometry":{"type":"Point","coordinates":[6.9820167,44.7237128]},"properties":{"source":"© CNES 2004-2007 / Spot Image"}},
{"type":"Feature","geometry":{"type":"Point","coordinates":[6.9826496,44.7058232]},"properties":{"source":"© CNES 2004-2007 / Spot Image"}},
{"type":"Feature","geometry":{"type":"Point","coordinates":[6.9802726,44.7226784]},"properties":{"source":"© CNES 2004-2007 / Spot Image"}},
{"type":"Feature","geometry":{"type":"Point","coordinates":[6.9848049,44.7053991]},"properties":{"source":"© CNES 2004-2007 / Spot Image"}},
{"type":"Feature","geometry":{"type":"Point","coordinates":[6.981841,44.7229085]},"properties":{"source":"© CNES 2004-2007 / Spot Image"}},
{"type":"Feature","geometry":{"type":"Point","coordinates":[6.9843256,44.7064795]},"properties":{"source":"© CNES 2004-2007 / Spot Image"}},
{"type":"Feature","geometry":{"type":"Point","coordinates":[6.9826221,44.7070865]},"properties":{"source":"© CNES 2004-2007 / Spot Image"}},
{"type":"Feature","geometry":{"type":"Point","coordinates":[6.9819191,44.7246804]},"properties":{"source":"© CNES 2004-2007 / Spot Image"}},
{"type":"Feature","geometry":{"type":"Point","coordinates":[6.981613,44.7252469]},"properties":{"source":"© CNES 2004-2007 / Spot Image"}},
{"type":"Feature","geometry":{"type":"Point","coordinates":[6.979714,44.7235565]},"properties":{"source":"© CNES 2004-2007 / Spot Image"}},
{"type":"Feature","geometry":{"type":"Point","coordinates":[6.9846837,44.7044965]},"properties":{"source":"© CNES 2004-2007 / Spot Image"}},
{"type":"Feature","geometry":{"type":"Point","coordinates":[6.9829417,44.7072841]},"properties":{"source":"© CNES 2004-2007 / Spot Image"}},
{"type":"Feature","geometry":{"type":"Point","coordinates":[6.9829237,44.7045348]},"properties":{"source":"© CNES 2004-2007 / Spot Image"}},
{"type":"Feature","geometry":{"type":"Point","coordinates":[6.9820972,44.7238481]},"properties":{"source":"© CNES 2004-2007 / Spot Image"}},
{"type":"Feature","geometry":{"type":"Point","coordinates":[6.979824,44.7240635]},"properties":{"source":"© CNES 2004-2007 / Spot Image"}},
{"type":"Feature","geometry":{"type":"Point","coordinates":[6.9843744,44.704582]},"properties":{"source":"© CNES 2004-2007 / Spot Image"}},
{"type":"Feature","geometry":{"type":"Point","coordinates":[6.982013,44.723512]},"properties":{"source":"© CNES 2004-2007 / Spot Image"}},
{"type":"Feature","geometry":{"type":"Point","coordinates":[6.9838831,44.7068746]},"properties":{"source":"© CNES 2004-2007 / Spot Image"}},
{"type":"Feature","geometry":{"type":"Point","coordinates":[6.9815512,44.7253012]},"properties":{"source":"© CNES 2004-2007 / Spot Image"}},
{"type":"Feature","geometry":{"type":"Point","coordinates":[6.9812385,44.7249533]},"properties":{"source":"© CNES 2004-2007 / Spot Image"}},
{"type":"Feature","geometry":{"type":"Point","coordinates":[6.983158,44.704334]},"properties":{"source":"© CNES 2004-2007 / Spot Image"}},
{"type":"Feature","geometry":{"type":"Point","coordinates":[6.9817525,44.7224397]},"properties":{"source":"© CNES 2004-2007 / Spot Image"}},
{"type":"Feature","geometry":{"type":"Point","coordinates":[6.9845987,44.7058897]},"properties":{"source":"© CNES 2004-2007 / Spot Image"}},
{"type":"Feature","geometry":{"type":"Point","coordinates":[6.9828256,44.7049496]},"properties":{"source":"© CNES 2004-2007 / Spot Image"}},
{"type":"Feature","geometry":{"type":"Point","coordinates":[6.9846808,44.7055708]},"properties":{"source":"© CNES 2004-2007 / Spot Image"}},
{"type":"Feature","geometry":{"type":"Point","coordinates":[6.9832477,44.7074002]},"properties":{"source":"© CNES 2004-2007 / Spot Image"}},
{"type":"Feature","geometry":{"type":"Point","coordinates":[6.9812563,44.7254698]},"properties":{"source":"© CNES 2004-2007 / Spot Image"}},
{"type":"Feature","geometry":{"type":"Point","coordinates":[6.9825929,44.7062804]},"properties":{"source":"© CNES 2004-2007 / Spot Image"}},
{"type":"Feature","geometry":{"type":"Point","coordinates":[6.9817336,44.7248238]},"properties":{"source":"© CNES 2004-2007 / Spot Image"}},
{"type":"Feature","geometry":{"type":"Point","coordinates":[6.9806321,44.7244241]},"properties":{"source":"© CNES 2004-2007 / Spot Image"}},
{"type":"Feature","geometry":{"type":"Point","coordinates":[6.9839626,44.7040809]},"properties":{"source":"© CNES 2004-2007 / Spot Image"}},
{"type":"Feature","geometry":{"type":"Point","coordinates":[6.9797999,44.7232039]},"properties":{"source":"© CNES 2004-2007 / Spot Image"}},
{"type":"Feature","geometry":{"type":"Point","coordinates":[6.9848501,44.7049579]},"properties":{"source":"Bing"}},
{"type":"Feature","geometry":{"type":"Point","coordinates":[6.9841375,44.7066675]},"properties":{"source":"© CNES 2004-2007 / Spot Image"}},
{"type":"Feature","geometry":{"type":"Point","coordinates":[7.0232811,44.8099845]},"properties":{"ele":"2395","mountain_pass":"yes","name":"Colle delle Boine","natural":"saddle"}},
{"type":"Feature","geometry":{"type":"Point","coordinates":[7.0217741,44.8166213]},"properties":{"description":"2015-08 : Un captage a été mis en place ce qui rend la source facilement utilisable. Coule probablement toute l'année. Le débit était toujours vigoureux à la fin du mois d'août.","name:fr":"Source du col bouchet","natural":"spring","ref:refuges.info":"4804"}},
{"type":"Feature","geometry":{"type":"Point","coordinates":[7.0182735,44.8249945]},"properties":{"ele":"2737","mountain_pass":"yes","name":"Col de Valpreveyre / Passo Bucie","name:fr":"Col de Valpreveyre","name:it":"Passo Buccie","natural":"saddle"}},
{"type":"Feature","geometry":{"type":"Point","coordinates":[6.927193,44.794184]},"properties":{"source:modif":"Apidae (2017-11-21), in Opendata PACA"}},
{"type":"Feature","geometry":{"type":"Point","coordinates":[6.927237,44.794172]},"properties":{"source:modif":"Apidae (2017-11-21), in Opendata PACA"}},
{"type":"Feature","geometry":{"type":"Point","coordinates":[6.927334,44.794126]},"properties":{"source:modif":"Apidae (2017-11-21), in Opendata PACA"}},
{"type":"Feature","geometry":{"type":"Point","coordinates":[6.927136,44.794097]},"properties":{"source:modif":"Apidae (2017-11-21), in Opendata PACA"}},
{"type":"Feature","geometry":{"type":"Point","coordinates":[6.927347,44.794143]},"properties":{"source:modif":"Apidae (2017-11-21), in Opendata PACA"}},
{"type":"Feature","geometry":{"type":"Point","coordinates":[6.9302202,44.7963412]},"properties":{"historic":"wayside_shrine","name":"Oratoire"}},
{"type":"Feature","geometry":{"type":"Point","coordinates":[6.9866447,44.6956358]},"properties":{"ele":"2806","man_made":"cairn","mountain_pass":"yes","name":"Col Vieux","natural":"saddle","wikidata":"Q110927845","wikipedia":"fr:Col Vieux"}},
{"type":"Feature","geometry":{"type":"Point","coordinates":[6.9283008,44.794437]},"properties":{"amenity":"library","name":"Bibliothèque Multi-Média"}},
{"type":"Feature","geometry":{"type":"Point","coordinates":[6.9280518,44.794699]},"properties":{"historic":"wayside_cross","name":"Calvaire"}},
{"type":"Feature","geometry":{"type":"Point","coordinates":[6.9431213,44.8374437]},"properties":{"historic":"monument","name":"Arbre de la Liberté"}},
{"type":"Feature","geometry":{"type":"Point","coordinates":[6.9275749,44.7950008]},"properties":{"historic":"memorial","memorial":"war_memorial"}},
{"type":"Feature","geometry":{"type":"Point","coordinates":[6.9260972,44.794225]},"properties":{"historic":"monument"}},
{"type":"Feature","geometry":{"type":"Point","coordinates":[6.9239707,44.7941043]},"properties":{"historic":"wayside_cross"}},
{"type":"Feature","geometry":{"type":"Point","coordinates":[6.9959243,44.6903689]},"properties":{"historic":"wayside_cross","name":"Croix","source":"GPS"}},
{"type":"Feature","geometry":{"type":"Point","coordinates":[6.9982668,44.6980087]},"properties":{"ele":"2910","mountain_pass":"yes","name":"Brèche de Ruine","natural":"saddle","source":"GPS"}},
{"type":"Feature","geometry":{"type":"Point","coordinates":[7.0278812,44.7822536]},"properties":{"information":"guidepost","tourism":"information"}},
{"type":"Feature","geometry":{"type":"Point","coordinates":[6.9204827,44.6912842]},"properties":{"ele":"2701","hiking":"yes","information":"guidepost","name":"Col du Longet","tourism":"information"}},
{"type":"Feature","geometry":{"type":"Point","coordinates":[6.9204886,44.6912667]},"properties":{"ele":"2701","name":"Col du Longet","natural":"saddle"}},
{"type":"Feature","geometry":{"type":"Point","coordinates":[7.0232906,44.7645691]},"properties":{"ele":"2299","mountain_pass":"yes","name":"Col Lacroix / Colle della Croce","name:fr":"Col Lacroix","name:it":"Colle della Croce","natural":"saddle","wikidata":"Q3682779","wikipedia":"it:Colle della Croce"}},
{"type":"Feature","geometry":{"type":"Point","coordinates":[7.068297,44.7125697]},"properties":{"name":"Fonte Ordi","natural":"spring"}},
{"type":"Feature","geometry":{"type":"Point","coordinates":[7.0702167,44.7170127]},"properties":{"ele":"3019","mountain_pass":"yes","name":"Passo Luisàs","natural":"saddle"}},
{"type":"Feature","geometry":{"type":"Point","coordinates":[7.0680281,44.7126925]},"properties":{"board_type":"nature","information":"board","tourism":"information"}},
{"type":"Feature","geometry":{"type":"Point","coordinates":[7.0772873,44.8447683]},"properties":{"ele":"2730","name":"Monte Peigrò","natural":"peak"}},
{"type":"Feature","geometry":{"type":"Point","coordinates":[6.9314224,44.8644491]},"properties":{"ele":"3302","name":"Bric Froid/Punta Ramière","name:fr":"Bric Froid","name:it":"Punta Ramière","natural":"peak","summit:cross":"yes","wikidata":"Q1115794","wikipedia":"it:Punta Ramiere"}},
{"type":"Feature","geometry":{"type":"Point","coordinates":[7.0233619,44.821722]},"properties":{"ele":"2997","name":"Bric Bouchet / Bric Bucie","name:fr":"Bric Bouchet","name:it":"Bric Bucie","name:oc":"Brec Brochet","natural":"peak","source:name:oc":"ieo-bdtopoc","wikidata":"Q3644541","wikipedia":"it:Bric Bucie"}},
{"type":"Feature","geometry":{"type":"Point","coordinates":[7.022106,44.754898]},"properties":{"ele":"2675","name":"Monte Custassa / Praroussin","name:fr":"Praroussin","name:it":"Monte Custassa","natural":"peak","wikidata":"Q31634928"}},
{"type":"Feature","geometry":{"type":"Point","coordinates":[7.005844,44.7098843]},"properties":{"ele":"2818","natural":"peak"}},
{"type":"Feature","geometry":{"type":"Point","coordinates":[7.0409474,44.737461]},"properties":{"historic":"memorial","name":"Memoriale Patrol squadrone 23 U.S. Navy"}},
{"type":"Feature","geometry":{"type":"Point","coordinates":[6.9314155,44.864453]},"properties":{"historic":"wayside_cross"}},
{"type":"Feature","geometry":{"type":"Point","coordinates":[7.0594964,44.6896521]},"properties":{"information":"guidepost","tourism":"information"}},
{"type":"Feature","geometry":{"type":"Point","coordinates":[7.0492304,44.7073217]},"properties":{"ele":"2437","hiking":"yes","information":"guidepost","name":"Torrent de la Faïtou","tourism":"information"}},
{"type":"Feature","geometry":{"type":"Point","coordinates":[7.0497105,44.7081036]},"properties":{"ele":"2465","hiking":"yes","information":"guidepost","name":"Bergerie du Grand Vallon","tourism":"information"}},
{"type":"Feature","geometry":{"type":"Point","coordinates":[6.9427989,44.8369806]},"properties":{"historic":"ruins"}},
{"type":"Feature","geometry":{"type":"Point","coordinates":[6.9421632,44.8365526]},"properties":{"historic":"ruins"}},
{"type":"Feature","geometry":{"type":"Point","coordinates":[6.9424126,44.8371746]},"properties":{"historic":"ruins"}},
{"type":"Feature","geometry":{"type":"Point","coordinates":[6.959906,44.7962297]},"properties":{"ele":"2366","mountain_pass":"yes","name":"Collette de Gilly","natural":"saddle"}},
{"type":"Feature","geometry":{"type":"Point","coordinates":[6.9597397,44.7962254]},"properties":{"name":"Collette de Gilly","tourism":"viewpoint","wheelchair":"no"}},
{"type":"Feature","geometry":{"type":"Point","coordinates":[6.9935576,44.7600187]},"properties":{"email":"contact@gite-7degresest.com","name":"7 Degrés Est","phone":"+33 4 92 46 82 07","ref:refuges.info":"2191","tourism":"guest_house","website":"http://www.gite-7degresest.com/"}},
{"type":"Feature","geometry":{"type":"Point","coordinates":[6.9837659,44.7664395]},"properties":{"addr:city":"Ristolas","addr:postcode":"05460","email":"gite-de-la-monta@orange.fr","internet_access":"wlan","name":"Refuge de la Monta","phone":"+33 492201637","tourism":"alpine_hut","website":"https://www.refuge-queyras-la-monta.com/"}},
{"type":"Feature","geometry":{"type":"Point","coordinates":[6.953475,44.7724976]},"properties":{"email":"alpinoc@wanadoo.fr","name":"La Barma","phone":"+33 4 92 46 84 84","tourism":"guest_house","website":"http://www.alpinoc.com","wheelchair":"no"}},
{"type":"Feature","geometry":{"type":"Point","coordinates":[6.9573159,44.7735563]},"properties":{"fee":"yes","name":"L'Arche des Cimes","opening_hours":"Jul-Aug PH,Mo-Su 13:30-18:30","tourism":"museum","website":"https://www.pnr-queyras.fr/visiter-le-parc/item/patrimoine-culturel/larche-des-cimes/","wheelchair":"yes"}},
{"type":"Feature","geometry":{"type":"Point","coordinates":[7.0012621,44.842429]},"properties":{"ele":"3060","name":"Gran Queyron / Grand Queyron","name:fr":"Grand Queyron","name:it":"Gran Queyron","natural":"peak","wikidata":"Q3775482","wikipedia":"it:Grand Queyron"}},
{"type":"Feature","geometry":{"type":"Point","coordinates":[6.9586911,44.7989752]},"properties":{"ele":"2465","name":"Gilly","natural":"peak","summit:cross":"yes"}},
{"type":"Feature","geometry":{"type":"Point","coordinates":[6.9198718,44.8497681]},"properties":{"ele":"2795","mountain_pass":"yes","name":"Col des Thures / Colle di Thuras","name:fr":"Col des Thures","name:it":"Colle di Thuras","natural":"saddle"}},
{"type":"Feature","geometry":{"type":"Point","coordinates":[6.913105,44.7666141]},"properties":{"ele":"2866","name":"La Lauze","natural":"peak"}},
{"type":"Feature","geometry":{"type":"Point","coordinates":[6.9225518,44.7599963]},"properties":{"ele":"2866","name":"Sommet de la Querlaye","natural":"peak"}},
{"type":"Feature","geometry":{"type":"Point","coordinates":[6.9218148,44.7474354]},"properties":{"ele":"2783","name":"Pic Arnaudet","natural":"peak","wikidata":"Q31652981"}},
{"type":"Feature","geometry":{"type":"Point","coordinates":[6.923092,44.7546196]},"properties":{"ele":"2884","name":"Pic de Coni Borni","natural":"peak"}},
{"type":"Feature","geometry":{"type":"Point","coordinates":[6.9251868,44.7390873]},"properties":{"ele":"2912","name":"Pic du Fond de Peynin","natural":"peak","wikidata":"Q31644331"}},
{"type":"Feature","geometry":{"type":"Point","coordinates":[6.9237283,44.7385694]},"properties":{"ele":"2826","mountain_pass":"yes","name":"Col du Fond de Peynin","natural":"saddle"}},
{"type":"Feature","geometry":{"type":"Point","coordinates":[6.8914325,44.7413272]},"properties":{"ele":"2660","mountain_pass":"yes","name":"Pas du Clot du Loup","name:fr":"Pas du Chaï","natural":"saddle","note":"Maps report both names (Pas du Chaï and Pas du Clot du Loup) but the post report only Clot du Loup"}},
{"type":"Feature","geometry":{"type":"Point","coordinates":[7.0277969,44.8324119]},"properties":{"ele":"2819","man_made":"cross","name":"Gran Guglia","natural":"peak","wikidata":"Q16561593","wikipedia":"it:Gran Guglia"}},
{"type":"Feature","geometry":{"type":"Point","coordinates":[7.0066092,44.8398679]},"properties":{"ele":"2974","name":"Pointe Rasin","name:fr":"Pointe Rasin","natural":"peak"}},
{"type":"Feature","geometry":{"type":"Point","coordinates":[7.0089582,44.8298293]},"properties":{"alt_name:fr":"Col Saint-Martin","ele":"2659","mountain_pass":"yes","name":"Col d'Abriès / Col St. Martin","name:fr":"Col d'Abriès","name:it":"Colle San Martino","natural":"saddle"}},
{"type":"Feature","geometry":{"type":"Point","coordinates":[7.008401,44.8332841]},"properties":{"ele":"2684","name":"Col d'Abries Vieux / Col d'Abries Vecchio","name:fr":"Col Vieux","natural":"saddle"}},
{"type":"Feature","geometry":{"type":"Point","coordinates":[7.0250231,44.823217]},"properties":{"ele":"2939","name":"Pointe Fournas","name:fr":"Pointe Fournas","natural":"peak"}},
{"type":"Feature","geometry":{"type":"Point","coordinates":[7.0144896,44.8086051]},"properties":{"ele":"2622","name":"Pointe Giornivetta","name:fr":"Pointe Giornivetta","natural":"peak"}},
{"type":"Feature","geometry":{"type":"Point","coordinates":[7.0124205,44.8041894]},"properties":{"ele":"2536","mountain_pass":"yes","name":"Col de Malaure","natural":"saddle"}},
{"type":"Feature","geometry":{"type":"Point","coordinates":[7.0095017,44.8017845]},"properties":{"ele":"2697","name":"Pic de Malaure","name:fr":"Pic de Malaure","natural":"peak"}},
{"type":"Feature","geometry":{"type":"Point","coordinates":[7.0097592,44.7986706]},"properties":{"ele":"2804","name":"La Mait d'Amunt","name:fr":"La Mait d'Amunt","natural":"peak"}},
{"type":"Feature","geometry":{"type":"Point","coordinates":[6.999816,44.7900481]},"properties":{"ele":"2929","name":"Monte Palavas / Tête de Pelvas","name:fr":"Tête de Pelvas","name:it":"Monte Palavas","natural":"peak","wikidata":"Q3861809","wikipedia":"it:Monte Palavas"}},
{"type":"Feature","geometry":{"type":"Point","coordinates":[7.0117442,44.7838309]},"properties":{"ele":"2730","name":"Tête de Clos Lapierre","name:fr":"Tête de Clos Lapierre","natural":"peak"}},
{"type":"Feature","geometry":{"type":"Point","coordinates":[7.0236033,44.7475226]},"properties":{"ele":"2706","name":"Mont Arbancié","name:fr":"Mont Arbancié","natural":"peak"}},
{"type":"Feature","geometry":{"type":"Point","coordinates":[7.0299991,44.733791]},"properties":{"ele":"2662","name":"Col Pisset / Colle Vecchio","name:fr":"Col Pisset","name:it":"Colle Vecchio","natural":"saddle","place":"locality"}},
{"type":"Feature","geometry":{"type":"Point","coordinates":[7.0240076,44.7399552]},"properties":{"alt_name:fr":"Mont Capello","ele":"2838","name":"Pic du Rondet","name:fr":"Pic du Rondet","natural":"peak"}},
{"type":"Feature","geometry":{"type":"Point","coordinates":[7.0297397,44.7298801]},"properties":{"ele":"2869","name":"Sommet d'Olive","name:fr":"Sommet d'Olive","natural":"peak"}},
{"type":"Feature","geometry":{"type":"Point","coordinates":[7.0395877,44.719757]},"properties":{"ele":"2991","name":"Pic Traverse","name:fr":"Pic Traverse","natural":"peak"}},
{"type":"Feature","geometry":{"type":"Point","coordinates":[6.951375,44.7152712]},"properties":{"ele":"3114","name":"Le Grand Queyras","natural":"peak","wikidata":"Q31642477"}},
{"type":"Feature","geometry":{"type":"Point","coordinates":[6.9760058,44.7003031]},"properties":{"ele":"2970","natural":"peak","source":"survey"}},
{"type":"Feature","geometry":{"type":"Point","coordinates":[6.9767339,44.6906813]},"properties":{"board_type":"board","information":"board","tourism":"information"}},
{"type":"Feature","geometry":{"type":"Point","coordinates":[6.9714687,44.6907949]},"properties":{"entrance":"yes"}},
{"type":"Feature","geometry":{"type":"Point","coordinates":[6.9285894,44.7085918]},"properties":{"historic":"memorial","name":"Lieu de Mémoire"}},
{"type":"Feature","geometry":{"type":"Point","coordinates":[6.9997832,44.6902646]},"properties":{"ele":"3190","name":"Rocca Rossa","name:fr":"Rocca Rossa","name:it":"Rocca Rossa","natural":"peak","source":"Bing;gps","wikidata":"Q55832421"}},
{"type":"Feature","geometry":{"type":"Point","coordinates":[6.9105971,44.835432]},"properties":{"ele":"2915","name":"Pic de Clausis","natural":"peak"}},
{"type":"Feature","geometry":{"type":"Point","coordinates":[6.9132416,44.690061]},"properties":{"ele":"2630","hiking":"yes","information":"guidepost","name":"Traversier","tourism":"information"}},
{"type":"Feature","geometry":{"type":"Point","coordinates":[6.9742794,44.7006095]},"properties":{"ele":"2917","mountain_pass":"yes","name":"Col de L'Eychassier","natural":"saddle"}},
{"type":"Feature","geometry":{"type":"Point","coordinates":[6.9287519,44.7929695]},"properties":{"name":"Les Agnelets","tourism":"guest_house"}},
{"type":"Feature","geometry":{"type":"Point","coordinates":[7.0716609,44.696926499999999]},"properties":{"description":"Refuge du Viso 1h20'; Rifugio giacoletti 20'; Punta Venezia 30'; Punta Udine 20'","hiking":"yes","information":"guidepost","tourism":"information"}},
{"type":"Feature","geometry":{"type":"Point","coordinates":[6.928496,44.797914]},"properties":{"addr:city":"Abriès","addr:housename":"Gîte Ancolie bleue","addr:postcode":"05460","addr:street":"Chemin de la Sellette","name":"Ancolie bleue","phone":"+33 4 92 20 54 42","tourism":"alpine_hut","website":"http://ancolie-bleue-queyras.com"}},
{"type":"Feature","geometry":{"type":"Point","coordinates":[7.0492605,44.8301448]},"properties":{"ele":"2776","name":"Punta Fiunira","natural":"peak"}},
{"type":"Feature","geometry":{"type":"Point","coordinates":[6.8992566,44.7042186]},"properties":{"tourism":"viewpoint"}},
{"type":"Feature","geometry":{"type":"Point","coordinates":[7.0051316,44.7859478]},"properties":{"ele":"2597","name":"Collet du Pelvas","name:fr":"Collet du Pelvas","natural":"saddle","place":"locality","source":"Relevés terrain"}},
{"type":"Feature","geometry":{"type":"Point","coordinates":[6.9894328,44.8033227]},"properties":{"ele":"2551","name":"l'Eypiol","natural":"peak","source":"Survey + GPS","wikidata":"Q31639061"}},
{"type":"Feature","geometry":{"type":"Point","coordinates":[6.9282299,44.6884017]},"properties":{"ele":"2882","name":"Pic Traversier","natural":"peak"}},
{"type":"Feature","geometry":{"type":"Point","coordinates":[6.9446893,44.8586289]},"properties":{"ele":"2809","mountain_pass":"yes","name":"Col de la Fionière","natural":"saddle"}},
{"type":"Feature","geometry":{"type":"Point","coordinates":[7.0085668,44.6891404]},"properties":{"ele":"3170","name":"Pic Brusalana","natural":"peak"}},
{"type":"Feature","geometry":{"type":"Point","coordinates":[7.0285019,44.8319181]},"properties":{"name":"Colletto della Gran Guglia","natural":"saddle"}},
{"type":"Feature","geometry":{"type":"Point","coordinates":[6.927403,44.7925646]},"properties":{"leisure":"pitch","sport":"bmx"}},
{"type":"Feature","geometry":{"type":"Point","coordinates":[6.955656,44.8543135]},"properties":{"ele":"2706","mountain_pass":"yes","name":"Col Mayt","natural":"saddle"}},
{"type":"Feature","geometry":{"type":"Point","coordinates":[7.0756219,44.6967869]},"properties":{"destination":"Coulour del Porco h 0:40;Refugio Visò h 2:20;Punta Venezia h 1:30;Punta Udine h 1:10","hiking":"yes","information":"guidepost","tourism":"information"}},
{"type":"Feature","geometry":{"type":"Point","coordinates":[7.019837,44.8182158]},"properties":{"ele":"2626","mountain_pass":"yes","name":"Col Bouchet / Col Bucie","name:fr":"Col Bouchet","name:it":"Col Bucie","natural":"saddle"}},
{"type":"Feature","geometry":{"type":"Point","coordinates":[7.0489071,44.7165394]},"properties":{"ele":"2834","mountain_pass":"yes","name":"Col Sellière","name:fr":"Col Sellière","natural":"saddle"}},
{"type":"Feature","geometry":{"type":"Point","coordinates":[6.9356401,44.6875401]},"properties":{"ele":"2929","name":"Le Rouchon","natural":"peak","source":"survey"}},
{"type":"Feature","geometry":{"type":"Point","coordinates":[6.9253457,44.7954188]},"properties":{"denomination":"roman_catholic","historic":"wayside_shrine","name":"I. Station","religion":"christian","start_date":"1830","worship":"stations_of_the_cross"}},
{"type":"Feature","geometry":{"type":"Point","coordinates":[6.9252433,44.7953764]},"properties":{"denomination":"roman_catholic","historic":"wayside_shrine","name":"II. Station","religion":"christian","start_date":"1830","worship":"stations_of_the_cross"}},
{"type":"Feature","geometry":{"type":"Point","coordinates":[6.9250858,44.7953685]},"properties":{"denomination":"roman_catholic","historic":"wayside_shrine","name":"III. Station","religion":"christian","start_date":"1830","worship":"stations_of_the_cross"}},
{"type":"Feature","geometry":{"type":"Point","coordinates":[6.9249586,44.7953836]},"properties":{"denomination":"roman_catholic","historic":"wayside_shrine","name":"IV. Station","religion":"christian","start_date":"1830","worship":"stations_of_the_cross"}},
{"type":"Feature","geometry":{"type":"Point","coordinates":[6.924132,44.7953899]},"properties":{"denomination":"roman_catholic","historic":"wayside_shrine","name":"IX. Station","religion":"christian","start_date":"1830","worship":"stations_of_the_cross"}},
{"type":"Feature","geometry":{"type":"Point","coordinates":[6.9247966,44.7953764]},"properties":{"denomination":"roman_catholic","historic":"wayside_shrine","name":"V. Station","religion":"christian","start_date":"1830","worship":"stations_of_the_cross"}},
{"type":"Feature","geometry":{"type":"Point","coordinates":[6.9246807,44.795374]},"properties":{"denomination":"roman_catholic","historic":"wayside_shrine","name":"VI. Station","religion":"christian","start_date":"1830","worship":"stations_of_the_cross"}},
{"type":"Feature","geometry":{"type":"Point","coordinates":[6.9245569,44.7953709]},"properties":{"denomination":"roman_catholic","historic":"wayside_shrine","name":"VII. Station","religion":"christian","start_date":"1830","worship":"stations_of_the_cross"}},
{"type":"Feature","geometry":{"type":"Point","coordinates":[6.9243983,44.7953764]},"properties":{"denomination":"roman_catholic","historic":"wayside_shrine","name":"VIII. Station","religion":"christian","start_date":"1830","worship":"stations_of_the_cross"}},
{"type":"Feature","geometry":{"type":"Point","coordinates":[6.9240956,44.795414]},"properties":{"denomination":"roman_catholic","historic":"wayside_shrine","name":"X. Station","religion":"christian","start_date":"1830","worship":"stations_of_the_cross"}},
{"type":"Feature","geometry":{"type":"Point","coordinates":[6.9239448,44.7954411]},"properties":{"denomination":"roman_catholic","historic":"wayside_shrine","name":"XI. Station","religion":"christian","start_date":"1830","worship":"stations_of_the_cross"}},
{"type":"Feature","geometry":{"type":"Point","coordinates":[6.9238737,44.7954444]},"properties":{"denomination":"roman_catholic","historic":"wayside_shrine","name":"XII. Station","religion":"christian","start_date":"1830","worship":"stations_of_the_cross"}},
{"type":"Feature","geometry":{"type":"Point","coordinates":[6.9238046,44.7954634]},"properties":{"denomination":"roman_catholic","historic":"wayside_shrine","name":"XIII. Station","religion":"christian","start_date":"1830","worship":"stations_of_the_cross"}},
{"type":"Feature","geometry":{"type":"Point","coordinates":[6.9236761,44.7954418]},"properties":{"historic":"wayside_shrine","religion":"christian","start_date":"1830"}},
{"type":"Feature","geometry":{"type":"Point","coordinates":[6.9270109,44.790999]},"properties":{"ele":"1545","hiking":"yes","information":"guidepost","name":"Pont de Guillestre","operator":"PNR Queyras","tourism":"information"}},
{"type":"Feature","geometry":{"type":"Point","coordinates":[6.9317458,44.7863365]},"properties":{"ele":"1558","hiking":"yes","information":"guidepost","name":"Pont de Rubrent","operator":"PNR Queyras","tourism":"information"}},
{"type":"Feature","geometry":{"type":"Point","coordinates":[6.9294059,44.7956125]},"properties":{"natural":"spring"}},
{"type":"Feature","geometry":{"type":"Point","coordinates":[7.0041239,44.7941613]},"properties":{"historic":"boundary_stone","ref":"45"}},
{"type":"Feature","geometry":{"type":"Point","coordinates":[6.9519334,44.794667]},"properties":{"ele":"2140","hiking":"yes","information":"guidepost","name":"Montagne de Varenc","tourism":"information"}},
{"type":"Feature","geometry":{"type":"Point","coordinates":[6.969383,44.8121567]},"properties":{"historic":"memorial","inscription":"En espace / pour demain / a la gloire de Guillaume / Reynaud / prêtre / Blaise Joseph Reynaud / Dernier Syndic / Décédés tous deux accidentellement / par amour pour Valpreveyre / 28.juilllet/1948 - 14.juin.1951","name":"Un espace pour demain"}},
{"type":"Feature","geometry":{"type":"Point","coordinates":[6.9672198,44.8119276]},"properties":{"ele":"1850","hiking":"yes","information":"guidepost","name":"Valpreveyre","tourism":"information"}},
{"type":"Feature","geometry":{"type":"Point","coordinates":[6.9867736,44.7967961]},"properties":{"information":"guidepost","tourism":"information"}},
{"type":"Feature","geometry":{"type":"Point","coordinates":[6.9821145,44.7970412]},"properties":{"information":"guidepost","tourism":"information"}},
{"type":"Feature","geometry":{"type":"Point","coordinates":[6.9873835,44.7985662]},"properties":{"ele":"2280","information":"guidepost","name":"Bergerie sous Roche","tourism":"information"}},
{"type":"Feature","geometry":{"type":"Point","coordinates":[6.9599325,44.7961858]},"properties":{"ele":"2366","hiking":"yes","information":"guidepost","name":"Collette de Gilly","tourism":"information"}},
{"type":"Feature","geometry":{"type":"Point","coordinates":[6.9712541,44.8080609]},"properties":{"ele":"1910","hiking":"yes","information":"guidepost","name":"Torrent d'Urine","tourism":"information"}},
{"type":"Feature","geometry":{"type":"Point","coordinates":[6.9733696,44.797154]},"properties":{"information":"guidepost","tourism":"information"}},
{"type":"Feature","geometry":{"type":"Point","coordinates":[7.058188,44.7147596]},"properties":{"alt_name:fr":"Col Seillierino","ele":"2899","name":"Pas du Sellard / Passo Seillierino","name:fr":"Pas du Sellard","name:it":"Passo Seillierino","natural":"saddle"}},
{"type":"Feature","geometry":{"type":"Point","coordinates":[6.9446669,44.7859962]},"properties":{"historic":"ruins","name":"Le Varenc"}},
{"type":"Feature","geometry":{"type":"Point","coordinates":[6.9499442,44.7876281]},"properties":{"tourism":"viewpoint","wheelchair":"no"}},
{"type":"Feature","geometry":{"type":"Point","coordinates":[6.9496196,44.7883838]},"properties":{"tourism":"picnic_site"}},
{"type":"Feature","geometry":{"type":"Point","coordinates":[6.9407274,44.7879227]},"properties":{"historic":"ruins","name":"Le Petit Varenc"}},
{"type":"Feature","geometry":{"type":"Point","coordinates":[6.9941827,44.7103416]},"properties":{"ele":"3197","name":"Crete de la Taillante","natural":"peak"}},
{"type":"Feature","geometry":{"type":"Point","coordinates":[7.0379838,44.689291]},"properties":{"ele":"3145","name":"Mont Ruine / Monte Ruine","name:fr":"Mont Ruine","name:it":"Monte Ruine","natural":"peak"}},
{"type":"Feature","geometry":{"type":"Point","coordinates":[6.9706973,44.7193421]},"properties":{"ele":"2844","name":"Col du Clot du Poulain","natural":"saddle"}},
{"type":"Feature","geometry":{"type":"Point","coordinates":[6.9707708,44.7289464]},"properties":{"ele":"3002","name":"Le Sparveyre","natural":"peak","source":"survey"}},
{"type":"Feature","geometry":{"type":"Point","coordinates":[6.9709843,44.7456763]},"properties":{"ele":"2835","name":"Pic de Chabrière","natural":"peak","source":"survey","wikidata":"Q49753089"}},
{"type":"Feature","geometry":{"type":"Point","coordinates":[6.9680503,44.73929]},"properties":{"ele":"2990","name":"Pic Ségure","natural":"peak","source":"survey","wikidata":"Q49753141"}},
{"type":"Feature","geometry":{"type":"Point","coordinates":[6.9692999,44.7489986]},"properties":{"ele":"2754","name":"Pic de Maloqueste","natural":"peak","source":"survey","wikidata":"Q31638299"}},
{"type":"Feature","geometry":{"type":"Point","coordinates":[6.9909232,44.843789]},"properties":{"ele":"2997","name":"Tête de Frappier","name:fr":"Tête de Frappier","natural":"peak"}},
{"type":"Feature","geometry":{"type":"Point","coordinates":[7.0123831,44.804207]},"properties":{"name":"Col de Malaure 2536 m","tourism":"viewpoint"}},
{"type":"Feature","geometry":{"type":"Point","coordinates":[6.9062244,44.7713072]},"properties":{"ele":"2551","mountain_pass":"yes","name":"Col de la Lauze","natural":"saddle"}},
{"type":"Feature","geometry":{"type":"Point","coordinates":[6.9376974,44.7874603]},"properties":{"historic":"memorial","memorial":"stone","name":"Sietske"}},
{"type":"Feature","geometry":{"type":"Point","coordinates":[6.9757987,44.6895244]},"properties":{"leisure":"picnic_table"}},
{"type":"Feature","geometry":{"type":"Point","coordinates":[6.975967,44.689408]},"properties":{"leisure":"picnic_table"}},
{"type":"Feature","geometry":{"type":"Point","coordinates":[6.9689644,44.7067412]},"properties":{"ele":"3081","name":"Pic de Foréant","natural":"peak"}},
{"type":"Feature","geometry":{"type":"Point","coordinates":[6.9713522,44.7007642]},"properties":{"tourism":"viewpoint"}},
{"type":"Feature","geometry":{"type":"Point","coordinates":[6.9823144,44.7072945]},"properties":{"board_type":"geology","information":"board","name":"Le mystérieux glacier rocheux","tourism":"information"}},
{"type":"Feature","geometry":{"type":"Point","coordinates":[6.8976765,44.7892098]},"properties":{"locked":"no","was:barrier":"swing_gate"}},
{"type":"Feature","geometry":{"type":"Point","coordinates":[6.903778,44.7912191]},"properties":{"ele":"1550","information":"guidepost","name":"Alt.1550","tourism":"information"}},
{"type":"Feature","geometry":{"type":"Point","coordinates":[6.9054095,44.7914847]},"properties":{"ele":"1550","hiking":"yes","information":"guidepost","name":"Foret de Marassan","tourism":"information"}},
{"type":"Feature","geometry":{"type":"Point","coordinates":[6.9240233,44.7915913]},"properties":{"ele":"1560","historic":"wayside_shrine","religion":"christian"}},
{"type":"Feature","geometry":{"type":"Point","coordinates":[6.9953245,44.7383012]},"properties":{"name":"La Roche Écroulée","natural":"stone","place":"locality"}},
{"type":"Feature","geometry":{"type":"Point","coordinates":[6.9993693,44.7319564]},"properties":{"name":"Petit Belvedère du Viso","tourism":"viewpoint"}},
{"type":"Feature","geometry":{"type":"Point","coordinates":[7.0396599,44.7359283]},"properties":{"historic":"memorial"}},
{"type":"Feature","geometry":{"type":"Point","coordinates":[7.0409135,44.7375519]},"properties":{"information":"guidepost","tourism":"information"}},
{"type":"Feature","geometry":{"type":"Point","coordinates":[7.040116,44.7461801]},"properties":{"information":"guidepost","tourism":"information"}},
{"type":"Feature","geometry":{"type":"Point","coordinates":[7.0389497,44.7528417]},"properties":{"hiking":"yes","information":"guidepost","tourism":"information"}},
{"type":"Feature","geometry":{"type":"Point","coordinates":[7.0371981,44.7447247]},"properties":{"information":"guidepost","tourism":"information"}},
{"type":"Feature","geometry":{"type":"Point","coordinates":[7.0386505,44.7494089]},"properties":{"information":"guidepost","tourism":"information"}},
{"type":"Feature","geometry":{"type":"Point","coordinates":[6.9201136,44.7989128]},"properties":{"ele":"1790","hiking":"yes","information":"guidepost","name":"Le Villard","tourism":"information"}},
{"type":"Feature","geometry":{"type":"Point","coordinates":[6.9094157,44.801541]},"properties":{"ele":"2010","hiking":"yes","information":"guidepost","name":"Le Chatellard","tourism":"information"}},
{"type":"Feature","geometry":{"type":"Point","coordinates":[6.9106144,44.8014821]},"properties":{"ele":"2000","hiking":"yes","information":"guidepost","name":"Le Champ des Chèvres","tourism":"information"}},
{"type":"Feature","geometry":{"type":"Point","coordinates":[7.0260843,44.7439106]},"properties":{"ele":"2576","mountain_pass":"yes","name":"Col de Nalbert / Colle Vittona","name:fr":"Col de Nalbert","name:it":"Colle Vittona","natural":"saddle"}},
{"type":"Feature","geometry":{"type":"Point","coordinates":[7.0017322,44.8095635]},"properties":{"ele":"2230","hiking":"yes","information":"guidepost","name":"Malaure","tourism":"information"}},
{"type":"Feature","geometry":{"type":"Point","coordinates":[7.0116581,44.8142625]},"properties":{"ele":"2409","hiking":"yes","information":"guidepost","name":"Ravin du Bouchet","tourism":"information"}},
{"type":"Feature","geometry":{"type":"Point","coordinates":[7.0034677,44.7291791]},"properties":{"ele":"1930","hiking":"yes","information":"guidepost","name":"Le Pied des Lauzieres","tourism":"information"}},
{"type":"Feature","geometry":{"type":"Point","coordinates":[7.0011851,44.7298603]},"properties":{"information":"guidepost","tourism":"information"}},
{"type":"Feature","geometry":{"type":"Point","coordinates":[7.001,44.7301876]},"properties":{"ele":"1900","hiking":"yes","information":"guidepost","name":"Pre Michel","tourism":"information"}},
{"type":"Feature","geometry":{"type":"Point","coordinates":[6.9992861,44.7317078]},"properties":{"ele":"1894","hiking":"yes","information":"guidepost","name":"Petit Belvedère","tourism":"information"}},
{"type":"Feature","geometry":{"type":"Point","coordinates":[6.9272406,44.7941134]},"properties":{"contact:city":"Abriès","contact:email":"contact@chaletdelanza.fr","contact:phone":"+33 4 92 46 71 21","contact:postcode":"05460","contact:website":"http://www.chaletdelanza.fr","description:FR":"Cet hôtel** familial, vous ravira par sa situation idéale au coeur du village d'Abriès dans les Hautes-Alpes, son ambiance très cosy, sa convivialité au travers des propriétaires de l'établissement.","name":"Le Chalet de Lanza","opening_day":"Du 28/04 au 31/10, tous les jours.","ref:INSEE:city":"05001","source:modif":"Apidae (2017-11-21), in Opendata PACA","stars":"2","tourism":"hotel"}},
{"type":"Feature","geometry":{"type":"Point","coordinates":[7.066522,44.712136]},"properties":{"amenity":"shelter","board_type":"history","information":"board","shelter_type":"weather_shelter","tourism":"information"}},
{"type":"Feature","geometry":{"type":"Point","coordinates":[6.9826842,44.7053135]},"properties":{"ele":"2618","hiking":"yes","information":"guidepost","name":"Lac Foreant","operator":"PNR Queyras","tourism":"information"}},
{"type":"Feature","geometry":{"type":"Point","coordinates":[6.9773724,44.7904476]},"properties":{"ele":"2576","name":"La Lauzière","natural":"peak"}},
{"type":"Feature","geometry":{"type":"Point","coordinates":[6.9286765,44.7086764]},"properties":{"description":"Canal de Rouchas Frach 6.1km 1h50'; Le Coin 7km 2h10'; Col Agnel 6,5km 2h35'; Col Vieux 7km 2h50'","ele":"2235","hiking":"yes","information":"guidepost","name":"Notre Dame du Berceau","tourism":"information"}},
{"type":"Feature","geometry":{"type":"Point","coordinates":[6.9235368,44.7953497]},"properties":{"tourism":"picnic_site"}},
{"type":"Feature","geometry":{"type":"Point","coordinates":[6.9958081,44.691888]},"properties":{"ele":"3072","mountain_pass":"yes","natural":"saddle"}},
{"type":"Feature","geometry":{"type":"Point","coordinates":[6.995719,44.6923285]},"properties":{"ele":"3085","natural":"peak"}},
{"type":"Feature","geometry":{"type":"Point","coordinates":[6.9797895,44.6977872]},"properties":{"ele":"2968","name":"Sommet de la crête de l'Eychassier","natural":"peak"}},
{"type":"Feature","geometry":{"type":"Point","coordinates":[6.9198694,44.8497641]},"properties":{"hiking":"yes","information":"guidepost","tourism":"information"}},
{"type":"Feature","geometry":{"type":"Point","coordinates":[6.9505276,44.8503108]},"properties":{"hiking":"yes","information":"guidepost","tourism":"information"}},
{"type":"Feature","geometry":{"type":"Point","coordinates":[7.0190247,44.7628092]},"properties":{"denomination":"reformed","historic":"wayside_cross","name":"Rencontre du Col de la Croix","name:it":"Incontro del Colle della Croce","religion":"christian"}},
{"type":"Feature","geometry":{"type":"Point","coordinates":[6.9944125,44.7412181]},"properties":{"historic":"memorial"}},
{"type":"Feature","geometry":{"type":"Point","coordinates":[6.9947076,44.7384269]},"properties":{"natural":"stone"}},
{"type":"Feature","geometry":{"type":"Point","coordinates":[6.923593,44.7915512]},"properties":{"ele":"1560","hiking":"yes","information":"guidepost","name":"Forêt de Marassan","operator":"PNR Queyras","tourism":"information"}},
{"type":"Feature","geometry":{"type":"Point","coordinates":[6.9535788,44.7723132]},"properties":{"ele":"1640","hiking":"yes","information":"guidepost","name":"Les Maisons Neuves","tourism":"information"}},
{"type":"Feature","geometry":{"type":"Point","coordinates":[6.9925889,44.7573667]},"properties":{"ele":"1701","hiking":"yes","information":"guidepost","mtb":"yes","name":"L'Echalp","tourism":"information"}},
{"type":"Feature","geometry":{"type":"Point","coordinates":[7.0264517,44.7105197]},"properties":{"ele":"2055","information":"guidepost","name":"Razine","tourism":"information"}},
{"type":"Feature","geometry":{"type":"Point","coordinates":[7.0315586,44.708929]},"properties":{"ele":"2147","information":"guidepost","name":"Grand Belvedere","note":"L'altitude indiquée 2133m est erronée - Altitude réelle 2147m","tourism":"information"}},
{"type":"Feature","geometry":{"type":"Point","coordinates":[7.0314058,44.7091292]},"properties":{"ele":"2147","information":"guidepost","name":"Grand Belvedere","note":"L'altitude indiquée 2133m est erronée - Altitude réelle 2147m","tourism":"information"}},
{"type":"Feature","geometry":{"type":"Point","coordinates":[6.9476083,44.8153419]},"properties":{"ele":"1720","hiking":"yes","information":"guidepost","name":"Torrent du Bouchet","tourism":"information"}},
{"type":"Feature","geometry":{"type":"Point","coordinates":[6.9434975,44.8213342]},"properties":{"ele":"1740","information":"guidepost","name":"Le Roux - Les Mounets","tourism":"information"}},
{"type":"Feature","geometry":{"type":"Point","coordinates":[6.9412256,44.8272659]},"properties":{"ele":"1801","hiking":"yes","information":"guidepost","name":"La Levée","tourism":"information"}},
{"type":"Feature","geometry":{"type":"Point","coordinates":[6.9519384,44.8348157]},"properties":{"ele":"2075","hiking":"yes","information":"guidepost","name":"Ancien Canal","tourism":"information"}},
{"type":"Feature","geometry":{"type":"Point","coordinates":[6.943521,44.8189613]},"properties":{"hiking":"yes","information":"guidepost","tourism":"information"}},
{"type":"Feature","geometry":{"type":"Point","coordinates":[6.9062485,44.845093]},"properties":{"ele":"2924","mountain_pass":"yes","name":"Col de Rasis","name:fr":"Col de Rasis","natural":"saddle"}},
{"type":"Feature","geometry":{"type":"Point","coordinates":[6.906438,44.6970035]},"properties":{"ele":"2931","hiking":"yes","information":"guidepost","name":"Observatoire de Chateau Renard","tourism":"information"}},
{"type":"Feature","geometry":{"type":"Point","coordinates":[6.9035841,44.7188266]},"properties":{"ele":"2024","hiking":"yes","information":"guidepost","name":"Pont de Lariane","tourism":"information"}},
{"type":"Feature","geometry":{"type":"Point","coordinates":[6.9531591,44.7740478]},"properties":{"ele":"1610","hiking":"yes","information":"guidepost","name":"Pont sur le Segure","tourism":"information"}},
{"type":"Feature","geometry":{"type":"Point","coordinates":[6.9857466,44.7647476]},"properties":{"ele":"1670","hiking":"yes","information":"guidepost","name":"La Monta","tourism":"information"}},
{"type":"Feature","geometry":{"type":"Point","coordinates":[6.9988679,44.7356337]},"properties":{"ele":"1800","hiking":"yes","information":"guidepost","name":"La Roche Écroulée","tourism":"information"}},
{"type":"Feature","geometry":{"type":"Point","coordinates":[6.9030219,44.7867124]},"properties":{"ele":"1730","information":"guidepost","name":"Alt.1730m","tourism":"information"}},
{"type":"Feature","geometry":{"type":"Point","coordinates":[6.9421538,44.787447]},"properties":{"ele":"1830","hiking":"yes","information":"guidepost","name":"Ruines de Patarel","operator":"PNR Queyras","tourism":"information"}},
{"type":"Feature","geometry":{"type":"Point","coordinates":[6.9309949,44.7892439]},"properties":{"ele":"1555","hiking":"yes","information":"guidepost","name":"La Garcine","operator":"PNR Queyras","tourism":"information"}},
{"type":"Feature","geometry":{"type":"Point","coordinates":[6.936536,44.787382]},"properties":{"ele":"1660","hiking":"yes","information":"guidepost","name":"Reservoir de la garcine","operator":"PNR Queyras","tourism":"information"}},
{"type":"Feature","geometry":{"type":"Point","coordinates":[6.9530065,44.7829985]},"properties":{"ele":"1905","hiking":"yes","information":"guidepost","name":"Sous l'Étang de Moussou","operator":"PNR Queyras","tourism":"information"}},
{"type":"Feature","geometry":{"type":"Point","coordinates":[6.9397938,44.7868827]},"properties":{"natural":"spring"}},
{"type":"Feature","geometry":{"type":"Point","coordinates":[6.9401925,44.7867702]},"properties":{"natural":"spring"}},
{"type":"Feature","geometry":{"type":"Point","coordinates":[7.0090238,44.8298135]},"properties":{"ele":"2658","information":"guidepost","tourism":"information"}},
{"type":"Feature","geometry":{"type":"Point","coordinates":[6.9449648,44.8254028]},"properties":{"information":"board","tourism":"information"}},
{"type":"Feature","geometry":{"type":"Point","coordinates":[6.946155,44.8264513]},"properties":{"ele":"1944","information":"guidepost","name":"Pre Roubaud","tourism":"information"}},
{"type":"Feature","geometry":{"type":"Point","coordinates":[6.9448413,44.8178714]},"properties":{"information":"guidepost","tourism":"information"}},
{"type":"Feature","geometry":{"type":"Point","coordinates":[6.9449237,44.8253735]},"properties":{"ele":"1900","information":"guidepost","name":"Oratoire Saint-Joseph","tourism":"information"}},
{"type":"Feature","geometry":{"type":"Point","coordinates":[6.969054,44.8114923]},"properties":{"information":"board","tourism":"information"}},
{"type":"Feature","geometry":{"type":"Point","coordinates":[6.9657337,44.8346149]},"properties":{"information":"guidepost","tourism":"information"}},
{"type":"Feature","geometry":{"type":"Point","coordinates":[6.9908025,44.7570629]},"properties":{"ele":"1700","hiking":"yes","information":"guidepost","name":"L'Echalp les Fournays","tourism":"information"}},
{"type":"Feature","geometry":{"type":"Point","coordinates":[6.9914874,44.7539752]},"properties":{"ele":"1720","hiking":"yes","information":"guidepost","name":"Ravin Souches du Colombier","tourism":"information"}},
{"type":"Feature","geometry":{"type":"Point","coordinates":[6.929545,44.7901942]},"properties":{"natural":"tree"}},
{"type":"Feature","geometry":{"type":"Point","coordinates":[6.929817,44.7900322]},"properties":{"natural":"tree"}},
{"type":"Feature","geometry":{"type":"Point","coordinates":[6.9295717,44.7904976]},"properties":{"natural":"tree"}},
{"type":"Feature","geometry":{"type":"Point","coordinates":[6.929335,44.7901533]},"properties":{"natural":"tree"}},
{"type":"Feature","geometry":{"type":"Point","coordinates":[6.9292262,44.7901571]},"properties":{"natural":"tree"}},
{"type":"Feature","geometry":{"type":"Point","coordinates":[6.9291707,44.7902267]},"properties":{"natural":"tree"}},
{"type":"Feature","geometry":{"type":"Point","coordinates":[6.9290641,44.7902895]},"properties":{"natural":"tree"}},
{"type":"Feature","geometry":{"type":"Point","coordinates":[6.9289628,44.7903289]},"properties":{"natural":"tree"}},
{"type":"Feature","geometry":{"type":"Point","coordinates":[6.9288924,44.7904772]},"properties":{"natural":"tree"}},
{"type":"Feature","geometry":{"type":"Point","coordinates":[6.9290619,44.7905521]},"properties":{"natural":"tree"}},
{"type":"Feature","geometry":{"type":"Point","coordinates":[6.9289809,44.7905642]},"properties":{"natural":"tree"}},
{"type":"Feature","geometry":{"type":"Point","coordinates":[6.929014,44.790593]},"properties":{"natural":"tree"}},
{"type":"Feature","geometry":{"type":"Point","coordinates":[6.9294203,44.7907376]},"properties":{"natural":"tree"}},
{"type":"Feature","geometry":{"type":"Point","coordinates":[6.9293659,44.790761]},"properties":{"natural":"tree"}},
{"type":"Feature","geometry":{"type":"Point","coordinates":[6.9293382,44.7907966]},"properties":{"natural":"tree"}},
{"type":"Feature","geometry":{"type":"Point","coordinates":[6.9286748,44.7907073]},"properties":{"natural":"tree"}},
{"type":"Feature","geometry":{"type":"Point","coordinates":[6.9285362,44.7910373]},"properties":{"natural":"tree"}},
{"type":"Feature","geometry":{"type":"Point","coordinates":[6.9284466,44.7910403]},"properties":{"natural":"tree"}},
{"type":"Feature","geometry":{"type":"Point","coordinates":[6.9284957,44.7909941]},"properties":{"natural":"tree"}},
{"type":"Feature","geometry":{"type":"Point","coordinates":[6.9286887,44.7909563]},"properties":{"natural":"tree"}},
{"type":"Feature","geometry":{"type":"Point","coordinates":[6.9286802,44.7911175]},"properties":{"natural":"tree"}},
{"type":"Feature","geometry":{"type":"Point","coordinates":[6.9288689,44.7910418]},"properties":{"natural":"tree"}},
{"type":"Feature","geometry":{"type":"Point","coordinates":[6.9278355,44.7914625]},"properties":{"natural":"tree"}},
{"type":"Feature","geometry":{"type":"Point","coordinates":[6.9278239,44.7915369]},"properties":{"natural":"tree"}},
{"type":"Feature","geometry":{"type":"Point","coordinates":[6.9307091,44.789669]},"properties":{"natural":"tree"}},
{"type":"Feature","geometry":{"type":"Point","coordinates":[6.9035944,44.7482194]},"properties":{"leisure":"picnic_table"}},
{"type":"Feature","geometry":{"type":"Point","coordinates":[6.9534704,44.7827845]},"properties":{"leisure":"firepit"}},
{"type":"Feature","geometry":{"type":"Point","coordinates":[7.0517571,44.7003591]},"properties":{"ele":"2460","hiking":"yes","information":"guidepost","name":"Refuge du Viso","tourism":"information"}},
{"type":"Feature","geometry":{"type":"Point","coordinates":[7.0123133,44.790106]},"properties":{"natural":"spring"}},
{"type":"Feature","geometry":{"type":"Point","coordinates":[7.0218658,44.7635758]},"properties":{"ele":"2285","hiking":"yes","information":"guidepost","name":"Carrefour sous le col","tourism":"information"}},
{"type":"Feature","geometry":{"type":"Point","coordinates":[7.065432,44.7120824]},"properties":{"description":"entrée/sortie du tunnel","ele":"2882","name":"Buco di Viso","natural":"cave_entrance"}},
{"type":"Feature","geometry":{"type":"Point","coordinates":[6.961167,44.8557957]},"properties":{"information":"guidepost","tourism":"information"}},
{"type":"Feature","geometry":{"type":"Point","coordinates":[6.9606338,44.8560216]},"properties":{"information":"guidepost","tourism":"information"}},
{"type":"Feature","geometry":{"type":"Point","coordinates":[6.9858563,44.7974709]},"properties":{"natural":"rock"}},
{"type":"Feature","geometry":{"type":"Point","coordinates":[6.9694706,44.8066263]},"properties":{"ele":"2000","information":"guidepost","name":"Bois Noir","tourism":"information"}},
{"type":"Feature","geometry":{"type":"Point","coordinates":[6.9666945,44.8120515]},"properties":{"ele":"1850","information":"guidepost","name":"Valpreveyre","tourism":"information"}},
{"type":"Feature","geometry":{"type":"Point","coordinates":[7.0111444,44.7904376]},"properties":{"natural":"spring"}},
{"type":"Feature","geometry":{"type":"Point","coordinates":[6.9438299,44.8147357]},"properties":{"ele":"1775","information":"guidepost","tourism":"information"}},
{"type":"Feature","geometry":{"type":"Point","coordinates":[6.9452783,44.8110614]},"properties":{"ele":"1950","information":"guidepost","name":"Bois de La Brune","tourism":"information"}},
{"type":"Feature","geometry":{"type":"Point","coordinates":[6.9668513,44.799883]},"properties":{"ele":"2195","information":"guidepost","name":"Clot de Besseys","tourism":"information"}},
{"type":"Feature","geometry":{"type":"Point","coordinates":[6.9581033,44.7733703]},"properties":{"addr:postcode":"05460","name":"Le Fontenil","tourism":"alpine_hut"}},
{"type":"Feature","geometry":{"type":"Point","coordinates":[6.8988987,44.7199888]},"properties":{"ele":"2015","historic":"wayside_shrine","religion":"christian"}},
{"type":"Feature","geometry":{"type":"Point","coordinates":[6.9970192,44.7360149]},"properties":{"ele":"1790","hiking":"yes","information":"guidepost","name":"La Roche Ecroulée","tourism":"information"}},
{"type":"Feature","geometry":{"type":"Point","coordinates":[6.9836967,44.7645058]},"properties":{"ele":"1663","information":"guidepost","name":"La Monta","tourism":"information"}},
{"type":"Feature","geometry":{"type":"Point","coordinates":[6.9812344,44.7654295]},"properties":{"ele":"1665","information":"guidepost","name":"Les Plates","tourism":"information"}},
{"type":"Feature","geometry":{"type":"Point","coordinates":[6.9593262,44.7728255]},"properties":{"ele":"1610","hiking":"yes","information":"guidepost","name":"Ristolas Les Ayres","note":"Altitude inscrite 1628m","tourism":"information"}},
{"type":"Feature","geometry":{"type":"Point","coordinates":[7.0280485,44.8164812]},"properties":{"natural":"spring"}},
{"type":"Feature","geometry":{"type":"Point","coordinates":[7.0489748,44.7165774]},"properties":{"information":"guidepost","tourism":"information"}},
{"type":"Feature","geometry":{"type":"Point","coordinates":[6.9113463,44.7114396]},"properties":{"leaf_cycle":"evergreen","natural":"tree"}},
{"type":"Feature","geometry":{"type":"Point","coordinates":[6.91134,44.7114032]},"properties":{"bench":"yes","leisure":"picnic_table","lit":"no","material":"wood"}},
{"type":"Feature","geometry":{"type":"Point","coordinates":[6.9611752,44.8558945]},"properties":{"natural":"spring"}},
{"type":"Feature","geometry":{"type":"Point","coordinates":[6.9840566,44.7965406]},"properties":{"natural":"spring"}},
{"type":"Feature","geometry":{"type":"Point","coordinates":[6.9654661,44.7971587]},"properties":{"natural":"spring"}},
{"type":"Feature","geometry":{"type":"Point","coordinates":[6.9759194,44.6891361]},"properties":{"ele":"2620","hiking":"yes","information":"guidepost","name":"Sentier de Déembulation","operator":"PNR Queyras","tourism":"information"}},
{"type":"Feature","geometry":{"type":"Point","coordinates":[7.032873,44.7089325]},"properties":{"ele":"2160","information":"guidepost","name":"La Gardiole","tourism":"information"}},
{"type":"Feature","geometry":{"type":"Point","coordinates":[6.9744444,44.6883518]},"properties":{"ele":"2605","hiking":"yes","information":"guidepost","name":"Riou de Clot l'Agnel","tourism":"information"}},
{"type":"Feature","geometry":{"type":"Point","coordinates":[7.076457,44.7018244]},"properties":{"information":"guidepost","tourism":"information"}},
{"type":"Feature","geometry":{"type":"Point","coordinates":[6.9398182,44.8079929]},"properties":{"ele":"1870","information":"guidepost","name":"Route Forestière","tourism":"information"}},
{"type":"Feature","geometry":{"type":"Point","coordinates":[6.9434903,44.699724]},"properties":{"ele":"2260","hiking":"yes","information":"guidepost","name":"Canal de Rouchas Frach","tourism":"information"}},
{"type":"Feature","geometry":{"type":"Point","coordinates":[7.0182882,44.8249033]},"properties":{"ele":"2737","hiking":"yes","information":"guidepost","name":"Col de Valpreveyre","tourism":"information"}},
{"type":"Feature","geometry":{"type":"Point","coordinates":[7.0040836,44.7941502]},"properties":{"ele":"2525","hiking":"yes","information":"guidepost","name":"Col d'Urine","tourism":"information"}},
{"type":"Feature","geometry":{"type":"Point","coordinates":[6.9257091,44.793972]},"properties":{"leisure":"pitch","sport":"table_tennis"}},
{"type":"Feature","geometry":{"type":"Point","coordinates":[6.9256682,44.794021]},"properties":{"leisure":"pitch","sport":"table_tennis"}},
{"type":"Feature","geometry":{"type":"Point","coordinates":[6.9808835,44.7254131]},"properties":{"ele":"2394","hiking":"yes","information":"guidepost","name":"Lac Égorgéou","tourism":"information"}},
{"type":"Feature","geometry":{"type":"Point","coordinates":[6.9765785,44.6907533]},"properties":{"ele":"2630","hiking":"yes","information":"guidepost","name":"Parking Col Vieux","operator":"PNR Queyras","tourism":"information"}},
{"type":"Feature","geometry":{"type":"Point","coordinates":[6.9765973,44.6907485]},"properties":{"information":"map","map_type":"topo","tourism":"information"}},
{"type":"Feature","geometry":{"type":"Point","coordinates":[6.9540143,44.7720753]},"properties":{"leisure":"picnic_table"}},
{"type":"Feature","geometry":{"type":"Point","coordinates":[6.9148138,44.7152218]},"properties":{"bench":"yes","leisure":"picnic_table","material":"wood"}},
{"type":"Feature","geometry":{"type":"Point","coordinates":[6.9758719,44.6929455]},"properties":{"ele":"2645","hiking":"yes","information":"guidepost","name":"Passerelle de l'Eychassier","operator":"PNR Queyras","tourism":"information"}},
{"type":"Feature","geometry":{"type":"Point","coordinates":[6.9712034,44.6920403]},"properties":{"ele":"2585","hiking":"yes","information":"guidepost","name":"Refuge Napoléon","ref":"PNR Queyras","tourism":"information"}},
{"type":"Feature","geometry":{"type":"Point","coordinates":[6.9720731,44.6909879]},"properties":{"ele":"2580","hiking":"yes","information":"guidepost","name":"Refuge Agnel","operator":"PNR Queyras","tourism":"information"}},
{"type":"Feature","geometry":{"type":"LineString","coordinates":[[7.065278,44.713755],[7.0656338,44.713641],[7.0657785,44.7136039],[7.0658709,44.7134924],[7.0660076,44.7133224],[7.0661668,44.7129052],[7.066361,44.7123963],[7.0664743,44.7120954],[7.0664327,44.7115565],[7.0663745,44.7107838],[7.0663188,44.7106704],[7.0660688,44.7101666],[7.0658934,44.7100113],[7.0657971999999999,44.7099262],[7.0653888,44.7095655],[7.0653079,44.7086226],[7.0652341,44.708296],[7.0652277,44.7082663],[7.0663953,44.7071347],[7.0668854,44.7062125],[7.0671514,44.7056156],[7.0674672,44.7051735],[7.0676137,44.7049646],[7.0675416,44.7041113],[7.0674461,44.7037105],[7.0677006,44.7029454],[7.0679483,44.7022009],[7.0683806,44.7019129],[7.0691338,44.7017961],[7.0695012,44.7017387],[7.0701117,44.7014883],[7.0707549,44.700874],[7.0709107,44.7000786],[7.0709309,44.6999659],[7.0710036,44.6984306],[7.0709795,44.6981619],[7.071253,44.6976532],[7.0718447,44.697178],[7.0719754,44.6969008],[7.0721652,44.6964882],[7.0723524,44.6962984],[7.0725843,44.6960633],[7.0731798,44.6956332],[7.0732483,44.6949552],[7.0733113,44.6948238],[7.0733552,44.6947253],[7.0732637,44.6943166],[7.0732517,44.6942647],[7.0731522,44.6938342],[7.0734809,44.6932323],[7.0739745,44.6927113],[7.0741887,44.6924822],[7.0751407,44.6910441],[7.0754134,44.6905369],[7.075561,44.6903349],[7.0755967,44.6902404],[7.0756498,44.6899872],[7.0756838,44.6898498],[7.0756033,44.6894869],[7.0755831,44.689402],[7.075533,44.6893298],[7.0749344,44.6884404],[7.0747537,44.6878173],[7.0747337,44.6875498],[7.0752182,44.6870239],[7.0752821,44.6869994],[7.0752806,44.686896],[7.0754588,44.6862994],[7.0754886,44.6858259],[7.0755128,44.6854409],[7.0754996,44.6845413],[7.0761248,44.6835683],[7.0762056,44.6832491],[7.076407,44.6824293],[7.0764386,44.682409],[7.0768252,44.6821415],[7.0770354,44.6816597],[7.0771437,44.6814074],[7.0771286,44.6809196]]},"properties":{"admin_level":"2","boundary":"administrative","name":"France - Italia","name:ar":"إيطاليا - فرنسا","name:de":"Frankreich - Italien","name:en":"France - Italy","name:fr":"France - Italie","name:it":"Francia - Italia","name:oc":"França - Itàlia","name:ru":"Франция - Италия","name:sl":"Francija - Italija","source":"Inventaire National du Patrimoine Naturel 2010"}},
{"type":"Feature","geometry":{"type":"LineString","coordinates":[[6.9507997,44.8052999],[6.9521658,44.805294],[6.9536675,44.8052311],[6.9547422,44.805067],[6.9545999,44.8043578],[6.9540623,44.8036425],[6.9522057,44.8028702],[6.9522175,44.8023664],[6.9541645,44.801058],[6.9542895,44.8009669],[6.9559993,44.8003795],[6.957441,44.801259],[6.9576275,44.8014895],[6.9579955,44.8018913],[6.9590506,44.8025026],[6.9600074,44.8019262],[6.9605226,44.8010702],[6.9612142,44.8010935],[6.96197,44.8017297],[6.9629523,44.802273],[6.9654254,44.8010002],[6.9651158,44.8004104],[6.9648685,44.799939],[6.9642294,44.7992991],[6.9629111,44.7989366],[6.9621623,44.7983846],[6.963452,44.7975442],[6.9659834,44.798879],[6.9662519,44.7990206],[6.9677015,44.7979546],[6.9680147,44.7983057],[6.9696493,44.798237],[6.9698072,44.7987304],[6.9709615,44.7985152],[6.9710697,44.7975367],[6.9710653,44.7975117],[6.9710914,44.7972585],[6.9735096,44.7967391],[6.9737981,44.7973948],[6.9741303,44.7975119],[6.9746429,44.7976926],[6.974788,44.798021],[6.9751385,44.7994242],[6.976686,44.7995639],[6.977028,44.7995948],[6.9774187,44.7986616],[6.9778446,44.7981425],[6.9788883,44.7980152],[6.9790157,44.7981224],[6.9796443,44.7986512],[6.9806887,44.7985239],[6.9815881,44.7980682],[6.9828647,44.7975119],[6.9832848,44.7973289],[6.9848364,44.7962622],[6.9853246,44.7964928],[6.9855104,44.7973195],[6.98514,44.7975118],[6.9839379,44.7981359],[6.9842266,44.7987916],[6.9852634,44.7985812],[6.9864245,44.7984489],[6.9878327,44.7984729],[6.9878742,44.7989712],[6.9876963,44.7996466],[6.9864254,44.7998668],[6.9845704,44.8001117],[6.9838422,44.799809],[6.9821937,44.7997118],[6.9791162,44.8007592],[6.97874,44.8032776],[6.9798317,44.8038057],[6.9815251,44.8029888],[6.9830755,44.8025063],[6.9842088,44.8020414],[6.9862745,44.8017159],[6.9883989,44.80109],[6.9899393,44.8004886],[6.9906795,44.799325],[6.9915822,44.7991081],[6.9954191,44.7989461],[6.9986912,44.7993025],[6.9996076,44.7991436],[7.0012353,44.7989914],[7.0016009,44.7987465],[7.0019012,44.7985454],[7.0036741,44.7987215],[7.0058233,44.797796],[7.0051753,44.7974906],[7.0049441,44.7972915],[7.0026187,44.796239],[7.0043512,44.7956058],[7.0031711,44.7948088],[7.0017768,44.7949512],[7.0003607,44.7957043],[6.9996129,44.7955954],[6.9976388,44.7959479],[6.9958364,44.795552],[6.9942013,44.7955375],[6.9929919,44.7949891],[6.9925858,44.7943383],[6.9916381,44.7942117],[6.9906904,44.794085],[6.9891863,44.7943151],[6.9883269,44.7938513],[6.9881687,44.7933568],[6.9869227,44.7931706],[6.9853841,44.7929855],[6.9851845,44.7919926],[6.9850739,44.7906627],[6.9857261,44.7900507],[6.9856778,44.7894693],[6.9861994,44.7886962],[6.9857796,44.7878793],[6.9844268,44.7871018],[6.9849547,44.7864128],[6.9849961,44.7854932],[6.9846039,44.7850086],[6.9823886,44.7843271],[6.9823472,44.7852467],[6.9815439,44.7854472],[6.9801291,44.7853401],[6.9800601,44.7845085],[6.9792085,44.7841276],[6.9783907,44.7827442],[6.9776419,44.7821912],[6.9763714,44.7824113],[6.9748676,44.7826413],[6.9749159,44.7832238],[6.9763721,44.7838303],[6.9766467,44.7843188],[6.9760634,44.7857613],[6.9746349,44.785488],[6.9731994,44.7851317],[6.9726029,44.7851568],[6.9728604,44.7860875],[6.9722219,44.7868655],[6.9724213,44.7878584],[6.9733081,44.7886545],[6.973446,44.7903177],[6.9722236,44.7911203],[6.9709045,44.7907579],[6.9699016,44.7913846],[6.9692492,44.7919965],[6.9690302,44.7935903],[6.9675123,44.7936541],[6.9670037,44.7931754],[6.9658082,44.7928911],[6.9644621,44.7936154],[6.9626355,44.7941921],[6.9618662,44.793391],[6.9642078,44.791957],[6.9636931,44.7913953],[6.9625936,44.7908569],[6.9631295,44.790251],[6.9647432,44.7899321],[6.9651279,44.7889148],[6.9669412,44.7881719],[6.9685893,44.7882694],[6.9686233,44.7872668],[6.967085,44.7870813],[6.9667029,44.7859047],[6.9641341,44.7860126],[6.9635299,44.7872058],[6.9631185,44.7878909],[6.9624248,44.7880034],[6.9615247,44.7884589],[6.9602739,44.7884053],[6.9583101,44.7877169],[6.9578086,44.7882637],[6.9605943,44.7895642],[6.9602019,44.7903732],[6.9594778,44.790652],[6.9589741,44.7909481],[6.9571092,44.7912404],[6.9544833,44.7914759],[6.9553856,44.7922436],[6.9562783,44.793124],[6.9555607,44.7936552],[6.9545094,44.7936993],[6.9537607,44.794564],[6.953362,44.7954152],[6.9529504,44.7961003],[6.9523801,44.7962909],[6.9511847,44.7960075],[6.9498108,44.7963984],[6.950005,44.7960537],[6.9494811,44.7959538],[6.9498167,44.7975346],[6.9500153,44.7978177],[6.9501232,44.798573],[6.9522051,44.7991642],[6.9528009,44.7995673],[6.9532478,44.8007323],[6.9525678,44.8012876],[6.9516007,44.8017084],[6.9514942,44.8023793],[6.9509614,44.8029527],[6.9504366,44.8032357],[6.9500206,44.8032811],[6.9499647,44.8033689],[6.9498692,44.8035188],[6.9496976,44.8037882],[6.9498301,44.8043786],[6.9505276,44.8052521],[6.9500488,44.8060237],[6.9494909,44.8063662],[6.9482946,44.8065641],[6.948359,44.8077668],[6.947844,44.8079191],[6.9477367,44.808528],[6.9466209,44.8087107],[6.9464707,44.8091978],[6.9454622,44.8092739],[6.9448828,44.8100351],[6.9449901,44.8102939],[6.9443893,44.8108115],[6.9442606,44.8112073],[6.9443464,44.8117553],[6.9445181,44.8128056],[6.9446468,44.8132775],[6.9430804,44.8135515],[6.9428965,44.8137101],[6.9428658,44.8140082],[6.9438314,44.8149063],[6.9441372,44.8146627],[6.9433808,44.8139245],[6.9440031,44.8137456],[6.9449687,44.8136809],[6.9453067,44.8133232],[6.9453871,44.8130302],[6.9448453,44.8122234],[6.9449472,44.8118885],[6.9448292,44.8116563],[6.9449741,44.8113329],[6.9449419,44.8110703],[6.9455373,44.8105755],[6.9455802,44.8100693],[6.9457358,44.809685],[6.9462615,44.809548],[6.9468141,44.8095365],[6.947093,44.8091674],[6.9471896,44.8089771],[6.9481713,44.8087259],[6.9482195,44.8082197],[6.9488633,44.8080599],[6.9487345,44.8067963],[6.9497918,44.8065051],[6.9500112,44.8063205],[6.9503117,44.8060655],[6.9507997,44.8052999]]},"properties":{"CLC:code":"321","CLC:id":"FR-185168","CLC:year":"2006","natural":"grassland","source":"Union européenne - SOeS, CORINE Land Cover, 2006."}},
{"type":"Feature","geometry":{"type":"LineString","coordinates":[[6.955257,44.7880342],[6.9547843,44.787278],[6.9540231,44.7869527],[6.9547229,44.7849295],[6.9535821,44.7837421],[6.9531133,44.7827749],[6.9541297,44.7823016],[6.9547877,44.7820663],[6.9542873,44.7829842],[6.9558229,44.7837168],[6.9575394,44.7825545],[6.9583992,44.7819181],[6.9592747,44.7818392],[6.9594366,44.7798401],[6.9602503,44.7797143],[6.9608452,44.7797135],[6.9619414,44.7803162],[6.962801,44.7799347],[6.9638315,44.7793577],[6.9642533,44.7793996],[6.9657053,44.7797558],[6.9659997,44.7802798],[6.9668877,44.7808981],[6.9678393,44.7812753],[6.969252,44.7811564],[6.970125,44.7805833],[6.9707382,44.7809151],[6.9711945,44.7813727],[6.9723179,44.7818022],[6.973181,44.7811104],[6.9741912,44.780174],[6.9737447,44.7798352],[6.9731952,44.7792623],[6.9718413,44.7790809],[6.9711546,44.7788714],[6.9696733,44.779172],[6.9683244,44.7790499],[6.9665928,44.7783479],[6.9653421,44.7784004],[6.9641322,44.7775918],[6.9645793,44.7772331],[6.9658429,44.77693],[6.9655616,44.7763584],[6.966255,44.7762448],[6.968459,44.7759856],[6.9699833,44.7760049],[6.9713157,44.7765334],[6.9718304,44.7770962],[6.9721263,44.7778338],[6.9729503,44.7778825],[6.9737397,44.777516],[6.9734169,44.776445],[6.9728464,44.7752178],[6.9727912,44.7745522],[6.9744182,44.7744005],[6.9745699,44.7762298],[6.9750715,44.7766254],[6.9753875,44.7776133],[6.9761431,44.7782494],[6.9775439,44.7781904],[6.9774612,44.7771927],[6.9783541,44.7766539],[6.9799743,44.776419],[6.9805098,44.7758131],[6.9799321,44.7745017],[6.9804745,44.7739788],[6.981477,44.7733521],[6.9808104,44.7723789],[6.9818123,44.7717533],[6.9840582,44.77341],[6.9839149,44.7745006],[6.9839771,44.7752491],[6.9833113,44.775695],[6.9836619,44.7770982],[6.984212,44.7780762],[6.9854072,44.7783592],[6.987069,44.7786236],[6.9882711,44.7789896],[6.9889312,44.7812987],[6.9875994,44.7821883],[6.988098,44.7831347],[6.9893611,44.7830149],[6.9895331,44.7822981],[6.9905842,44.7822538],[6.991017,44.7832367],[6.9925354,44.7831726],[6.9924574,44.7822364],[6.9906433,44.7807918],[6.9907663,44.7803844],[6.9906058,44.7804047],[6.9897947,44.7791044],[6.9892453,44.7781263],[6.9885172,44.7778237],[6.9869437,44.7772222],[6.9860921,44.7768403],[6.9852268,44.7762934],[6.9855083,44.775447],[6.9862086,44.7754175],[6.9876509,44.7758578],[6.9876914,44.7749382],[6.9871966,44.7746246],[6.9869081,44.77397],[6.9858157,44.7735149],[6.9865773,44.772815],[6.9893105,44.7732841],[6.9904365,44.7727366],[6.9919814,44.7730047],[6.9926679,44.772809],[6.9916167,44.7714344],[6.9913344,44.7708629],[6.9903524,44.7703198],[6.9876264,44.7699348],[6.9872462,44.769064],[6.984739,44.7695927],[6.9830218,44.7692996],[6.9817917,44.7697803],[6.9804492,44.7716554],[6.9783688,44.771993],[6.9752584,44.7726251],[6.9735079,44.7726987],[6.9711729,44.7727969],[6.9701062,44.7726331],[6.9690374,44.7724689],[6.9666004,44.7727391],[6.9638471,44.773438],[6.9614039,44.7738654],[6.9589896,44.7742574],[6.9568143,44.7746129],[6.954948,44.7752487],[6.9528763,44.7759981],[6.951628,44.7762266],[6.9506021,44.7763756],[6.9485872,44.7766624],[6.9475449,44.7768749],[6.9457419,44.7775213],[6.9477867,44.7789627],[6.9490846,44.7804929],[6.9476288,44.781305],[6.9469626,44.7817496],[6.9470586,44.7829145],[6.9484595,44.7842738],[6.9477102,44.7851397],[6.9459662,44.7838769],[6.9451424,44.7824102],[6.9433163,44.7815686],[6.9424434,44.782356299999999],[6.9412696,44.7823219],[6.9407473,44.7830938],[6.941386,44.783735],[6.9406229,44.7844347],[6.9377141,44.7834851],[6.9370724,44.7839984],[6.9367125,44.7846522],[6.937175,44.7852453],[6.936097,44.7863759],[6.9361448,44.7869573],[6.9360065,44.7881309],[6.9366315,44.788606],[6.9378267,44.7888895],[6.9385596,44.7886028],[6.941048,44.7885551],[6.941684,44.7887353],[6.9411605,44.7906713],[6.941907,44.7911134],[6.9438918,44.7908778],[6.9433282,44.7888265],[6.9441223,44.7888669],[6.9450068,44.7885801],[6.9455662,44.7887125],[6.9456907,44.7890622],[6.9445502,44.7894433],[6.9447281,44.7910378],[6.9454069,44.791211],[6.9457517,44.7914963],[6.9466366,44.7914246],[6.9474943,44.7915736],[6.9476484,44.7910693],[6.9483356,44.7910843],[6.9484492,44.7915717],[6.9491499,44.7916365],[6.9496412,44.7915795],[6.949841,44.7901587],[6.9504996,44.7898434],[6.9503545,44.7887839],[6.9500569,44.7885885],[6.9514163,44.7876231],[6.9521016,44.78812],[6.9531286,44.7877617],[6.9542383,44.7881043],[6.955257,44.7880342]]},"properties":{"CLC:code":"321","CLC:id":"FR-185730","CLC:year":"2006","natural":"grassland","source":"Union européenne - SOeS, CORINE Land Cover, 2006., bing"}},
{"type":"Feature","geometry":{"type":"LineString","coordinates":[[7.0561096,44.7813741],[7.057734,44.7811987],[7.0598886,44.7803551],[7.0609227,44.778725],[7.0621085,44.7775062],[7.0634389,44.7766146],[7.0659369,44.775674],[7.0675848,44.77577],[7.0694807,44.776022],[7.0717053,44.7760098],[7.073718,44.7762579],[7.0756272,44.7766759],[7.0766179,44.7773012],[7.078075,44.7779053],[7.0797582,44.7784175],[7.0810918,44.7789447],[7.0818768,44.7799122],[7.0822689,44.7803954],[7.0834647,44.7806773],[7.0849641,44.7807828],[7.0858381,44.7762331],[7.082712,44.7770945],[7.0803811,44.7745071],[7.081457,44.7722521],[7.0831938,44.7716378],[7.0829553,44.7711186],[7.081853,44.7703339],[7.0814546,44.7698898],[7.0804303,44.7695607],[7.0788824,44.7694977],[7.0776052,44.7689139],[7.0761484,44.7683098],[7.0749177,44.7676115],[7.0742706,44.766888],[7.0737339,44.7660765],[7.0726902,44.7662047],[7.0713251,44.7666812],[7.0701656,44.7668143],[7.0689702,44.7665323],[7.0682067,44.7658138],[7.0680619,44.7654855],[7.0684438,44.7644679],[7.068271,44.7638085],[7.0668706,44.7638686],[7.0650954,44.7650294],[7.0641402,44.7648204],[7.0637412,44.7642529],[7.0643782,44.7634744],[7.0653859,44.7629311],[7.0669028,44.762866],[7.0674231,44.7620924],[7.0683964,44.7611327],[7.0683472,44.7605514],[7.0658793,44.7590715],[7.066064,44.758479],[7.0671459,44.7574313],[7.0691297,44.7573461],[7.0708874,44.757354],[7.07211,44.7579693],[7.0734641,44.7587457],[7.0746734,44.7591938],[7.0782323,44.7590408],[7.0781266,44.757794],[7.0770346,44.7573409],[7.0759558,44.7570528],[7.0752135,44.7565846],[7.0743124,44.7556221],[7.0734394,44.7549917],[7.0726298,44.7551098],[7.0712297,44.75517],[7.0716044,44.7540693],[7.0722764,44.753707],[7.0737507,44.7531425],[7.0752471,44.7528281],[7.0751766,44.7519965],[7.0744273,44.7514453],[7.0724438,44.7515306],[7.0696578,44.751817],[7.0685792,44.7515299],[7.0673075,44.7503321],[7.0670104,44.7495947],[7.0682306,44.7487911],[7.0690331,44.74859],[7.0714623,44.7482344],[7.0729647,44.7480032],[7.0729825,44.7469804],[7.0729828,44.7468344],[7.0715758,44.7468116],[7.0685358,44.7468588],[7.0672565,44.7455791],[7.0669602,44.7448406],[7.0672395,44.743994],[7.0685971,44.7434345],[7.0685801,44.7418506],[7.0681181,44.7405357],[7.0676182,44.7391741],[7.0661973,44.7389851],[7.0657423,44.7377522],[7.0683964,44.7373049],[7.0682558,44.7356418],[7.0679917,44.7339017],[7.0650478,44.7336936],[7.0634292,44.7339298],[7.0632657,44.7347714],[7.0638238,44.735832],[7.0637494,44.7363364],[7.0632223,44.7370269],[7.0631619,44.7376963],[7.0620514,44.7384118],[7.0598001,44.7380905],[7.0587648,44.7383027],[7.0564734,44.7389009],[7.0560749,44.7383346],[7.0563473,44.737405],[7.0561747,44.7367445],[7.0548634,44.7364673],[7.0541145,44.7359148],[7.0530905,44.7348741],[7.0516235,44.7355214],[7.0514132,44.7371984],[7.0496359,44.7369411],[7.0494428,44.7362049],[7.0474964,44.736162],[7.0460197,44.7353072],[7.0456739,44.7353015],[7.0451163,44.7352923],[7.0447944,44.735287],[7.0446131,44.735284],[7.0437918,44.736049],[7.0419597,44.7363074],[7.0412397,44.7369306],[7.0424413,44.737296],[7.0420724,44.7384796],[7.0432057,44.7394325],[7.0430496,44.7403571],[7.0426456,44.7411255],[7.0420995,44.7429847],[7.0431429,44.7428568],[7.0446638,44.741456],[7.0463371,44.7404677],[7.0459167,44.7396511],[7.0464557,44.7377089],[7.0483293,44.7377122],[7.0492367,44.738758],[7.050583,44.7394516],[7.0501116,44.7408064],[7.0506275,44.7413688],[7.0516235,44.7420763],[7.0497243,44.7431588],[7.0497803,44.7438243],[7.0520395,44.7442288],[7.0522401,44.7452215],[7.0525432,44.746042],[7.0552265,44.7459271],[7.0552011,44.7470128],[7.0530198,44.747524],[7.0514209,44.7480092],[7.0512649,44.7489338],[7.0528235,44.7493683],[7.0530522,44.7506931],[7.0546599,44.7517089],[7.0549569,44.7524474],[7.0555072,44.7534251],[7.0566743,44.7533751],[7.057043,44.7521914],[7.0582424,44.7511387],[7.0594506,44.751587],[7.059598,44.7533332],[7.0605882,44.7539587],[7.0604736,44.7553816],[7.0592812,44.7565173],[7.0571626,44.757776],[7.0558325,44.7586676],[7.0544813,44.7593099],[7.0531582,44.7602845],[7.0526727,44.7614732],[7.0531262,44.7628482],[7.052209,44.7629111],[7.0520452,44.7637527],[7.0525754,44.7644812],[7.0541555,44.7651648],[7.0575399,44.7650199],[7.0580631,44.7656643],[7.0582428,44.7664078],[7.0599677,44.7674185],[7.060519,44.7683962],[7.0604516,44.7689836],[7.0582265,44.7689956],[7.0561608,44.7695008],[7.0562309,44.7703323],[7.0576805,44.7708537],[7.0580943,44.7715872],[7.05809,44.7729221],[7.0592032,44.7736256],[7.0603243,44.7744122],[7.0602803,44.7747437],[7.0602027,44.775752],[7.0599793,44.7772641],[7.0572945,44.7773791],[7.0569279,44.7758089],[7.0550742,44.7760561],[7.0551494,44.7773403],[7.0555412,44.7778236],[7.05599,44.7789723],[7.0558542,44.7801461],[7.056275,44.7809627],[7.0561096,44.7813741]]},"properties":{"CLC:code":"321","CLC:id":"FR-185906","CLC:year":"2006","natural":"grassland","source":"Union européenne - SOeS, CORINE Land Cover, 2006."}},
{"type":"Feature","geometry":{"type":"LineString","coordinates":[[7.021907,44.7771722],[7.0246976,44.7770175],[7.0275688,44.77773],[7.0292376,44.7780757],[7.0312222,44.7779912],[7.0333024,44.7776525],[7.0337548,44.7774666],[7.033678,44.776552],[7.0330671,44.7762446],[7.0311783,44.776075],[7.0310875,44.7749931],[7.0288211,44.7745062],[7.0269932,44.7736661],[7.0247407,44.7733441],[7.0231817,44.7729103],[7.0222064,44.7724506],[7.0219168,44.7717961],[7.0220741,44.7708716],[7.0233573,44.770817],[7.0259741,44.7712891],[7.0273069,44.7718169],[7.0289896,44.7723299],[7.0295244,44.7717226],[7.0302715,44.7708562],[7.0297075,44.7697123],[7.0286358,44.7695079],[7.0268994,44.7697485],[7.026246,44.7689417],[7.0265609,44.7685116],[7.0291219,44.7683192],[7.0291965,44.7678149],[7.028557,44.7671742],[7.0287527,44.7658516],[7.0280702,44.7658579],[7.027113,44.7655936],[7.0270066,44.7653859],[7.0257879,44.7648729],[7.0237968,44.7648742],[7.0237411,44.7642087],[7.0246257,44.7635877],[7.0247074,44.7631664],[7.026829,44.7633273],[7.0269932,44.7624857],[7.0247264,44.7619976],[7.0254863,44.7598794],[7.0277522,44.7603675],[7.0290967,44.7596425],[7.0303595,44.7593386],[7.0321095,44.7592641],[7.0322177,44.7577571],[7.0306862,44.7576556],[7.0290598,44.7578082],[7.0276456,44.7577017],[7.0280429,44.7568503],[7.0278427,44.7558575],[7.0290977,44.7554707],[7.0309649,44.7553912],[7.0310116,44.7545547],[7.0317048,44.7544418],[7.0342929,44.7545815],[7.0344632,44.7538231],[7.0328907,44.7532233],[7.0312853,44.7536251],[7.0295417,44.7537827],[7.0259368,44.7526849],[7.023786,44.7507739],[7.0242998,44.7499175],[7.0254459,44.7496187],[7.0279513,44.7501788],[7.0292419,44.7502083],[7.0312603,44.7505391],[7.0320699,44.7504213],[7.0323436,44.7494917],[7.0305512,44.7490669],[7.0280806,44.7489221],[7.0272293,44.7485416],[7.0273996,44.7477831],[7.0277004,44.7471858],[7.0277481,44.7463503],[7.0281723,44.7458311],[7.0295792,44.7458545],[7.0294538,44.7443586],[7.0310806,44.7442059],[7.0316353,44.7438478],[7.0332829,44.7439442],[7.0337212,44.7435922],[7.0354784,44.7436006],[7.0363485,44.7428123],[7.0364916,44.7417216],[7.0367736,44.7406474],[7.036846,44.7403719],[7.0355418,44.7401775],[7.035458,44.7391798],[7.0352786,44.7384362],[7.0351926,44.737308],[7.0347934,44.7367405],[7.0336275,44.7367902],[7.0318774,44.7368648],[7.0302516,44.7370174],[7.028392,44.73718],[7.0260524,44.7371963],[7.0251961,44.7381506],[7.0242295,44.739193],[7.024087,44.7402836],[7.0250826,44.7409925],[7.025647,44.7421364],[7.0260531,44.7431919],[7.0229866,44.7439187],[7.0223452,44.7439623],[7.0214364,44.7443094],[7.0204317,44.7446626],[7.0196729,44.7448941],[7.0186981,44.7444343],[7.0157703,44.7451308],[7.0161618,44.7460179],[7.0162041,44.7461136],[7.0147015,44.7463441],[7.0136928,44.7468881],[7.0139483,44.7485453],[7.0104968,44.7492762],[7.0107037,44.750352],[7.0119381,44.75024],[7.0149924,44.7500124],[7.0173111,44.7502506],[7.0198235,44.7508951],[7.0214922,44.7512409],[7.0214742,44.7538286],[7.0222926,44.7552118],[7.0214221,44.756],[7.0204889,44.7560397],[7.0191722,44.7570969],[7.0183217,44.7581342],[7.0196558,44.76008],[7.0193157,44.7609166],[7.0192826,44.7619193],[7.017623,44.7630744],[7.0165322,44.7640386],[7.0143776,44.7648813],[7.0130327,44.7656051],[7.0114131,44.7658416],[7.0088522,44.7660335],[7.0071012,44.7661077],[7.0041558,44.765898],[7.0010454,44.7651118],[7.0011355,44.7661925],[7.0014172,44.7667651],[7.0025235,44.7673862],[7.0040614,44.7675711],[7.0042474,44.7683977],[7.0043376,44.7694785],[7.005444,44.7700995],[7.0072591,44.7686993],[7.0091421,44.7702041],[7.0107134,44.7693874],[7.0122374,44.7694061],[7.0135839,44.7700991],[7.0142094,44.7705737],[7.01476,44.7715516],[7.016854,44.7713794],[7.0167844,44.7705478],[7.0179371,44.7703322],[7.0169063,44.769208],[7.0179153,44.768664],[7.0190071,44.7691188],[7.0195438,44.7699305],[7.0197648,44.7711724],[7.0205068,44.771641],[7.0205853,44.7739746],[7.0196927,44.7745126],[7.0199494,44.7761708],[7.021907,44.7771722]]},"properties":{"CLC:code":"321","CLC:id":"FR-186103","CLC:year":"2006","natural":"grassland","source":"Union européenne - SOeS, CORINE Land Cover, 2006."}},
{"type":"Feature","geometry":{"type":"LineString","coordinates":[[7.013337,44.7620974],[7.0129498,44.7611149],[7.0137249,44.7605819],[7.0134902,44.7591739],[7.0148279,44.758366],[7.0161864,44.7578071],[7.0160682,44.7563942],[7.018099,44.7554734],[7.0195539,44.7546603],[7.0193183,44.7532524],[7.0167588,44.7534445],[7.0158735,44.7540666],[7.0143984,44.7546293],[7.0128748,44.7546106],[7.012046,44.7538],[7.0097195,44.753982],[7.0086079,44.7546958],[7.0087801,44.7553564],[7.0114099,44.7559961],[7.0121725,44.7567138],[7.0121185,44.7574673],[7.0105052,44.7577858],[7.00903,44.7583495],[7.0086255,44.7591178],[7.009944,44.7594786],[7.0096568,44.760242],[7.0094854,44.7610005],[7.0106943,44.7614493],[7.0107568,44.7621979],[7.0112725,44.7627594],[7.0124112,44.7623777],[7.013337,44.7620974]]},"properties":{"CLC:code":"321","CLC:id":"FR-186747","CLC:year":"2006","natural":"grassland","source":"Union européenne - SOeS, CORINE Land Cover, 2006."}},
{"type":"Feature","geometry":{"type":"LineString","coordinates":[[6.9337043,44.7280609],[6.9331893000000008,44.7289168],[6.9323043,44.7295383],[6.9308636,44.7290972],[6.9297652,44.7299775],[6.9283588,44.7299528],[6.9276317,44.7296498],[6.9276603,44.7285641],[6.9265488,44.7278593],[6.9254027,44.728157],[6.9252747,44.7285903],[6.9251281,44.7290863],[6.9255526,44.7299864],[6.9262797,44.7302894],[6.9280775,44.730799],[6.9291058,44.731924],[6.9308081,44.7312696],[6.9316815,44.731037],[6.932297,44.7308731],[6.9331844,44.7309837],[6.9343073,44.7311236],[6.9344356,44.7310655],[6.93496,44.7308278],[6.9353225,44.7306635],[6.9353707,44.729827],[6.935145,44.730093],[6.9344637,44.7304855],[6.9341687,44.7306151],[6.9336966,44.730676],[6.9335357,44.7306189],[6.9333211,44.7305236],[6.9331602,44.7305084],[6.9331387,44.7306189],[6.933423,44.7307332],[6.9334928,44.7309009],[6.9333265,44.7309428],[6.9330475,44.7309123],[6.9326828,44.7308475],[6.9324521,44.7308437],[6.9323716,44.7307713],[6.9322643,44.7303597],[6.932554,44.7299329],[6.9331763,44.7291021],[6.9334767,44.7286676],[6.9337878,44.7284084],[6.9337043,44.7280609]]},"properties":{"CLC:code":"332","CLC:id":"FR-188119","CLC:year":"2006","natural":"scree","source":"Union européenne - SOeS, CORINE Land Cover, 2006."}},
{"type":"Feature","geometry":{"type":"LineString","coordinates":[[6.8506674,44.9129819],[6.8514093,44.9131892],[6.853122,44.9128883],[6.8544742,44.9108273],[6.8553796,44.9099423],[6.8554068,44.9089377],[6.8544789,44.9082042],[6.8555111,44.9075449],[6.8573754,44.9077772],[6.858571,44.907806],[6.8591448,44.9084041],[6.8604207,44.9068619],[6.8734305,44.8998821],[6.8823169,44.8982409],[6.8874099,44.8955062],[6.889194,44.8971085],[6.8902832,44.8975637],[6.8906414,44.8965454],[6.8910386,44.8960639],[6.8926146,44.8955135],[6.8921499,44.8951104],[6.8927032,44.8944051],[6.893006,44.8938351],[6.892883,44.8934055],[6.8931504,44.8924022],[6.89397,44.8917479],[6.8942002,44.8913656],[6.8928707,44.8911108],[6.8913566,44.8907385],[6.8908712,44.8901391],[6.890387,44.8899912],[6.8904178,44.8898627],[6.8911462,44.8889272],[6.8922861,44.8889275],[6.8928098,44.8887629],[6.8928738,44.8885384],[6.895681,44.8891962],[6.9001153,44.8900673],[6.9013883,44.8906972],[6.9018502,44.8905823],[6.9022243,44.8907099],[6.9027637,44.8899252],[6.9021856,44.8894242],[6.8990222,44.8884591],[6.8973636,44.8878598],[6.8970624,44.8872663],[6.8985332,44.8867213],[6.9001037,44.8867184],[6.9005336,44.8866387],[6.9008152,44.8858207],[6.8994605,44.8852561],[6.8987238,44.8847899],[6.8984077,44.8841204],[6.8987256,44.8837357],[6.9007967,44.8834631],[6.9008421,44.8832045],[6.9011699,44.8832225],[6.9025506,44.8830494],[6.9040699,44.8840103],[6.9048016,44.8844148],[6.906469,44.8845316],[6.9075582,44.8850452],[6.9085049,44.8848821],[6.9087965,44.8841875],[6.9102801,44.8841881],[6.9107475,44.8843827],[6.9117897,44.8834431],[6.9122355,44.8824943],[6.9118316,44.8818286],[6.9135605,44.8816331],[6.9145679,44.8822119],[6.9151352,44.8827458],[6.9159183,44.8827134],[6.9162814,44.88183],[6.9171311,44.881547],[6.917597,44.8808452],[6.9176179,44.8800379],[6.9191629,44.8797261],[6.9197556,44.8805698],[6.9208265,44.8813036],[6.9211269,44.881576],[6.9222758,44.8821309],[6.9233501,44.8814105],[6.9226098,44.8807103],[6.9220716,44.8803002],[6.9219121,44.8802393],[6.9219661,44.8788033],[6.9208667,44.8781665],[6.9206885,44.8770567],[6.9225814,44.8767303],[6.9228063,44.8762862],[6.9215334,44.8756566],[6.9195542,44.8749323],[6.9194882,44.8741287],[6.9214826,44.8740257],[6.9239022,44.8747518],[6.9246899,44.8737269],[6.9268787,44.8738218],[6.9283109,44.8742589],[6.9291963,44.8733538],[6.9327912,44.8725217],[6.9343099,44.8740093],[6.9345558,44.8743313],[6.9353072,44.8739937],[6.9356024,44.8742112],[6.9362345,44.8752705],[6.936379,44.8770248],[6.9363874,44.8771258],[6.9366434,44.8775803],[6.9380243,44.8771342],[6.9380849,44.8766778],[6.9381585,44.8761206],[6.9370749,44.8733502],[6.9371059,44.8732171],[6.9383194,44.872912],[6.9388742,44.8729464],[6.9410369,44.872667],[6.9420077,44.8738665],[6.9425579,44.8739213],[6.9434715,44.874426],[6.9442326,44.8757131],[6.94507,44.8766084],[6.9458564,44.8768853],[6.9466803,44.8776269],[6.94709,44.8786178],[6.9458789,44.8788756],[6.9455808,44.8794951],[6.9456191,44.8799598],[6.945944,44.8800284],[6.94661,44.8801707],[6.9469654,44.8806762],[6.9480562,44.8812253],[6.949466,44.8805718],[6.9499264,44.8798081],[6.9501839,44.8791283],[6.9516303,44.8776556],[6.9529365,44.87827],[6.9535167,44.8783043],[6.9540966,44.8776268],[6.9530485,44.8768181],[6.9512331,44.8759637],[6.9503122,44.8753816],[6.949756,44.8739317],[6.9495537,44.8734964],[6.9492948,44.8737561],[6.9487468,44.8745234],[6.9482975,44.8743564],[6.946518,44.8718256],[6.9442119,44.8703091],[6.9418599,44.86929],[6.9431024,44.8684937],[6.9457003,44.8693156],[6.9466151,44.869836],[6.9479196,44.8697816],[6.9456544,44.8677047],[6.946411,44.8663093],[6.9460109,44.8660376],[6.9463628,44.8656107],[6.9455101,44.8650258],[6.9440365,44.8642291],[6.9434716,44.8633235],[6.943699,44.8631721],[6.9435743,44.8625815],[6.9433482,44.8624513],[6.9436612,44.8620711],[6.9454741,44.8620574],[6.9476334,44.862634],[6.9477503,44.8612111],[6.9479494,44.8608999],[6.947345,44.8605602],[6.946994,44.8591569],[6.9479091,44.8588676],[6.9491326,44.8594843],[6.9493588,44.8597024],[6.9508544,44.8592513],[6.9514871,44.8594445],[6.9522383,44.8594131],[6.9524887,44.8589273],[6.9540015,44.8587807],[6.9544246,44.8593971],[6.9547586,44.8596073],[6.955609,44.8588802],[6.956064,44.8593083],[6.956969,44.8592704],[6.9571313,44.8599112],[6.9582566,44.859712],[6.9589882,44.8592917],[6.9592358,44.8594706],[6.9597887,44.8591298],[6.9602829,44.8584908],[6.9600893,44.8579114],[6.9598174,44.8576561],[6.9592572,44.8579504],[6.9588108,44.8580153],[6.9581759,44.8577169],[6.9574821,44.8576469],[6.9566738,44.8573951],[6.9553247,44.8567938],[6.9533252,44.8560036],[6.952432,44.8559328],[6.9525117,44.8558438],[6.9519873,44.8557926],[6.9514132,44.8554933],[6.9512629,44.8558499],[6.9495318,44.8562657],[6.9493283,44.8560737],[6.9488871,44.8560921],[6.9487776,44.8560967],[6.9486541,44.8559442],[6.9482131,44.8559627],[6.9480707,44.8569124],[6.9480985,44.8570104],[6.9472025,44.8575016],[6.9467888,44.8576507],[6.9458943,44.8572004],[6.9447387,44.8574153],[6.9435426,44.8585498],[6.9420736,44.8586516],[6.9421342,44.8579182],[6.9407758,44.857459],[6.9396633,44.8578613],[6.9399932,44.8561863],[6.9400356,44.8556643],[6.9398192,44.8553534],[6.9388274,44.8544814],[6.9380215,44.8547312],[6.9371633,44.8552783],[6.9366989,44.8549846],[6.9363547,44.8560159],[6.9363525,44.8569879],[6.9358394,44.857631],[6.9347812,44.8564339],[6.9346174,44.8562899],[6.9344044,44.8562616],[6.9344073,44.8557287],[6.9342257,44.8556575],[6.934317,44.8544779],[6.9340695,44.8542697],[6.9334622,44.853519],[6.9333774,44.8533254],[6.9326241,44.8533197],[6.9320788,44.8538561],[6.9317826,44.8541476],[6.9319436,44.8553054],[6.9317552,44.8552963],[6.9315251,44.8569254],[6.9304544,44.85697],[6.9288821,44.8565849],[6.9275652,44.8559943],[6.9274419,44.8558902],[6.9276214,44.8553782],[6.9263331,44.8543821],[6.924294,44.8540378],[6.9228571,44.852871],[6.9227846,44.8526533],[6.9220798,44.8515034],[6.9219461,44.8514076],[6.9219816,44.8512609],[6.923899,44.8499615],[6.9223727,44.8489951],[6.9222749,44.8489332],[6.9196671,44.8491699],[6.9193912,44.8491171],[6.9188654,44.8482369],[6.9190778,44.8479792],[6.9186149,44.8479331],[6.9192094,44.8472101],[6.9200204,44.8471765],[6.9199232,44.8471596],[6.9174708,44.8467327],[6.917492,44.8465471],[6.917124,44.8463743],[6.9157802,44.8459334],[6.9152797,44.8451478],[6.9149429,44.844013],[6.9122137,44.843384],[6.9121786,44.8434778],[6.9093004,44.8434732],[6.9079214,44.8426001],[6.9090415,44.8413746],[6.909482,44.8403642],[6.9089967,44.8397637],[6.9104394,44.8382151],[6.9118773,44.8378661],[6.9120983,44.8377139],[6.9137759,44.8369292],[6.9139825,44.8367652],[6.9137482,44.8360305],[6.9129051,44.8353222],[6.9129454,44.8350896],[6.9115408,44.8355454],[6.9106158,44.8350443],[6.9096809,44.8342767],[6.9096607,44.8340298],[6.9112043,44.8337169],[6.9112656,44.833363],[6.912251,44.8330361],[6.9123617,44.8319346],[6.9104256,44.8320148],[6.9093094,44.8320104],[6.909305,44.8318112],[6.9086976,44.8307812],[6.9083262,44.8294327],[6.9089552,44.8286003],[6.9100339,44.8279351],[6.9115369,44.8271283],[6.9124832,44.82591],[6.9137708,44.8256708],[6.9138614,44.8246624],[6.9138272,44.8244769],[6.9136244,44.8244639],[6.9128242,44.8241656],[6.9124782,44.8239347],[6.9107128,44.8238954],[6.9094496,44.8239478],[6.9082208,44.8234547],[6.906669,44.8231609],[6.9066939,44.8245777],[6.907516,44.8257679],[6.9069526,44.8266291],[6.9060333,44.8275692],[6.904552,44.8282748],[6.9046193,44.828576],[6.904422,44.8286011],[6.9042274,44.8294155],[6.9055337,44.8315327],[6.9062589,44.8318755],[6.906034,44.8323184],[6.9057772,44.8334462],[6.9065487,44.8343445],[6.9055978,44.8344458],[6.9041458,44.8348156],[6.9052157,44.8365473],[6.904608,44.8367133],[6.9040872,44.8369927],[6.9041174,44.837246],[6.9033631,44.8367997],[6.9037122,44.8385523],[6.903478,44.8383795],[6.9027115,44.838597],[6.9024496,44.8396631],[6.902704,44.8406448],[6.9030944,44.8415769],[6.9009779,44.8417601],[6.9004864,44.8429033],[6.9009618,44.8439355],[6.9022075,44.8451746],[6.9013305,44.8463168],[6.9002156,44.8460408],[6.9002196,44.8465159],[6.8992838,44.8468035],[6.8987168,44.8462683],[6.8986096,44.845731],[6.8983907,44.8457063],[6.8981812,44.8450494],[6.8972007,44.8447802],[6.896865,44.8448177],[6.8968426,44.8445439],[6.8960958,44.8444317],[6.8938956,44.8445699],[6.890345,44.8442896],[6.8900035,44.843682],[6.8876756,44.8422521],[6.8858075,44.8425509],[6.8857587,44.8423987],[6.8850437,44.8421804],[6.8843065,44.8427693],[6.8829719,44.8435068],[6.8824869,44.8429062],[6.8828461,44.8419612],[6.8829281,44.8415975],[6.8826567,44.8414611],[6.8829005,44.8412089],[6.8828026,44.8408323],[6.8822492,44.8406164],[6.8817866,44.839873],[6.880011,44.8394686],[6.8802202,44.8389363],[6.8799776,44.8388529],[6.8793758,44.8378855],[6.8800254,44.8373001],[6.8795557,44.8368859],[6.8795721,44.8360169],[6.8797929,44.8355112],[6.8795892,44.835148],[6.8800537,44.834184],[6.882113,44.8331847],[6.8821471,44.8322418],[6.8811782,44.8325779],[6.8805278,44.832434],[6.8802901,44.8323814],[6.8800985,44.832039],[6.8791572,44.832258],[6.8778786,44.8325415],[6.8773434,44.8316141],[6.8772638,44.8317638],[6.8760705,44.8340134],[6.8756416,44.8335851],[6.8741584,44.8337576],[6.8726461,44.8333862],[6.8722933,44.8320617],[6.8720143,44.8320473],[6.8714478,44.831512],[6.8696252,44.8305328],[6.8687561,44.8305685],[6.8680161,44.8300403],[6.8666523,44.8293519],[6.8649991,44.8283037],[6.8636404,44.827677],[6.8615869,44.8270788],[6.8594676,44.826731],[6.8589504,44.8257229],[6.8586002,44.8257125],[6.8566712,44.8244886],[6.8569875,44.8236558],[6.8555435,44.8224998],[6.8531693,44.8217367],[6.8529977,44.8217673],[6.8515266,44.822028],[6.8511586,44.8219366],[6.8507443,44.8218337],[6.8507345,44.8219385],[6.8507227,44.8220654],[6.8507308,44.823243],[6.8500644,44.8237125],[6.8497372,44.8236178],[6.8492589,44.823366300000007],[6.8489137,44.8223252],[6.8488468,44.8221424],[6.8488142,44.8220534],[6.8478682,44.821252],[6.8468476,44.8207208],[6.8463214,44.820447],[6.8442316,44.8204704],[6.8440744,44.820523],[6.8429588,44.8208941],[6.8426575,44.8215134],[6.8421113,44.8212057],[6.8409117,44.8225283],[6.8404822,44.8226078],[6.8399759,44.8228143],[6.8394617,44.821843200000007],[6.8389845,44.8214209],[6.8385238,44.8210132],[6.8382798,44.8201549],[6.8384847,44.8199966],[6.8388068,44.8190658],[6.8387532,44.8184002],[6.8375043,44.81745],[6.8376715,44.8166099],[6.8365795,44.8161533],[6.8358882,44.814847],[6.8357045,44.8140201],[6.8339259,44.8137593],[6.8327574,44.8138069],[6.8315287,44.8131058],[6.82986,44.812756],[6.8292558,44.8125307],[6.8290722,44.8117037],[6.8290389,44.8112884],[6.8298796,44.8100863],[6.8301702,44.8093234],[6.8295459,44.8088477],[6.8278974,44.8087481],[6.8272167,44.809027],[6.8271794,44.8100296],[6.8265385,44.8108057],[6.8256244,44.811094],[6.8226907,44.8110456],[6.8224173,44.8105567],[6.8208014,44.8108724],[6.8204981,44.8114692],[6.8198305,44.811913],[6.8187787,44.8119558],[6.818492,44.8112996],[6.8174269,44.8111762],[6.8168902,44.8117825],[6.8164493,44.8121337],[6.8155083,44.8120886],[6.8150741,44.812524],[6.8140423,44.8128159],[6.812868,44.8127802],[6.8130011,44.8144426],[6.810885,44.8143618],[6.8096398,44.8149134],[6.8085747,44.8147899],[6.8075569,44.8152478],[6.8060584,44.8163475],[6.805154,44.8181763],[6.8061287,44.8192712],[6.8081097,44.820657],[6.8093926,44.8210179],[6.8101166,44.8203667],[6.8116207,44.8205345],[6.812444,44.8213722],[6.8149732,44.8203546],[6.8165104,44.8197361],[6.8165142,44.8181365],[6.8174735,44.8175988],[6.8184379,44.8164752],[6.8201907,44.8164039],[6.8208183,44.8154607],[6.8218693,44.8154179],[6.8232544,44.8136927],[6.8245062,44.8132251],[6.8265256,44.8135596],[6.8269499,44.8144601],[6.8262204,44.8144466],[6.8255414,44.8144341],[6.8258816,44.8157547],[6.8254475,44.8161902],[6.8234181,44.8171905],[6.824069,44.8179974],[6.8252376,44.8179498],[6.8264561,44.8170669],[6.8279346,44.8165056],[6.8293183,44.8169504],[6.8314413,44.8171139],[6.8333271,44.8187048],[6.8346793,44.8194842],[6.8341736,44.8198303],[6.8339301,44.8199969],[6.8333684,44.8208507],[6.8343854,44.8221628],[6.8349947,44.8226459],[6.8368613,44.8241824],[6.8375639,44.8253328],[6.8380113,44.8265544],[6.8384837,44.8269393],[6.8390748,44.8274209],[6.8393253,44.8275053],[6.8391198,44.827606],[6.8391848,44.8284131],[6.8384066,44.8287309],[6.8379776,44.8288959],[6.8377526,44.8286091],[6.8377412,44.8285947],[6.8373027,44.8287196],[6.8369265,44.8287642],[6.8359701,44.8289541],[6.8359361,44.8290617],[6.8359026,44.8291675],[6.8352902,44.8294323],[6.8348356,44.8293979],[6.8347999,44.8296325],[6.8349052,44.8298996],[6.8349984,44.8305264],[6.8350921,44.8307264],[6.8348356,44.8308236],[6.834919,44.8314565],[6.8345563,44.8317004],[6.8331176,44.8315102],[6.8325828,44.8313816],[6.8306816,44.8311827],[6.8288722,44.8318918],[6.8282864,44.832171],[6.8269469,44.8326196],[6.8258553,44.833245],[6.8266278,44.8337378],[6.8267798,44.83369],[6.8267654,44.8339248],[6.8286105,44.8343745],[6.8287612,44.8343684],[6.8290674,44.8345259],[6.8302096,44.8345391],[6.8308081,44.8340012],[6.8315222,44.8339079],[6.8313695,44.8341338],[6.8314325,44.8349172],[6.831483,44.8355447],[6.8312147,44.8363417],[6.8310451,44.8369781],[6.8312964,44.8370715],[6.8326244,44.8380711],[6.8316567,44.8394705],[6.8346189,44.8391503],[6.8361944,44.8383237],[6.8387854,44.8395584],[6.8384223,44.8372308],[6.8402415,44.8370468],[6.840229,44.8371859],[6.840981,44.8370516],[6.8408706,44.8368996],[6.8419215,44.8362071],[6.8