{"type":"FeatureCollection","features":[
{"type":"Feature","geometry":{"type":"Point","coordinates":[7.4462791,43.814112]},"properties":{"ele":"744","mountain_pass":"yes","name":"Col des Banquettes","natural":"saddle"}},
{"type":"Feature","geometry":{"type":"Point","coordinates":[7.3643384,43.8307794]},"properties":{"created_by":"JOSM"}},
{"type":"Feature","geometry":{"type":"Point","coordinates":[7.3642661,43.8301381]},"properties":{"created_by":"JOSM"}},
{"type":"Feature","geometry":{"type":"Point","coordinates":[7.5024991,43.8846582]},"properties":{"ele":"477","mountain_pass":"yes","name":"Col de Vescavo","natural":"saddle"}},
{"type":"Feature","geometry":{"type":"Point","coordinates":[7.5328546,43.7851698]},"properties":{"tourism":"viewpoint"}},
{"type":"Feature","geometry":{"type":"Point","coordinates":[7.4876163,43.7505274]},"properties":{"historic":"monument","name":"Le Corbusier","tourism":"viewpoint","wheelchair":"yes"}},
{"type":"Feature","geometry":{"type":"Point","coordinates":[7.4591818,43.7652056]},"properties":{"name":"Vieux village de Roquebrune","tourism":"attraction"}},
{"type":"Feature","geometry":{"type":"Point","coordinates":[7.4442443,43.8977197]},"properties":{"ele":"750","mountain_pass":"yes","name":"Baisse de Fighièra","natural":"saddle"}},
{"type":"Feature","geometry":{"type":"Point","coordinates":[7.4867396,43.8499703]},"properties":{"ele":"1033","mountain_pass":"yes","name":"Col du Razet","natural":"saddle"}},
{"type":"Feature","geometry":{"type":"Point","coordinates":[7.5013859,43.8425392]},"properties":{"ele":"1108","name":"Colla Bassa","natural":"saddle"}},
{"type":"Feature","geometry":{"type":"Point","coordinates":[7.503372,43.8330013]},"properties":{"ele":"969","name":"Baisse de Faïche Fonda","natural":"saddle"}},
{"type":"Feature","geometry":{"type":"Point","coordinates":[7.4377044,43.9236348]},"properties":{"ele":"1345","name":"Baisse de Linière","natural":"saddle"}},
{"type":"Feature","geometry":{"type":"Point","coordinates":[7.5130148,43.8149682]},"properties":{"ele":"1080","mountain_pass":"yes","name":"Col du Berceau","natural":"saddle"}},
{"type":"Feature","geometry":{"type":"Point","coordinates":[7.4378014,43.9835663]},"properties":{"ele":"1764","mountain_pass":"yes","natural":"saddle"}},
{"type":"Feature","geometry":{"type":"Point","coordinates":[7.5548901,43.918869]},"properties":{"hiking":"yes","information":"guidepost","ref":"437","tourism":"information"}},
{"type":"Feature","geometry":{"type":"Point","coordinates":[7.5605163,43.9139686]},"properties":{"mountain_pass":"yes","name":"Passo della Colomba","natural":"saddle","place":"locality"}},
{"type":"Feature","geometry":{"type":"Point","coordinates":[7.5621805,43.9045681]},"properties":{"mountain_pass":"yes","name":"Colla Sgora","natural":"saddle"}},
{"type":"Feature","geometry":{"type":"Point","coordinates":[7.5092863,43.7756505]},"properties":{"leisure":"slipway"}},
{"type":"Feature","geometry":{"type":"Point","coordinates":[7.5206338,43.8010092]},"properties":{"ele":"772","name":"Monte Carpano","name:fr":"Mont Carpano","natural":"peak"}},
{"type":"Feature","geometry":{"type":"Point","coordinates":[7.5115901,43.8146078]},"properties":{"ele":"1132","name":"Roc de l'Orméa","natural":"peak","source":"IGN BDTOPO 2022-06-15","source:ele":"IGN RGEALTI 2020-09-15 (Lidar)"}},
{"type":"Feature","geometry":{"type":"Point","coordinates":[7.5115701,43.8240186]},"properties":{"ele":"1046","mountain_pass":"yes","name":"Pas de la Corne","natural":"saddle"}},
{"type":"Feature","geometry":{"type":"Point","coordinates":[7.4903926,43.8787563]},"properties":{"ele":"736","mountain_pass":"yes","name":"Col de la Basse Bergevine","natural":"saddle"}},
{"type":"Feature","geometry":{"type":"Point","coordinates":[7.4952498,43.8632277]},"properties":{"ele":"1022","mountain_pass":"yes","name":"Col du Cuore / Passo di Cuore","name:fr":"Col du Cuore","name:it":"Passo di Cuore","natural":"saddle"}},
{"type":"Feature","geometry":{"type":"Point","coordinates":[7.5006043,43.8450936]},"properties":{"ele":"1084","mountain_pass":"yes","name":"Col du Trètore / Passo di Treittore","name:fr":"Col du Trètore","name:it":"Passo di Treittore","natural":"saddle"}},
{"type":"Feature","geometry":{"type":"Point","coordinates":[7.5732623,43.8934598]},"properties":{"ele":"889","mountain_pass":"yes","name":"Colle dei Saviglioni","natural":"saddle"}},
{"type":"Feature","geometry":{"type":"Point","coordinates":[7.5392862,43.9361232]},"properties":{"historic":"ruins","name":"Ancien Funiculaire"}},
{"type":"Feature","geometry":{"type":"Point","coordinates":[7.529972,43.7841938]},"properties":{"source":"cadastre-dgi-fr source : Direction Générale des Impôts - Cadastre. Mise à jour : 2009"}},
{"type":"Feature","geometry":{"type":"Point","coordinates":[7.5013986,43.983531]},"properties":{"ele":"1350","mountain_pass":"yes","name":"Baisse de Colla Bassa","natural":"saddle"}},
{"type":"Feature","geometry":{"type":"Point","coordinates":[7.3615714,43.9056965]},"properties":{"ele":"1008","name":"Pas de L'Escous","natural":"saddle"}},
{"type":"Feature","geometry":{"type":"Point","coordinates":[7.3823495,43.8935931]},"properties":{"ele":"1149","mountain_pass":"yes","name":"Col de l'Ablé","natural":"saddle"}},
{"type":"Feature","geometry":{"type":"Point","coordinates":[7.3919945,43.9769451]},"properties":{"hiking":"yes","information":"guidepost","ref":"184","tourism":"information"}},
{"type":"Feature","geometry":{"type":"Point","coordinates":[7.3932905,43.9754442]},"properties":{"hiking":"yes","information":"guidepost","ref":"32","tourism":"information"}},
{"type":"Feature","geometry":{"type":"Point","coordinates":[7.3820768,43.9684757]},"properties":{"hiking":"yes","information":"guidepost","ref":"183","tourism":"information"}},
{"type":"Feature","geometry":{"type":"Point","coordinates":[7.3772704,43.9579747]},"properties":{"hiking":"yes","information":"guidepost","name":"Baisse de Patronel","ref":"181","tourism":"information"}},
{"type":"Feature","geometry":{"type":"Point","coordinates":[7.3680886,43.9433282]},"properties":{"ele":"1508","hiking":"yes","information":"guidepost","name":"Baisse de Peira Cava","operator":"Conseil Départemental des Alpes-Maritimes","ref":"179","tourism":"information"}},
{"type":"Feature","geometry":{"type":"Point","coordinates":[7.3646422,43.91053]},"properties":{"hiking":"yes","information":"guidepost","operator":"Département des Alpes Maritimes","ref":"45","tourism":"information"}},
{"type":"Feature","geometry":{"type":"Point","coordinates":[7.3608593,43.8840915]},"properties":{"hiking":"yes","information":"guidepost","ref":"170","tourism":"information"}},
{"type":"Feature","geometry":{"type":"Point","coordinates":[7.3624397,43.8837688]},"properties":{"hiking":"yes","information":"guidepost","ref":"171","tourism":"information"}},
{"type":"Feature","geometry":{"type":"Point","coordinates":[7.3662087,43.8736029]},"properties":{"ele":"977","hiking":"yes","information":"guidepost","ref":"173","tourism":"information"}},
{"type":"Feature","geometry":{"type":"Point","coordinates":[7.3700206,43.8741229]},"properties":{"hiking":"yes","information":"guidepost","ref":"174","tourism":"information"}},
{"type":"Feature","geometry":{"type":"Point","coordinates":[7.3720709,43.874797]},"properties":{"hiking":"yes","information":"guidepost","ref":"175","tourism":"information"}},
{"type":"Feature","geometry":{"type":"Point","coordinates":[7.3917605,43.873317]},"properties":{"hiking":"yes","information":"guidepost","ref":"176","tourism":"information"}},
{"type":"Feature","geometry":{"type":"Point","coordinates":[7.398696,43.8728577]},"properties":{"hiking":"yes","information":"guidepost","operator":"Conseil Départemental des Alpes-Maritimes","ref":"63","tourism":"information"}},
{"type":"Feature","geometry":{"type":"Point","coordinates":[7.3997819,43.8724314]},"properties":{"hiking":"yes","information":"guidepost","operator":"Conseil Départemental des Alpes-Maritimes","ref":"64","tourism":"information"}},
{"type":"Feature","geometry":{"type":"Point","coordinates":[7.4044377,43.8649957]},"properties":{"hiking":"yes","information":"guidepost","ref":"69","tourism":"information"}},
{"type":"Feature","geometry":{"type":"Point","coordinates":[7.408214,43.8540119]},"properties":{"ele":"1024","mountain_pass":"yes","name":"Baisse du Pape","natural":"saddle"}},
{"type":"Feature","geometry":{"type":"Point","coordinates":[7.4084889,43.8536641]},"properties":{"hiking":"yes","information":"guidepost","ref":"115","tourism":"information"}},
{"type":"Feature","geometry":{"type":"Point","coordinates":[7.4111058,43.8450677]},"properties":{"ele":"1083","mountain_pass":"yes","name":"Col du Farguet","natural":"saddle"}},
{"type":"Feature","geometry":{"type":"Point","coordinates":[7.4325862,43.844970000000007]},"properties":{"hiking":"yes","information":"guidepost","operator":"Conseil Départemental des Alpes Maritimes","ref":"121","tourism":"information"}},
{"type":"Feature","geometry":{"type":"Point","coordinates":[7.4367128,43.8404666]},"properties":{"hiking":"yes","information":"guidepost","operator":"Conseil Départemental des Alpes Maritimes","ref":"122","tourism":"information"}},
{"type":"Feature","geometry":{"type":"Point","coordinates":[7.4446407,43.8356008]},"properties":{"ele":"963","information":"guidepost","name":"Col de Ségra","ref":"125","tourism":"information"}},
{"type":"Feature","geometry":{"type":"Point","coordinates":[7.4609657,43.837613]},"properties":{"historic":"ruins","name":"Vieux Castillon","place":"locality"}},
{"type":"Feature","geometry":{"type":"Point","coordinates":[7.4607685,43.8390984]},"properties":{"hiking":"yes","information":"guidepost","operator":"Conseil Départemental des Alpes-Maritimes","ref":"135","tourism":"information"}},
{"type":"Feature","geometry":{"type":"Point","coordinates":[7.4655328,43.8164414]},"properties":{"information":"guidepost","tourism":"information"}},
{"type":"Feature","geometry":{"type":"Point","coordinates":[7.454831,43.8123661]},"properties":{"information":"guidepost","tourism":"information"}},
{"type":"Feature","geometry":{"type":"Point","coordinates":[7.4558791,43.8038171]},"properties":{"information":"guidepost","tourism":"information"}},
{"type":"Feature","geometry":{"type":"Point","coordinates":[7.4570038,43.7910139]},"properties":{"information":"guidepost","tourism":"information"}},
{"type":"Feature","geometry":{"type":"Point","coordinates":[7.447009,43.7754722]},"properties":{"ele":"440","name":"Col de La Coupière","natural":"saddle"}},
{"type":"Feature","geometry":{"type":"Point","coordinates":[7.4512049,43.7762446]},"properties":{"ele":"483","name":"La Coupière","natural":"peak","source":"IGN BDTOPO 2021-12-15","source:ele":"IGN RGEALTI 2020-09-15 (Lidar)"}},
{"type":"Feature","geometry":{"type":"Point","coordinates":[7.4962969,43.8516732]},"properties":{"ele":"1326","name":"Mont Mulacié / Monte Butetta","name:fr":"Mont Mulacié","name:it":"Monte Butetta","natural":"peak","source":"IGN BDTOPO 2021-12-15","source:ele":"IGN RGEALTI 2020-09-15 (Lidar)","wikidata":"Q31656589"}},
{"type":"Feature","geometry":{"type":"Point","coordinates":[7.4973528,43.8703639]},"properties":{"ele":"1088","name":"Le Cuore","natural":"peak","source":"CTR Regione Liguria"}},
{"type":"Feature","geometry":{"type":"Point","coordinates":[7.568616,43.9342204]},"properties":{"ele":"1587","name":"Tête d'Alpe","name:it":"Testa d'Alpe","natural":"peak"}},
{"type":"Feature","geometry":{"type":"Point","coordinates":[7.5840644,43.9525565]},"properties":{"ele":"1432","name":"Monte Simonasso / Mont Cimonasso","name:fr":"Mont Cimonasso","name:it":"Monte Simonasso","natural":"peak"}},
{"type":"Feature","geometry":{"type":"Point","coordinates":[7.5874022,43.9598571]},"properties":{"alt_name":"Rocca Campana","ele":"1471","name":"Roche Campane","name:it":"Rocche Campane","natural":"peak"}},
{"type":"Feature","geometry":{"type":"Point","coordinates":[7.4885327,43.7651803]},"properties":{"source":"cadastre-dgi-fr source : Direction Générale des Impôts - Cadastre. Mise à jour : 2009"}},
{"type":"Feature","geometry":{"type":"Point","coordinates":[7.4013299,43.8029923]},"properties":{"genus":"Platanus","genus:fr":"Platane","natural":"tree","source":"cadastre-dgi-fr source : Direction Générale des Impôts - Cadastre. Mise à jour : 2010"}},
{"type":"Feature","geometry":{"type":"Point","coordinates":[7.4035431,43.8026376]},"properties":{"historic":"memorial","memorial":"war_memorial","ref:FR:MemorialGenWeb":"25426","source":"cadastre-dgi-fr source : Direction Générale des Impôts - Cadastre. Mise à jour : 2010"}},
{"type":"Feature","geometry":{"type":"Point","coordinates":[7.516833,43.9395042]},"properties":{"hiking":"yes","information":"guidepost","ref":"5","tourism":"information"}},
{"type":"Feature","geometry":{"type":"Point","coordinates":[7.5141457,43.9377671]},"properties":{"name":"Hôtel Roya","phone":"+33 4 93 04 48 10","tourism":"hotel","url":"www.hotelroya.com"}},
{"type":"Feature","geometry":{"type":"Point","coordinates":[7.5270848,43.9549716]},"properties":{"fixme":"Check position","hiking":"yes","information":"guidepost","ref":"153","tourism":"information"}},
{"type":"Feature","geometry":{"type":"Point","coordinates":[7.4873227,43.9355184]},"properties":{"hiking":"yes","information":"guidepost","ref":"132","tourism":"information"}},
{"type":"Feature","geometry":{"type":"Point","coordinates":[7.5029577,43.9380581]},"properties":{"hiking":"yes","information":"guidepost","ref":"120","tourism":"information"}},
{"type":"Feature","geometry":{"type":"Point","coordinates":[7.4924553,43.9360343]},"properties":{"hiking":"yes","information":"guidepost","ref":"126","tourism":"information"}},
{"type":"Feature","geometry":{"type":"Point","coordinates":[7.4959521,43.9381261]},"properties":{"historic":"wayside_cross"}},
{"type":"Feature","geometry":{"type":"Point","coordinates":[7.5124005,43.9487587]},"properties":{"hiking":"yes","information":"guidepost","ref":"11","tourism":"information"}},
{"type":"Feature","geometry":{"type":"Point","coordinates":[7.4909988,43.9439253]},"properties":{"hiking":"yes","information":"guidepost","ref":"130","tourism":"information"}},
{"type":"Feature","geometry":{"type":"Point","coordinates":[7.4910475,43.9435112]},"properties":{"hiking":"yes","information":"guidepost","ref":"131","tourism":"information"}},
{"type":"Feature","geometry":{"type":"Point","coordinates":[7.4765095,43.9243344]},"properties":{"ele":"879","mountain_pass":"yes","name":"Col de Brouis","name:it":"Col di Brais","natural":"saddle"}},
{"type":"Feature","geometry":{"type":"Point","coordinates":[7.5138881,43.9374525]},"properties":{"information":"office","name":"Office du tourisme","tourism":"information","url":"http://www.ville-breil-sur-roya.fr"}},
{"type":"Feature","geometry":{"type":"Point","coordinates":[7.4893337,43.9222407]},"properties":{"historic":"wayside_cross"}},
{"type":"Feature","geometry":{"type":"Point","coordinates":[7.4924553,43.897247]},"properties":{"ele":"862","name":"Mont Grazian","name:it":"Monte Grazian","natural":"peak","wikidata":"Q3861610"}},
{"type":"Feature","geometry":{"type":"Point","coordinates":[7.4936098,43.909285]},"properties":{"ele":"739","hiking":"yes","information":"guidepost","ref":"119","tourism":"information"}},
{"type":"Feature","geometry":{"type":"Point","coordinates":[7.4776889,43.923921]},"properties":{"historic":"memorial"}},
{"type":"Feature","geometry":{"type":"Point","coordinates":[7.504069,43.9008832]},"properties":{"hiking":"yes","information":"guidepost","ref":"116","tourism":"information"}},
{"type":"Feature","geometry":{"type":"Point","coordinates":[7.5134675,43.9061602]},"properties":{"hiking":"yes","information":"guidepost","ref":"439","tourism":"information"}},
{"type":"Feature","geometry":{"type":"Point","coordinates":[7.5146125,43.9022054]},"properties":{"hiking":"yes","information":"guidepost","ref":"113","tourism":"information"}},
{"type":"Feature","geometry":{"type":"Point","coordinates":[7.4924616,43.9034607]},"properties":{"historic":"boundary_stone","name":"F-I-1927"}},
{"type":"Feature","geometry":{"type":"Point","coordinates":[7.4922394,43.9059773]},"properties":{"historic":"boundary_stone","name":"F-I-1927"}},
{"type":"Feature","geometry":{"type":"Point","coordinates":[7.4770546,43.9243947]},"properties":{"hiking":"yes","information":"guidepost","mtb":"yes","ref":"124","tourism":"information"}},
{"type":"Feature","geometry":{"type":"Point","coordinates":[7.5074603,43.9007517]},"properties":{"hiking":"yes","information":"guidepost","ref":"115","tourism":"information"}},
{"type":"Feature","geometry":{"type":"Point","coordinates":[7.454432,43.9526362]},"properties":{"ele":"1750","man_made":"beacon","mountain_pass":"yes","name":"Baisse de la Déa","natural":"saddle","ref":"141"}},
{"type":"Feature","geometry":{"type":"Point","coordinates":[7.4806745,43.9529742]},"properties":{"hiking":"yes","information":"guidepost","ref":"135","tourism":"information"}},
{"type":"Feature","geometry":{"type":"Point","coordinates":[7.4617408,43.8450296]},"properties":{"hiking":"yes","information":"guidepost","operator":"Conseil Départemental des Alpes-Maritimes","ref":"137","tourism":"information"}},
{"type":"Feature","geometry":{"type":"Point","coordinates":[7.4790385,43.8474047]},"properties":{"ele":"1286","name":"Mont Razet","name:it":"Monte Razetta","natural":"peak"}},
{"type":"Feature","geometry":{"type":"Point","coordinates":[7.4806274,43.8429853]},"properties":{"ele":"1168","name":"La Pierre Pointue","natural":"peak"}},
{"type":"Feature","geometry":{"type":"Point","coordinates":[7.4608591,43.8436423]},"properties":{"hiking":"yes","information":"guidepost","operator":"Conseil Départemental des Alpes-Maritimes","ref":"136","tourism":"information"}},
{"type":"Feature","geometry":{"type":"Point","coordinates":[7.4789975,43.8441158]},"properties":{"hiking":"yes","information":"guidepost","operator":"Conseil Départemental des Alpes-Maritimes","ref":"93","tourism":"information"}},
{"type":"Feature","geometry":{"type":"Point","coordinates":[7.474258,43.8492487]},"properties":{"hiking":"yes","information":"guidepost","operator":"Conseil Départemental des Alpes-Maritimes","ref":"92","tourism":"information"}},
{"type":"Feature","geometry":{"type":"Point","coordinates":[7.5173364,43.9392114]},"properties":{"hiking":"yes","information":"guidepost","ref":"6","tourism":"information"}},
{"type":"Feature","geometry":{"type":"Point","coordinates":[7.5182961,43.9386434]},"properties":{"historic":"castle","name":"Tour de la Cruella"}},
{"type":"Feature","geometry":{"type":"Point","coordinates":[7.519821,43.9447222]},"properties":{"hiking":"yes","information":"guidepost","ref":"9","tourism":"information"}},
{"type":"Feature","geometry":{"type":"Point","coordinates":[7.4936904,43.9093671]},"properties":{"ele":"750","mountain_pass":"yes","name":"Col de Paula","natural":"saddle"}},
{"type":"Feature","geometry":{"type":"Point","coordinates":[7.3617732,43.9702757]},"properties":{"ele":"1568","name":"Tête de Gaglio","natural":"peak"}},
{"type":"Feature","geometry":{"type":"Point","coordinates":[7.5010957,43.7753336]},"properties":{"name":"Hôtel Méditerranée","stars":"3","tourism":"hotel","wheelchair":"yes"}},
{"type":"Feature","geometry":{"type":"Point","coordinates":[7.482436,43.759052]},"properties":{"name":"Reine d'azur","phone":"+33 4 93 35 76 84","tourism":"hotel"}},
{"type":"Feature","geometry":{"type":"Point","coordinates":[7.4813786,43.7576312]},"properties":{"addr:postcode":"06190","city":"Roquebrune-Cap-Martin","contact:email":"info@hotel-victoria.fr","contact:fax":"+33 4 93 28 27 02","contact:phone":"+33 4 93 35 65 90","contact:website":"http://www.hotel-victoria.fr","description:FR":"Dans un site exceptionnel au bord de mer, avec une vue panoramique allant du Cap Martin à l'Italie, l'Hotel Victoria, d'un confort contemporain, élégant et sans ostentation, est un lieu conçu pour tous les amateurs de l'art de vivre sur la Riviera.","internet_access":"wlan","name":"Victoria","opening_day":"Toute l'année.","phone":"+33 4 93 35 65 90","ref:INSEE:city":"06104","source:modif":"Apidae (2017-11-21), in Opendata PACA","stars":"4","tourism":"hotel","wikidata":"Q111662265"}},
{"type":"Feature","geometry":{"type":"Point","coordinates":[7.4797144,43.7582942]},"properties":{"addr:city":"Roquebrune-Cap-Martin","addr:postcode":"06190","contact:email":"grandcap@franceloc.fr","contact:fax":"+33 4 93 57 49 09","contact:phone":"+33 4 93 28 42 13","contact:website":"http://www.capfun.com","name":"Hôtel Le Grand Cap","opening_hours":"24/7","phone":"+33 4 93 28 42 13","ref:INSEE:city":"06104","source:modif":"Apidae (2017-11-21), in Opendata PACA","stars":"2","tourism":"hotel"}},
{"type":"Feature","geometry":{"type":"Point","coordinates":[7.514498,43.9374046]},"properties":{"amenity":"restaurant","name":"La Bonne Auberge","phone":"+33 4 93 04 41 50","tourism":"hotel"}},
{"type":"Feature","geometry":{"type":"Point","coordinates":[7.5145526,43.9381629]},"properties":{"addr:housenumber":"3","name":"Pizzeria des Alpins","tourism":"hotel"}},
{"type":"Feature","geometry":{"type":"Point","coordinates":[7.4816897,43.7565514]},"properties":{"addr:postcode":"06190","city":"Roquebrune-Cap-Martin","contact:email":"info@alexandrahotel.fr","contact:fax":"+33 4 93 57 96 51","contact:phone":"+33 4 93 35 65 45","contact:website":"http://www.alexandrahotel.fr","description:FR":"Hôtel 3* de 40 chambres situé dans la baie du Cap Martin à 5 km du centre de Monaco. Proximité plages et restaurants.","internet_access":"wlan","name":"Alexandra","opening_day":"Toute l'année.","phone":"+33 4 93 35 65 45","ref:INSEE:city":"06104","source:modif":"Apidae (2017-11-21), in Opendata PACA","stars":"3","tourism":"hotel"}},
{"type":"Feature","geometry":{"type":"Point","coordinates":[7.4640504,43.913479]},"properties":{"ele":"1273","name":"Mont Gros","name:it":"Monte Grosso","natural":"peak","wikidata":"Q31656754"}},
{"type":"Feature","geometry":{"type":"Point","coordinates":[7.4502303,43.7978289]},"properties":{"ele":"792","mountain_pass":"yes","name":"Col de Bausson","natural":"saddle"}},
{"type":"Feature","geometry":{"type":"Point","coordinates":[7.4002146,43.9728319]},"properties":{"ele":"1600","hiking":"yes","information":"guidepost","operator":"Conseil Départemental des Alpes Maritimes","ref":"33","tourism":"information"}},
{"type":"Feature","geometry":{"type":"Point","coordinates":[7.4742819,43.849829]},"properties":{"ele":"1154","mountain_pass":"yes","name":"Baisse de Scuvion","natural":"saddle"}},
{"type":"Feature","geometry":{"type":"Point","coordinates":[7.4832813,43.8484025]},"properties":{"ele":"1094","mountain_pass":"yes","name":"Col de Roulabre","natural":"saddle"}},
{"type":"Feature","geometry":{"type":"Point","coordinates":[7.3874036,43.9343941]},"properties":{"ele":"1276","name":"Baisse de Beccas","natural":"saddle"}},
{"type":"Feature","geometry":{"type":"Point","coordinates":[7.4379544,43.9834793]},"properties":{"hiking":"yes","information":"guidepost","operator":"Conseil Départemental des Alpes-Maritimes","ref":"28b","tourism":"information"}},
{"type":"Feature","geometry":{"type":"Point","coordinates":[7.5067382,43.7757086]},"properties":{"amenity":"drinking_water","artwork_type":"statue","bottle":"yes","fee":"no","fountain":"bottle_refill","opening_hours":"24/7","panoramax":"d88aa432-1817-4221-b0c8-ec717af02ae1","panoramax:0":"8cb32a3a-e789-4160-9a09-b8850b7bcd7f","seasonal":"no","tourism":"artwork"}},
{"type":"Feature","geometry":{"type":"Point","coordinates":[7.4435687,43.9818567]},"properties":{"description":"Camp d'argent 1h.30\nCabanes Vieilles 0h.15","hiking":"yes","information":"guidepost","operator":"Conseil Départemental des Alpes-Maritimes","ref":"151","tourism":"information"}},
{"type":"Feature","geometry":{"type":"Point","coordinates":[7.4158954,43.9472368]},"properties":{"fee":"yes","name":"Camping à la Ferme du Seuillet","payment:cash":"yes","payment:credit_cards":"no","shower":"yes","tents":"yes","toilets":"yes","tourism":"camp_site"}},
{"type":"Feature","geometry":{"type":"Point","coordinates":[7.4044756,43.9036544]},"properties":{"ele":"1018","name":"Cime de Penas","natural":"peak"}},
{"type":"Feature","geometry":{"type":"Point","coordinates":[7.4084013,43.9400889]},"properties":{"historic":"wayside_cross"}},
{"type":"Feature","geometry":{"type":"Point","coordinates":[7.4108781,43.9414629]},"properties":{"hiking":"yes","information":"guidepost","ref":"10","tourism":"information"}},
{"type":"Feature","geometry":{"type":"Point","coordinates":[7.4074744,43.9397508]},"properties":{"hiking":"yes","information":"guidepost","ref":"9","tourism":"information"}},
{"type":"Feature","geometry":{"type":"Point","coordinates":[7.3719438,43.9759607]},"properties":{"historic":"wayside_cross"}},
{"type":"Feature","geometry":{"type":"Point","coordinates":[7.3912684,43.9767252]},"properties":{"hiking":"yes","information":"guidepost","ref":"195","tourism":"information"}},
{"type":"Feature","geometry":{"type":"Point","coordinates":[7.3692036,43.9717597]},"properties":{"hiking":"yes","information":"guidepost","ref":"196","tourism":"information"}},
{"type":"Feature","geometry":{"type":"Point","coordinates":[7.3741655,43.9767715]},"properties":{"hiking":"yes","information":"guidepost","tourism":"information"}},
{"type":"Feature","geometry":{"type":"Point","coordinates":[7.3904924,43.9152836]},"properties":{"ele":"1253","name":"Casque Simon","natural":"saddle"}},
{"type":"Feature","geometry":{"type":"Point","coordinates":[7.4067167,43.9273672]},"properties":{"hiking":"yes","information":"guidepost","operator":"Conseil Départemental des Alpes Maritimes","ref":"13","tourism":"information"}},
{"type":"Feature","geometry":{"type":"Point","coordinates":[7.390402,43.9152866]},"properties":{"hiking":"yes","information":"guidepost","ref":"16a","tourism":"information"}},
{"type":"Feature","geometry":{"type":"Point","coordinates":[7.3938157,43.9168739]},"properties":{"hiking":"yes","information":"guidepost","ref":"16","tourism":"information"}},
{"type":"Feature","geometry":{"type":"Point","coordinates":[7.407234,43.9365465]},"properties":{"hiking":"yes","information":"guidepost","ref":"2","tourism":"information"}},
{"type":"Feature","geometry":{"type":"Point","coordinates":[7.4061195,43.935539]},"properties":{"hiking":"yes","information":"guidepost","ref":"3","tourism":"information"}},
{"type":"Feature","geometry":{"type":"Point","coordinates":[7.3874065,43.9344369]},"properties":{"hiking":"yes","information":"guidepost","ref":"5","tourism":"information"}},
{"type":"Feature","geometry":{"type":"Point","coordinates":[7.3911493,43.940438]},"properties":{"hiking":"yes","information":"guidepost","ref":"7","tourism":"information"}},
{"type":"Feature","geometry":{"type":"Point","coordinates":[7.4003081,43.9381769]},"properties":{"hiking":"yes","information":"guidepost","ref":"8","tourism":"information"}},
{"type":"Feature","geometry":{"type":"Point","coordinates":[7.3910511,43.9777379]},"properties":{"name":"Le Ranch","restaurant":"yes","source:name":"survey","tourism":"hotel"}},
{"type":"Feature","geometry":{"type":"Point","coordinates":[7.3661177,43.9691834]},"properties":{"ele":"1608","name":"Tête de Fracha","natural":"peak"}},
{"type":"Feature","geometry":{"type":"Point","coordinates":[7.5082959,43.841632]},"properties":{"ele":"1379","name":"Monte Grammondo","name:fr":"Mont Grammont","name:it":"Monte Grammondo","name:lij":"Granmundu","natural":"peak","source":"IGN BDTOPO 2021-12-15","source:ele":"IGN RGEALTI 2020-09-15 (Lidar)","wikidata":"Q3861609","wikipedia":"it:Monte Grammondo"}},
{"type":"Feature","geometry":{"type":"Point","coordinates":[7.5099057,43.8421146]},"properties":{"ele":"1376","natural":"peak"}},
{"type":"Feature","geometry":{"type":"Point","coordinates":[7.4773887,43.8486478]},"properties":{"ele":"1287","natural":"peak"}},
{"type":"Feature","geometry":{"type":"Point","coordinates":[7.4618771,43.8000519]},"properties":{"name":"Le Saint-Yves","tourism":"hotel"}},
{"type":"Feature","geometry":{"type":"Point","coordinates":[7.443394,43.8084693]},"properties":{"ele":"942","name":"Pas de la Piastre","natural":"saddle"}},
{"type":"Feature","geometry":{"type":"Point","coordinates":[7.5786471,43.948276]},"properties":{"ele":"1340","name":"Colletta Lunga","natural":"peak"}},
{"type":"Feature","geometry":{"type":"Point","coordinates":[7.5596712,43.8976667]},"properties":{"ele":"1026","name":"Mont Colombin / Monte Colombin","name:fr":"Mont Colombin","name:it":"Monte Colombin","natural":"peak","wikidata":"Q3861466","wikipedia":"it:Monte Colombin"}},
{"type":"Feature","geometry":{"type":"Point","coordinates":[7.498623,43.775849]},"properties":{"source:modif":"Apidae (2017-11-21), in Opendata PACA"}},
{"type":"Feature","geometry":{"type":"Point","coordinates":[7.498647,43.775849]},"properties":{"source:modif":"Apidae (2017-11-21), in Opendata PACA"}},
{"type":"Feature","geometry":{"type":"Point","coordinates":[7.499035,43.775849]},"properties":{"source:modif":"Apidae (2017-11-21), in Opendata PACA"}},
{"type":"Feature","geometry":{"type":"Point","coordinates":[7.499061,43.775849]},"properties":{"source:modif":"Apidae (2017-11-21), in Opendata PACA"}},
{"type":"Feature","geometry":{"type":"Point","coordinates":[7.498873,43.775851]},"properties":{"source:modif":"Apidae (2017-11-21), in Opendata PACA"}},
{"type":"Feature","geometry":{"type":"Point","coordinates":[7.498601,43.775854]},"properties":{"source:modif":"Apidae (2017-11-21), in Opendata PACA"}},
{"type":"Feature","geometry":{"type":"Point","coordinates":[7.49893,43.775854]},"properties":{"source:modif":"Apidae (2017-11-21), in Opendata PACA"}},
{"type":"Feature","geometry":{"type":"Point","coordinates":[7.499015,43.775854]},"properties":{"source:modif":"Apidae (2017-11-21), in Opendata PACA"}},
{"type":"Feature","geometry":{"type":"Point","coordinates":[7.498669,43.775855]},"properties":{"source:modif":"Apidae (2017-11-21), in Opendata PACA"}},
{"type":"Feature","geometry":{"type":"Point","coordinates":[7.498591,43.775859]},"properties":{"source:modif":"Apidae (2017-11-21), in Opendata PACA"}},
{"type":"Feature","geometry":{"type":"Point","coordinates":[7.498678,43.775861]},"properties":{"source:modif":"Apidae (2017-11-21), in Opendata PACA"}},
{"type":"Feature","geometry":{"type":"Point","coordinates":[7.498872,43.775871]},"properties":{"source:modif":"Apidae (2017-11-21), in Opendata PACA"}},
{"type":"Feature","geometry":{"type":"Point","coordinates":[7.498995,43.775871]},"properties":{"source:modif":"Apidae (2017-11-21), in Opendata PACA"}},
{"type":"Feature","geometry":{"type":"Point","coordinates":[7.498576,43.775872]},"properties":{"source:modif":"Apidae (2017-11-21), in Opendata PACA"}},
{"type":"Feature","geometry":{"type":"Point","coordinates":[7.498937,43.775874]},"properties":{"source:modif":"Apidae (2017-11-21), in Opendata PACA"}},
{"type":"Feature","geometry":{"type":"Point","coordinates":[7.498857,43.775875]},"properties":{"source:modif":"Apidae (2017-11-21), in Opendata PACA"}},
{"type":"Feature","geometry":{"type":"Point","coordinates":[7.498928,43.775875]},"properties":{"source:modif":"Apidae (2017-11-21), in Opendata PACA"}},
{"type":"Feature","geometry":{"type":"Point","coordinates":[7.49895,43.775879]},"properties":{"source:modif":"Apidae (2017-11-21), in Opendata PACA"}},
{"type":"Feature","geometry":{"type":"Point","coordinates":[7.498571,43.77588]},"properties":{"source:modif":"Apidae (2017-11-21), in Opendata PACA"}},
{"type":"Feature","geometry":{"type":"Point","coordinates":[7.498697,43.775881]},"properties":{"source:modif":"Apidae (2017-11-21), in Opendata PACA"}},
{"type":"Feature","geometry":{"type":"Point","coordinates":[7.498954,43.775882]},"properties":{"source:modif":"Apidae (2017-11-21), in Opendata PACA"}},
{"type":"Feature","geometry":{"type":"Point","coordinates":[7.498847,43.775883]},"properties":{"source:modif":"Apidae (2017-11-21), in Opendata PACA"}},
{"type":"Feature","geometry":{"type":"Point","coordinates":[7.498568,43.775888]},"properties":{"source:modif":"Apidae (2017-11-21), in Opendata PACA"}},
{"type":"Feature","geometry":{"type":"Point","coordinates":[7.498845,43.775888]},"properties":{"source:modif":"Apidae (2017-11-21), in Opendata PACA"}},
{"type":"Feature","geometry":{"type":"Point","coordinates":[7.498958,43.775892]},"properties":{"source:modif":"Apidae (2017-11-21), in Opendata PACA"}},
{"type":"Feature","geometry":{"type":"Point","coordinates":[7.498987,43.775894]},"properties":{"source:modif":"Apidae (2017-11-21), in Opendata PACA"}},
{"type":"Feature","geometry":{"type":"Point","coordinates":[7.498567,43.775905]},"properties":{"source:modif":"Apidae (2017-11-21), in Opendata PACA"}},
{"type":"Feature","geometry":{"type":"Point","coordinates":[7.498575,43.775921]},"properties":{"source:modif":"Apidae (2017-11-21), in Opendata PACA"}},
{"type":"Feature","geometry":{"type":"Point","coordinates":[7.498591,43.775934]},"properties":{"source:modif":"Apidae (2017-11-21), in Opendata PACA"}},
{"type":"Feature","geometry":{"type":"Point","coordinates":[7.498601,43.775939]},"properties":{"source:modif":"Apidae (2017-11-21), in Opendata PACA"}},
{"type":"Feature","geometry":{"type":"Point","coordinates":[7.498173,43.775941]},"properties":{"addr:postcode":"06500","city":"Menton","contact:email":"hotelclaridges@wanadoo.fr","contact:fax":"+33 4 93 35 42 90","contact:phone":"+33 4 93 35 72 53","contact:website":"http://www.claridges-menton.com","description:FR":"Pour votre étape ou votre séjour à Menton dans le sud-est de la France... l'Hotel Claridge's vous réservera le meilleur accueil.","name":"Claridge's","opening_day":"Toute l'année.","ref:INSEE:city":"06083","source:modif":"Apidae (2017-11-21), in Opendata PACA","stars":"2","tourism":"hotel"}},
{"type":"Feature","geometry":{"type":"Point","coordinates":[7.498835,43.775951]},"properties":{"source:modif":"Apidae (2017-11-21), in Opendata PACA"}},
{"type":"Feature","geometry":{"type":"Point","coordinates":[7.498833,43.77597]},"properties":{"source:modif":"Apidae (2017-11-21), in Opendata PACA"}},
{"type":"Feature","geometry":{"type":"Point","coordinates":[7.498166,43.776028]},"properties":{"source:modif":"Apidae (2017-11-21), in Opendata PACA"}},
{"type":"Feature","geometry":{"type":"Point","coordinates":[7.498259,43.776033]},"properties":{"source:modif":"Apidae (2017-11-21), in Opendata PACA"}},
{"type":"Feature","geometry":{"type":"Point","coordinates":[7.498342,43.776034]},"properties":{"source:modif":"Apidae (2017-11-21), in Opendata PACA"}},
{"type":"Feature","geometry":{"type":"Point","coordinates":[7.498461,43.776043]},"properties":{"source:modif":"Apidae (2017-11-21), in Opendata PACA"}},
{"type":"Feature","geometry":{"type":"Point","coordinates":[7.49851,43.776063]},"properties":{"source:modif":"Apidae (2017-11-21), in Opendata PACA"}},
{"type":"Feature","geometry":{"type":"Point","coordinates":[7.498591,43.776066]},"properties":{"source:modif":"Apidae (2017-11-21), in Opendata PACA"}},
{"type":"Feature","geometry":{"type":"Point","coordinates":[7.498256,43.776072]},"properties":{"source:modif":"Apidae (2017-11-21), in Opendata PACA"}},
{"type":"Feature","geometry":{"type":"Point","coordinates":[7.498339,43.776076]},"properties":{"source:modif":"Apidae (2017-11-21), in Opendata PACA"}},
{"type":"Feature","geometry":{"type":"Point","coordinates":[7.498456,43.776101]},"properties":{"source:modif":"Apidae (2017-11-21), in Opendata PACA"}},
{"type":"Feature","geometry":{"type":"Point","coordinates":[7.498507,43.776103]},"properties":{"source:modif":"Apidae (2017-11-21), in Opendata PACA"}},
{"type":"Feature","geometry":{"type":"Point","coordinates":[7.498856,43.776103]},"properties":{"source:modif":"Apidae (2017-11-21), in Opendata PACA"}},
{"type":"Feature","geometry":{"type":"Point","coordinates":[7.498951,43.776109]},"properties":{"source:modif":"Apidae (2017-11-21), in Opendata PACA"}},
{"type":"Feature","geometry":{"type":"Point","coordinates":[7.498847,43.776125]},"properties":{"source:modif":"Apidae (2017-11-21), in Opendata PACA"}},
{"type":"Feature","geometry":{"type":"Point","coordinates":[7.498854,43.776125]},"properties":{"source:modif":"Apidae (2017-11-21), in Opendata PACA"}},
{"type":"Feature","geometry":{"type":"Point","coordinates":[7.498844,43.776151]},"properties":{"source:modif":"Apidae (2017-11-21), in Opendata PACA"}},
{"type":"Feature","geometry":{"type":"Point","coordinates":[7.498872,43.776154]},"properties":{"source:modif":"Apidae (2017-11-21), in Opendata PACA"}},
{"type":"Feature","geometry":{"type":"Point","coordinates":[7.49881,43.776169]},"properties":{"source:modif":"Apidae (2017-11-21), in Opendata PACA"}},
{"type":"Feature","geometry":{"type":"Point","coordinates":[7.49884,43.776172]},"properties":{"source:modif":"Apidae (2017-11-21), in Opendata PACA"}},
{"type":"Feature","geometry":{"type":"Point","coordinates":[7.49884,43.776177]},"properties":{"source:modif":"Apidae (2017-11-21), in Opendata PACA"}},
{"type":"Feature","geometry":{"type":"Point","coordinates":[7.49887,43.776178]},"properties":{"source:modif":"Apidae (2017-11-21), in Opendata PACA"}},
{"type":"Feature","geometry":{"type":"Point","coordinates":[7.498943,43.776203]},"properties":{"source:modif":"Apidae (2017-11-21), in Opendata PACA"}},
{"type":"Feature","geometry":{"type":"Point","coordinates":[7.49903,43.776207]},"properties":{"source:modif":"Apidae (2017-11-21), in Opendata PACA"}},
{"type":"Feature","geometry":{"type":"Point","coordinates":[7.498569,43.776322]},"properties":{"source:modif":"Apidae (2017-11-21), in Opendata PACA"}},
{"type":"Feature","geometry":{"type":"Point","coordinates":[7.498569,43.776324]},"properties":{"source:modif":"Apidae (2017-11-21), in Opendata PACA"}},
{"type":"Feature","geometry":{"type":"Point","coordinates":[7.498789,43.776336]},"properties":{"source:modif":"Apidae (2017-11-21), in Opendata PACA"}},
{"type":"Feature","geometry":{"type":"Point","coordinates":[7.5118153,43.7826798]},"properties":{"addr:city":"Menton","addr:postcode":"06500","contact:email":"contact@hotelorly.fr","contact:fax":"+33 4 93 35 49 13","contact:phone":"+33 4 93 35 60 81","contact:website":"http://www.hotelorly.fr","name":"ORLY","ref:INSEE:city":"06083","source:modif":"Apidae (2017-11-21), in Opendata PACA","stars":"3","tourism":"hotel"}},
{"type":"Feature","geometry":{"type":"Point","coordinates":[7.5118307,43.7826634]},"properties":{"source:modif":"Apidae (2017-11-21), in Opendata PACA"}},
{"type":"Feature","geometry":{"type":"Point","coordinates":[7.5117043,43.7828048]},"properties":{"source:modif":"Apidae (2017-11-21), in Opendata PACA"}},
{"type":"Feature","geometry":{"type":"Point","coordinates":[7.5118653,43.7828789]},"properties":{"source:modif":"Apidae (2017-11-21), in Opendata PACA"}},
{"type":"Feature","geometry":{"type":"Point","coordinates":[7.517698,43.784396]},"properties":{"source:modif":"Apidae (2017-11-21), in Opendata PACA"}},
{"type":"Feature","geometry":{"type":"Point","coordinates":[7.517679,43.784423]},"properties":{"source:modif":"Apidae (2017-11-21), in Opendata PACA"}},
{"type":"Feature","geometry":{"type":"Point","coordinates":[7.517693,43.784428]},"properties":{"source:modif":"Apidae (2017-11-21), in Opendata PACA"}},
{"type":"Feature","geometry":{"type":"Point","coordinates":[7.517651,43.784441]},"properties":{"source:modif":"Apidae (2017-11-21), in Opendata PACA"}},
{"type":"Feature","geometry":{"type":"Point","coordinates":[7.517677,43.784451]},"properties":{"source:modif":"Apidae (2017-11-21), in Opendata PACA"}},
{"type":"Feature","geometry":{"type":"Point","coordinates":[7.517604,43.784506]},"properties":{"source:modif":"Apidae (2017-11-21), in Opendata PACA"}},
{"type":"Feature","geometry":{"type":"Point","coordinates":[7.517689,43.784538]},"properties":{"source:modif":"Apidae (2017-11-21), in Opendata PACA"}},
{"type":"Feature","geometry":{"type":"Point","coordinates":[7.517653,43.784584]},"properties":{"source:modif":"Apidae (2017-11-21), in Opendata PACA"}},
{"type":"Feature","geometry":{"type":"Point","coordinates":[7.517684,43.784596]},"properties":{"source:modif":"Apidae (2017-11-21), in Opendata PACA"}},
{"type":"Feature","geometry":{"type":"Point","coordinates":[7.517837,43.784608]},"properties":{"source:modif":"Apidae (2017-11-21), in Opendata PACA"}},
{"type":"Feature","geometry":{"type":"Point","coordinates":[7.517778,43.784633]},"properties":{"source:modif":"Apidae (2017-11-21), in Opendata PACA"}},
{"type":"Feature","geometry":{"type":"Point","coordinates":[7.517798,43.784641]},"properties":{"source:modif":"Apidae (2017-11-21), in Opendata PACA"}},
{"type":"Feature","geometry":{"type":"Point","coordinates":[7.4614736,43.7649038]},"properties":{"barrier":"entrance","historic":"city_gate"}},
{"type":"Feature","geometry":{"type":"Point","coordinates":[7.4376825,43.9237089]},"properties":{"description":"Baisse de la déa 2h.00\nSospel 2h.15\nMoulinet 2h.15","information":"guidepost","tourism":"information"}},
{"type":"Feature","geometry":{"type":"Point","coordinates":[7.4139692,43.9423337]},"properties":{"hiking":"yes","information":"guidepost","ref":"11","tourism":"information"}},
{"type":"Feature","geometry":{"type":"Point","coordinates":[7.4557827,43.9495587]},"properties":{"description":"Moulinet 2h.30","hiking":"yes","information":"guidepost","ref":"142","tourism":"information"}},
{"type":"Feature","geometry":{"type":"Point","coordinates":[7.4465986,43.9341181]},"properties":{"description":"Baisse de la Déa 1h.00\nBaisse de la Liniére 0h.45\nSospel 3h.00 GR","hiking":"yes","information":"guidepost","ref":"23","tourism":"information"}},
{"type":"Feature","geometry":{"type":"Point","coordinates":[7.4476227,43.8275585]},"properties":{"ele":"1239","name":"Mont Ours","natural":"peak","source":"IGN BDTOPO 2021-12-15","source:ele":"IGN RGEALTI 2020-09-15 (Lidar)","wikidata":"Q31635225"}},
{"type":"Feature","geometry":{"type":"Point","coordinates":[7.3824081,43.8935057]},"properties":{"ele":"1149","hiking":"yes","information":"guidepost","name":"Col de l'Ablé","operator":"Conseil Départemental des Alpes-Maritimes","ref":"53","source":"cadastre-dgi-fr source : Direction Générale des Impôts - Cadastre. Mise à jour : 2011","tourism":"information"}},
{"type":"Feature","geometry":{"type":"Point","coordinates":[7.4198766,43.7705113]},"properties":{"ele":"1148","natural":"peak"}},
{"type":"Feature","geometry":{"type":"Point","coordinates":[7.4471762,43.9594762]},"properties":{"ele":"1977","name":"Pointe de Ventabren","natural":"peak"}},
{"type":"Feature","geometry":{"type":"Point","coordinates":[7.4486609,43.877043]},"properties":{"addr:city":"Sospel","addr:housenumber":"14","addr:street":"Rue Saint-Pierre","name":"Le Saint-Pierre","tourism":"guest_house","website":"http://www.sospello.com/","wheelchair":"no"}},
{"type":"Feature","geometry":{"type":"Point","coordinates":[7.4465727,43.8787903]},"properties":{"check_date":"2023-07-31","information":"map","mtb":"yes","operator":"Fédération Française de Cyclisme","tourism":"information"}},
{"type":"Feature","geometry":{"type":"Point","coordinates":[7.4506375,43.891448]},"properties":{"historic":"bunker","military":"bunker"}},
{"type":"Feature","geometry":{"type":"Point","coordinates":[7.4732052,43.9019351]},"properties":{"hiking":"yes","information":"guidepost","operator":"Conseil Départemental des Alpes-Maritimes","tourism":"information"}},
{"type":"Feature","geometry":{"type":"Point","coordinates":[7.4289485,43.8094277]},"properties":{"ele":"1265","name":"Cime de Baudon","natural":"peak","source":"IGN BDTOPO 2021-12-15","source:ele":"IGN RGEALTI 2020-09-15 (Lidar)","wikidata":"Q31651783"}},
{"type":"Feature","geometry":{"type":"Point","coordinates":[7.3717292,43.8140555]},"properties":{"ele":"675","name":"Cime du Castel","natural":"peak","source":"IGN BDTOPO 2021-12-15","source:ele":"IGN RGEALTI 2020-09-15 (Lidar)"}},
{"type":"Feature","geometry":{"type":"Point","coordinates":[7.3661587,43.8611705]},"properties":{"ele":"1002","natural":"peak"}},
{"type":"Feature","geometry":{"type":"Point","coordinates":[7.4918553,43.9261556]},"properties":{"ele":"1123","name":"Cime du Bosc","natural":"peak","wikidata":"Q31656839"}},
{"type":"Feature","geometry":{"type":"Point","coordinates":[7.3938533,43.9287128]},"properties":{"ele":"1489","name":"Cime du Simon","natural":"peak","wikidata":"Q31629794"}},
{"type":"Feature","geometry":{"type":"Point","coordinates":[7.4540677,43.8872485]},"properties":{"ele":"751","name":"Mont Agaisen","natural":"peak","wikidata":"Q31654177"}},
{"type":"Feature","geometry":{"type":"Point","coordinates":[7.4458739,43.9762192]},"properties":{"ele":"1911","name":"Mont Giagiabella","natural":"peak"}},
{"type":"Feature","geometry":{"type":"Point","coordinates":[7.4199183,43.9143757]},"properties":{"ele":"1146","name":"Pointe de l'Aigle","natural":"peak","source":"IGN BDTOPO 2021-12-15","source:ele":"IGN RGEALTI 2020-09-15"}},
{"type":"Feature","geometry":{"type":"Point","coordinates":[7.369995,43.9393968]},"properties":{"ele":"1581","name":"Cime de Peïra Cava","natural":"peak","wikidata":"Q2972414","wikipedia":"fr:Cime de Peïra-Cava"}},
{"type":"Feature","geometry":{"type":"Point","coordinates":[7.4088954,43.8769564]},"properties":{"ele":"1097","name":"Cime de Ventabren","natural":"peak","source":"IGN BDTOPO 2021-12-15"}},
{"type":"Feature","geometry":{"type":"Point","coordinates":[7.4083932,43.8456197]},"properties":{"ele":"1187","name":"Cime du Farguet","natural":"peak","source":"IGN BDTOPO 2021-12-15","source:ele":"IGN RGEALTI 2020-09-15 (Lidar)"}},
{"type":"Feature","geometry":{"type":"Point","coordinates":[7.4339965,43.8624365]},"properties":{"ele":"848","name":"Mont Barbonnet","natural":"peak","source":"IGN BDTOPO 2021-12-15","source:ele":"IGN RGEALTI 2020-09-15 (Lidar)"}},
{"type":"Feature","geometry":{"type":"Point","coordinates":[7.3952246,43.7887755]},"properties":{"ele":"805","name":"Cime de Rastel","natural":"peak","source":"IGN BDTOPO 2021-12-15","source:ele":"IGN RGEALTI 2020-09-15 (Lidar)","wikidata":"Q31632482"}},
{"type":"Feature","geometry":{"type":"Point","coordinates":[7.3874902,43.7669525]},"properties":{"ele":"617","name":"Cime de la Caussinièra","natural":"peak","source":"IGN BDTOPO 2021-12-15","source:ele":"IGN RGEALTI 2020-09-15 (Lidar)"}},
{"type":"Feature","geometry":{"type":"Point","coordinates":[7.5523967,43.9196336]},"properties":{"ele":"1420","name":"Roche Fourquin","natural":"peak"}},
{"type":"Feature","geometry":{"type":"Point","coordinates":[7.3859631,43.9709085]},"properties":{"ele":"1786","fixme":"Position et altitude du sommet approximatives (RADAR). À ajuster lorsque le RGE ALTI Lidar sera disponible dans cette zone.","name":"Cime de la Calmette","natural":"peak","source":"IGN BDTOPO 2021-12-15","source:ele":"IGN RGEALTI 2020-09-15 (RADAR)","wikidata":"Q31649806","wikipedia":"fr:Cime de la Calmette"}},
{"type":"Feature","geometry":{"type":"Point","coordinates":[7.4635145,43.8006635]},"properties":{"ele":"766","natural":"peak"}},
{"type":"Feature","geometry":{"type":"Point","coordinates":[7.5528693,43.9484646]},"properties":{"ele":"1611","name":"L'Arpette","name:it":"Monte l'Arpetta","natural":"peak","source":"IGN BDTOPO 2021-12-15"}},
{"type":"Feature","geometry":{"type":"Point","coordinates":[7.4892403,43.9219515]},"properties":{"historic":"wayside_cross","name":"Croce Celtica"}},
{"type":"Feature","geometry":{"type":"Point","coordinates":[7.5072997,43.9826345]},"properties":{"ele":"1415","name":"Cime de Colla Bassa","natural":"peak","wikidata":"Q31647181"}},
{"type":"Feature","geometry":{"type":"Point","coordinates":[7.5209646,43.891632799999999]},"properties":{"ele":"676","name":"Cime du Tron","natural":"peak"}},
{"type":"Feature","geometry":{"type":"Point","coordinates":[7.5261956,43.9818246]},"properties":{"ele":"1117","natural":"peak"}},
{"type":"Feature","geometry":{"type":"Point","coordinates":[7.4736982,43.8118453]},"properties":{"ele":"489","name":"Col de Rencurel","natural":"saddle"}},
{"type":"Feature","geometry":{"type":"Point","coordinates":[7.4526696,43.8782388]},"properties":{"hiking":"yes","information":"guidepost","operator":"Conseil départemental des Alpes-Maritimes","source":"cadastre-dgi-fr source : Direction Générale des Impôts - Cadastre. Mise à jour : 2012","tourism":"information"}},
{"type":"Feature","geometry":{"type":"Point","coordinates":[7.4486006,43.8788746]},"properties":{"hiking":"yes","information":"guidepost","operator":"Conseil Départemental des Alpes-Maritimes","source":"cadastre-dgi-fr source : Direction Générale des Impôts - Cadastre. Mise à jour : 2012","tourism":"information"}},
{"type":"Feature","geometry":{"type":"Point","coordinates":[7.495457,43.861635]},"properties":{"ele":"1126","name":"Sommet de la Serréa","natural":"peak","source":"cadastre-dgi-fr source : Direction Générale des Impôts - Cadastre. Mise à jour : 2012"}},
{"type":"Feature","geometry":{"type":"Point","coordinates":[7.4856779,43.8867615]},"properties":{"description":"Est:  Pont de Caï, Olivetta GR-510\nOuest: Sospel GR-510","ele":"300","hiking":"yes","information":"guidepost","operator":"Conseil Départemental des Alpes-Maritimes","ref":"89","source":"cadastre-dgi-fr source : Direction Générale des Impôts - Cadastre. Mise à jour : 2012","tourism":"information"}},
{"type":"Feature","geometry":{"type":"Point","coordinates":[7.4154045,43.8993667]},"properties":{"name":"Cascade du Piaon","waterway":"waterfall"}},
{"type":"Feature","geometry":{"type":"Point","coordinates":[7.5069107,43.7748136]},"properties":{"leaf_type":"broadleaved","natural":"tree"}},
{"type":"Feature","geometry":{"type":"Point","coordinates":[7.5068736,43.7748949]},"properties":{"leaf_type":"broadleaved","natural":"tree"}},
{"type":"Feature","geometry":{"type":"Point","coordinates":[7.5067655,43.7749389]},"properties":{"leaf_type":"broadleaved","natural":"tree"}},
{"type":"Feature","geometry":{"type":"Point","coordinates":[7.5068445,43.7749587]},"properties":{"leaf_type":"broadleaved","natural":"tree"}},
{"type":"Feature","geometry":{"type":"Point","coordinates":[7.5067342,43.7750077]},"properties":{"leaf_type":"broadleaved","natural":"tree"}},
{"type":"Feature","geometry":{"type":"Point","coordinates":[7.5068127,43.7750283]},"properties":{"leaf_type":"broadleaved","natural":"tree"}},
{"type":"Feature","geometry":{"type":"Point","coordinates":[7.444142,43.7913462]},"properties":{"barrier":"yes"}},
{"type":"Feature","geometry":{"type":"Point","coordinates":[7.4435887,43.7867037]},"properties":{"denotation":"natural_monument","genus":"Ulmus","historic":"yes","leaf_cycle":"deciduous","leaf_type":"broadleaved","name":"L'Orme de Gorbio","natural":"tree","source":"cadastre-dgi-fr source : Direction Générale des Impôts - Cadastre. Mise à jour : 2012","start_date":"1713","tourism":"attraction","website":"https://www.gorbio.fr/lorme","wikimedia_commons":"File:Gorbio (l'orme1).jpg"}},
{"type":"Feature","geometry":{"type":"Point","coordinates":[7.5146143,43.8152307]},"properties":{"ele":"1148","name":"Cime de Restaud","name:fr":"Cime de Restaud","name:it":"Cima Longoira","name:lij":"Çima Longöira","natural":"peak","source":"IGN BDTOPO 2021-12-15","source:ele":"IGN RGEALTI 2020-09-15 (Lidar)"}},
{"type":"Feature","geometry":{"type":"Point","coordinates":[7.5250342,43.7963984]},"properties":{"ele":"625","name":"La Gardieura","natural":"peak","source":"cadastre-dgi-fr source : Direction Générale des Impôts - Cadastre. Mise à jour : 2012"}},
{"type":"Feature","geometry":{"type":"Point","coordinates":[7.4623406,43.7985194]},"properties":{"tourism":"viewpoint"}},
{"type":"Feature","geometry":{"type":"Point","coordinates":[7.4559266,43.8002521]},"properties":{"name":"web-cam","tourism":"viewpoint"}},
{"type":"Feature","geometry":{"type":"Point","coordinates":[7.4593419,43.8201507]},"properties":{"ele":"935","historic":"memorial","mountain_pass":"yes","name":"Col de Verroux","natural":"saddle","tourism":"viewpoint"}},
{"type":"Feature","geometry":{"type":"Point","coordinates":[7.4476045,43.8277608]},"properties":{"name":"Fort du Mont Ours","tourism":"viewpoint"}},
{"type":"Feature","geometry":{"type":"Point","coordinates":[7.4592432,43.8164569]},"properties":{"ele":"1053","name":"Pointe Siricocca","natural":"peak","source":"IGN BDTOPO 2021-12-15","source:ele":"IGN RGEALTI 2020-09-15 (Lidar)","tourism":"viewpoint"}},
{"type":"Feature","geometry":{"type":"Point","coordinates":[7.5137408,43.7846439]},"properties":{"leisure":"playground","name":"Parc départemental du Pian"}},
{"type":"Feature","geometry":{"type":"Point","coordinates":[7.5209593,43.7843954]},"properties":{"name":"capitainerie","tourism":"information"}},
{"type":"Feature","geometry":{"type":"Point","coordinates":[7.5054033,43.8985434]},"properties":{"hiking":"yes","information":"guidepost","ref":"440","tourism":"information"}},
{"type":"Feature","geometry":{"type":"Point","coordinates":[7.5076701,43.8824886]},"properties":{"hiking":"yes","information":"guidepost","ref":"443","tourism":"information"}},
{"type":"Feature","geometry":{"type":"Point","coordinates":[7.4587763,43.7650097]},"properties":{"addr:city":"Roquebrune-Cap-Martin","addr:housenumber":"1","addr:postcode":"06190","addr:street":"Place des Deux Frères","amenity":"restaurant","city":"Roquebrune-Cap-Martin","description:FR":"Situé entre Monaco et la frontière Italienne, sur le bord de mer de Roquebrune Cap Martin à 2km de Menton, notre hôtel Reine d'Azur vous accueille dans ses 2 bâtiments.","email":"info@lesdeuxfreres.com","name":"Les Deux Frères","opening_day":"Toute l'année.","phone":"+33 680 86 22 41","ref:INSEE:city":"06104","source":"Bing","source:modif":"Apidae (2017-11-21), in Opendata PACA","stars":"2","tourism":"hotel","website":"http://www.lesdeuxfreres.com/"}},
{"type":"Feature","geometry":{"type":"Point","coordinates":[7.5045243,43.7755996]},"properties":{"name":"Auberge Provençale","tourism":"hotel"}},
{"type":"Feature","geometry":{"type":"Point","coordinates":[7.4442146,43.7509573]},"properties":{"internet_access":"wlan","internet_access:fee":"customers","name":"Monte Carlo Beach Hotel","operator":"SBM","phone":"+377 98 06 20 00","stars":"5","tourism":"hotel","website":"https://www.montecarlosbm.com/en/hotel-monaco/monte-carlo-beach","wikidata":"Q3322506","wikipedia":"en:Monte-Carlo Beach"}},
{"type":"Feature","geometry":{"type":"Point","coordinates":[7.4455226,43.8917586]},"properties":{"description":"Petite plaque funeraire","historic":"memorial","source":"survey"}},
{"type":"Feature","geometry":{"type":"Point","coordinates":[7.4124795,43.9358836]},"properties":{"description":"arrow and Via Alpina logo","information":"guidepost","source":"survey","tourism":"information"}},
{"type":"Feature","geometry":{"type":"Point","coordinates":[7.3914396,43.9777344]},"properties":{"historic":"memorial","memorial":"war_memorial","memorial:conflict":"WW2","name":"Stèle commémorative des fusillés","ref:FR:MemorialGenWeb":"53706","source":"survey"}},
{"type":"Feature","geometry":{"type":"Point","coordinates":[7.3628193,43.9299147]},"properties":{"leisure":"playground"}},
{"type":"Feature","geometry":{"type":"Point","coordinates":[7.3882471,43.9826857]},"properties":{"tourism":"picnic_site"}},
{"type":"Feature","geometry":{"type":"Point","coordinates":[7.363496,43.9300019]},"properties":{"tourism":"viewpoint"}},
{"type":"Feature","geometry":{"type":"Point","coordinates":[7.3624142,43.9414357]},"properties":{"leisure":"sports_centre","name":"Peira Cava Aventures","sport":"climbing_adventure","website":"https://peiracava-aventures.fr/"}},
{"type":"Feature","geometry":{"type":"Point","coordinates":[7.3600839,43.9228879]},"properties":{"name":"Chalet-Club L'Albaréa","tourism":"hotel"}},
{"type":"Feature","geometry":{"type":"Point","coordinates":[7.3599337,43.9229188]},"properties":{"leisure":"sports_centre"}},
{"type":"Feature","geometry":{"type":"Point","coordinates":[7.3624443,43.9293402]},"properties":{"tourism":"picnic_site"}},
{"type":"Feature","geometry":{"type":"Point","coordinates":[7.3610173,43.9397705]},"properties":{"tourism":"picnic_site"}},
{"type":"Feature","geometry":{"type":"Point","coordinates":[7.3617469,43.8833592]},"properties":{"historic":"monument"}},
{"type":"Feature","geometry":{"type":"Point","coordinates":[7.3594188,43.8839043]},"properties":{"tourism":"guest_house"}},
{"type":"Feature","geometry":{"type":"Point","coordinates":[7.3615857,43.8834835]},"properties":{"name":"Musée des Vieux-Outils","tourism":"museum"}},
{"type":"Feature","geometry":{"type":"Point","coordinates":[7.3606186,43.884019]},"properties":{"name":"Musée de La Crèche","tourism":"museum"}},
{"type":"Feature","geometry":{"type":"Point","coordinates":[7.5069481,43.7745383]},"properties":{"leaf_type":"broadleaved","natural":"tree"}},
{"type":"Feature","geometry":{"type":"Point","coordinates":[7.5070261,43.7745607]},"properties":{"leaf_type":"broadleaved","natural":"tree"}},
{"type":"Feature","geometry":{"type":"Point","coordinates":[7.506909,43.7746241]},"properties":{"leaf_type":"broadleaved","natural":"tree"}},
{"type":"Feature","geometry":{"type":"Point","coordinates":[7.5069869,43.7746465]},"properties":{"leaf_type":"broadleaved","natural":"tree"}},
{"type":"Feature","geometry":{"type":"Point","coordinates":[7.5068685,43.7747128]},"properties":{"leaf_type":"broadleaved","natural":"tree"}},
{"type":"Feature","geometry":{"type":"Point","coordinates":[7.5069464,43.7747352]},"properties":{"leaf_type":"broadleaved","natural":"tree"}},
{"type":"Feature","geometry":{"type":"Point","coordinates":[7.506833,43.7747908]},"properties":{"leaf_type":"broadleaved","natural":"tree"}},
{"type":"Feature","geometry":{"type":"Point","coordinates":[7.5067947,43.7748749]},"properties":{"leaf_type":"broadleaved","natural":"tree"}},
{"type":"Feature","geometry":{"type":"Point","coordinates":[7.4905936,43.7689665]},"properties":{"name":"Villa Genesis","source":"Bing","tourism":"hotel","wikidata":"Q112016197"}},
{"type":"Feature","geometry":{"type":"Point","coordinates":[7.4913453,43.7686757]},"properties":{"internet_access":"wlan","name":"Le Dauphin","source":"Bing","tourism":"hotel"}},
{"type":"Feature","geometry":{"type":"Point","coordinates":[7.4917153,43.7693908]},"properties":{"addr:postcode":"06500","city":"Menton","contact:email":"contact@hotel-pavillon-imperial.com","contact:fax":"+33 4 93 78 98 35","contact:phone":"+33 4 93 35 75 69","contact:website":"http://www.hotel-pavillon-imperial.com","name":"Pavillon Impérial","opening_day":"Toute l'année.","ref:INSEE:city":"06083","source":"Bing","source:modif":"Apidae (2017-11-21), in Opendata PACA","stars":"2","tourism":"hotel"}},
{"type":"Feature","geometry":{"type":"Point","coordinates":[7.493264,43.7699671]},"properties":{"internet_access":"wlan","name":"Princess & Richmond","source":"Bing","tourism":"hotel"}},
{"type":"Feature","geometry":{"type":"Point","coordinates":[7.4930124,43.7697907]},"properties":{"air_conditioning":"yes","internet_access":"wlan","name":"Riva","source":"Bing","tourism":"hotel"}},
{"type":"Feature","geometry":{"type":"Point","coordinates":[7.4954637,43.7715217]},"properties":{"name":"de Londres","source":"Bing","tourism":"hotel"}},
{"type":"Feature","geometry":{"type":"Point","coordinates":[7.5057931,43.7747355]},"properties":{"name":"Musée Jean Cocteau - Collection Severin Wunderman","tourism":"museum","website":"https://museecocteaumenton.fr","wheelchair":"yes","wikidata":"Q3329214"}},
{"type":"Feature","geometry":{"type":"Point","coordinates":[7.4434693,43.7545198]},"properties":{"direction":"forward","highway":"give_way"}},
{"type":"Feature","geometry":{"type":"Point","coordinates":[7.4479202,43.8793044]},"properties":{"hiking":"yes","information":"guidepost","ref":"72","tourism":"information"}},
{"type":"Feature","geometry":{"type":"Point","coordinates":[7.3606146,43.8840646]},"properties":{"hiking":"yes","information":"guidepost","operator":"Conseil Départemental des Alpes-Maritimes","ref":"170","tourism":"information"}},
{"type":"Feature","geometry":{"type":"Point","coordinates":[7.4980368,43.8264378]},"properties":{"ele":"769","hiking":"yes","information":"guidepost","name":"Col Saint-Bernard","operator":"Conseil Départemental des Alpes-Maritimes","tourism":"information"}},
{"type":"Feature","geometry":{"type":"Point","coordinates":[7.5115165,43.8240224]},"properties":{"hiking":"yes","information":"guidepost","name":"Pas de la Corne","ref":"94a","tourism":"information"}},
{"type":"Feature","geometry":{"type":"Point","coordinates":[7.5116002,43.8238861]},"properties":{"ele":"1046","hiking":"yes","information":"guidepost","name":"Passo della Cornà","tourism":"information"}},
{"type":"Feature","geometry":{"type":"Point","coordinates":[7.4899348,43.8187694]},"properties":{"hiking":"yes","information":"guidepost","operator":"Conseil Départemental des Alpes-Maritimes","ref":"418","tourism":"information"}},
{"type":"Feature","geometry":{"type":"Point","coordinates":[7.5120696,43.8242956]},"properties":{"hiking":"yes","information":"guidepost","tourism":"information"}},
{"type":"Feature","geometry":{"type":"Point","coordinates":[7.4867437,43.8499486]},"properties":{"ele":"1032","hiking":"yes","information":"guidepost","old_ref":"90","operator":"Conseil Départemental des Alpes-Maritimes","ref":"17","tourism":"information"}},
{"type":"Feature","geometry":{"type":"Point","coordinates":[7.5041752,43.8267238]},"properties":{"ele":"820","hiking":"yes","information":"guidepost","name":"Mourga","old_ref":"95c","operator":"Conseil Départemental des Alpes-Maritimes","ref":"15","tourism":"information"}},
{"type":"Feature","geometry":{"type":"Point","coordinates":[7.5095218,43.8185773]},"properties":{"hiking":"yes","information":"guidepost","old_ref":"408","operator":"Conseil Départemental des Alpes-Maritimes","ref":"12","tourism":"information"}},
{"type":"Feature","geometry":{"type":"Point","coordinates":[7.5063056,43.8238998]},"properties":{"hiking":"yes","information":"guidepost","operator":"Conseil Départemental des Alpes-Maritimes","ref":"14","tourism":"information"}},
{"type":"Feature","geometry":{"type":"Point","coordinates":[7.4987008,43.8263581]},"properties":{"hiking":"yes","information":"guidepost","operator":"Conseil Départemental des Alpes-Maritimes","tourism":"information"}},
{"type":"Feature","geometry":{"type":"Point","coordinates":[7.5134001,43.8414889]},"properties":{"hiking":"yes","information":"guidepost","tourism":"information"}},
{"type":"Feature","geometry":{"type":"Point","coordinates":[7.5013429,43.8425738]},"properties":{"hiking":"yes","information":"guidepost","name":"Colla Bassa","old_ref":"95","operator":"Conseil Départemental des Alpes-Maritimes","ref":"16","tourism":"information"}},
{"type":"Feature","geometry":{"type":"Point","coordinates":[7.5049753,43.8419598]},"properties":{"hiking":"yes","information":"guidepost","operator":"Conseil Départemental des Alpes-Maritimes","ref":"94","tourism":"information"}},
{"type":"Feature","geometry":{"type":"Point","coordinates":[7.4040447,43.8627219]},"properties":{"ele":"1080","name":"Col de Faravel","natural":"saddle"}},
{"type":"Feature","geometry":{"type":"Point","coordinates":[7.3952886,43.7683212]},"properties":{"hiking":"yes","information":"guidepost","lwn_ref":"583","tourism":"information"}},
{"type":"Feature","geometry":{"type":"Point","coordinates":[7.3859341,43.7774584]},"properties":{"hiking":"yes","information":"guidepost","lwn_ref":"584","tourism":"information"}},
{"type":"Feature","geometry":{"type":"Point","coordinates":[7.4017903,43.8035373]},"properties":{"hiking":"yes","information":"guidepost","tourism":"information"}},
{"type":"Feature","geometry":{"type":"Point","coordinates":[7.4029191,43.8050172]},"properties":{"hiking":"yes","information":"guidepost","note":"Référence manquante, à relever sur le terrain","operator":"Conseil Départemental des Alpes-Maritimes","tourism":"information"}},
{"type":"Feature","geometry":{"type":"Point","coordinates":[7.4051547,43.8078642]},"properties":{"hiking":"yes","information":"guidepost","note":"Référence manquante, à relever sur le terrain","operator":"Conseil Départemental des Alpes-Maritimes","tourism":"information"}},
{"type":"Feature","geometry":{"type":"Point","coordinates":[7.4112783,43.8446256]},"properties":{"hiking":"yes","information":"guidepost","tourism":"information"}},
{"type":"Feature","geometry":{"type":"Point","coordinates":[7.4110517,43.8450939]},"properties":{"hiking":"yes","information":"guidepost","ref":"116","tourism":"information"}},
{"type":"Feature","geometry":{"type":"Point","coordinates":[7.408449,43.8535903]},"properties":{"hiking":"yes","information":"guidepost","tourism":"information"}},
{"type":"Feature","geometry":{"type":"Point","coordinates":[7.428109,43.8607082]},"properties":{"hiking":"yes","information":"guidepost","tourism":"information"}},
{"type":"Feature","geometry":{"type":"Point","coordinates":[7.4248927,43.8615957]},"properties":{"hiking":"yes","information":"guidepost","tourism":"information"}},
{"type":"Feature","geometry":{"type":"Point","coordinates":[7.4431494,43.8757534]},"properties":{"hiking":"yes","information":"guidepost","tourism":"information"}},
{"type":"Feature","geometry":{"type":"Point","coordinates":[7.4473932,43.8785608]},"properties":{"hiking":"yes","information":"guidepost","ref":"70","tourism":"information"}},
{"type":"Feature","geometry":{"type":"Point","coordinates":[7.4484227,43.8789241]},"properties":{"hiking":"yes","information":"guidepost","tourism":"information"}},
{"type":"Feature","geometry":{"type":"Point","coordinates":[7.4511143,43.8796558]},"properties":{"hiking":"yes","information":"guidepost","ref":"81","tourism":"information"}},
{"type":"Feature","geometry":{"type":"Point","coordinates":[7.4502318,43.8924559]},"properties":{"hiking":"yes","information":"guidepost","mtb":"yes","operator":"Conseil Départemental des Alpes-Maritimes","tourism":"information"}},
{"type":"Feature","geometry":{"type":"Point","coordinates":[7.4611521,43.9170191]},"properties":{"ele":"1088","hiking":"yes","information":"guidepost","ref":"139","tourism":"information"}},
{"type":"Feature","geometry":{"type":"Point","coordinates":[7.4684361,43.9240725]},"properties":{"hiking":"yes","information":"guidepost","ref":"125","tourism":"information"}},
{"type":"Feature","geometry":{"type":"Point","coordinates":[7.4776602,43.9244874]},"properties":{"hiking":"yes","information":"guidepost","tourism":"information"}},
{"type":"Feature","geometry":{"type":"Point","coordinates":[7.4675339,43.9246994]},"properties":{"description":"Parc National Le Mercantour","information":"board","tourism":"information"}},
{"type":"Feature","geometry":{"type":"Point","coordinates":[7.5346482,43.9668828]},"properties":{"hiking":"yes","information":"guidepost","name":"balise qui n'existe plus ?","tourism":"information"}},
{"type":"Feature","geometry":{"type":"Point","coordinates":[7.5337797,43.9671897]},"properties":{"hiking":"yes","information":"guidepost","name":"155","tourism":"information"}},
{"type":"Feature","geometry":{"type":"Point","coordinates":[7.5407121,43.9750114]},"properties":{"hiking":"yes","information":"guidepost","name":"156","tourism":"information"}},
{"type":"Feature","geometry":{"type":"Point","coordinates":[7.5463633,43.9819209]},"properties":{"hiking":"yes","information":"guidepost","name":"16","tourism":"information"}},
{"type":"Feature","geometry":{"type":"Point","coordinates":[7.5466894,43.9829755]},"properties":{"hiking":"yes","information":"guidepost","name":"17","tourism":"information"}},
{"type":"Feature","geometry":{"type":"Point","coordinates":[7.5889797,43.9717718]},"properties":{"hiking":"yes","information":"guidepost","ref":"166","source":"Bing","tourism":"information"}},
{"type":"Feature","geometry":{"type":"Point","coordinates":[7.5686667,43.9803443]},"properties":{"hiking":"yes","information":"guidepost","tourism":"information"}},
{"type":"Feature","geometry":{"type":"Point","coordinates":[7.5568312,43.982249]},"properties":{"ele":"480","hiking":"yes","information":"guidepost","ref":"161","tourism":"information"}},
{"type":"Feature","geometry":{"type":"Point","coordinates":[7.3906815,43.8899982]},"properties":{"tourism":"picnic_site"}},
{"type":"Feature","geometry":{"type":"Point","coordinates":[7.3819256,43.8934335]},"properties":{"tourism":"viewpoint"}},
{"type":"Feature","geometry":{"type":"Point","coordinates":[7.381948,43.8936178]},"properties":{"tourism":"picnic_site"}},
{"type":"Feature","geometry":{"type":"Point","coordinates":[7.4689645,43.7563162]},"properties":{"hiking":"yes","information":"guidepost","name":"Dragonnière","tourism":"information"}},
{"type":"Feature","geometry":{"type":"Point","coordinates":[7.5130485,43.7820166]},"properties":{"leisure":"playground"}},
{"type":"Feature","geometry":{"type":"Point","coordinates":[7.5059968,43.7790267]},"properties":{"name":"Le Trabuquet","tourism":"viewpoint","wheelchair":"yes"}},
{"type":"Feature","geometry":{"type":"Point","coordinates":[7.516946,43.9462304]},"properties":{"addr:city":"Breil sur Roya","addr:housenumber":"25","addr:postcode":"06540","addr:street":"Rue Paul Séjourné","fee":"yes","museum":"railway","name":"Écomusée du Haut-pays et des Transports","opening_hours":"May-Sep: Tu-Su 13:30-17:30","tourism":"museum","website":"http://www.ecomusee-breil.fr","wheelchair":"limited","wikidata":"Q3578611","wikipedia":"fr:Écomusée du haut-pays et des transports"}},
{"type":"Feature","geometry":{"type":"Point","coordinates":[7.4547007,43.7611128]},"properties":{"name":"Le Golfe Bleu (apparthotel)","tourism":"hotel"}},
{"type":"Feature","geometry":{"type":"Point","coordinates":[7.4902346,43.7773705]},"properties":{"historic":"monument","name":"Riviera Palace"}},
{"type":"Feature","geometry":{"type":"Point","coordinates":[7.517135,43.8252432]},"properties":{"ele":"1013","name":"Cima di Bravona","natural":"peak","source":"CTR Regione Liguria"}},
{"type":"Feature","geometry":{"type":"Point","coordinates":[7.5168811,43.8215308]},"properties":{"name":"Fontana del Lupo","name:lij":"Funtana d'u Luvu","natural":"spring"}},
{"type":"Feature","geometry":{"type":"Point","coordinates":[7.5098681,43.8331571]},"properties":{"ele":"1198","natural":"peak","source:ele":"IGN RGEALTI 2022-12-05 (Lidar)"}},
{"type":"Feature","geometry":{"type":"Point","coordinates":[7.5087064,43.8478373]},"properties":{"ele":"1248","name":"Punta Monetto","natural":"peak","source":"CTR Regione Liguria"}},
{"type":"Feature","geometry":{"type":"Point","coordinates":[7.5239725,43.8815496]},"properties":{"historic":"ruins"}},
{"type":"Feature","geometry":{"type":"Point","coordinates":[7.5230609,43.884763]},"properties":{"historic":"ruins"}},
{"type":"Feature","geometry":{"type":"Point","coordinates":[7.5232295,43.884856]},"properties":{"historic":"ruins"}},
{"type":"Feature","geometry":{"type":"Point","coordinates":[7.3660226,43.8974204]},"properties":{"hiking":"yes","information":"guidepost","ref":"180","tourism":"information"}},
{"type":"Feature","geometry":{"type":"Point","coordinates":[7.3623719,43.9002813]},"properties":{"hiking":"yes","information":"guidepost","tourism":"information"}},
{"type":"Feature","geometry":{"type":"Point","coordinates":[7.3623746,43.9005198]},"properties":{"ele":"1005","mountain_pass":"yes","name":"Col de l'Orme","natural":"saddle"}},
{"type":"Feature","geometry":{"type":"Point","coordinates":[7.3990247,43.9114755]},"properties":{"hiking":"yes","information":"guidepost","operator":"Conseil Départemental des Alpes Maritimes","ref":"15","tourism":"information"}},
{"type":"Feature","geometry":{"type":"Point","coordinates":[7.5055052,43.8559137]},"properties":{"ele":"1026","name":"Ciucco di Gerri","natural":"peak"}},
{"type":"Feature","geometry":{"type":"Point","coordinates":[7.5017636,43.8557524]},"properties":{"historic":"ruins"}},
{"type":"Feature","geometry":{"type":"Point","coordinates":[7.5021354,43.8581292]},"properties":{"ele":"901","natural":"peak"}},
{"type":"Feature","geometry":{"type":"Point","coordinates":[7.5019337,43.8599394]},"properties":{"historic":"ruins"}},
{"type":"Feature","geometry":{"type":"Point","coordinates":[7.5268277,43.7968886]},"properties":{"ele":"542","name":"I Colletti","natural":"peak","note":"Is this really a peak ?","place":"locality","source":"CTR Regione Liguria"}},
{"type":"Feature","geometry":{"type":"Point","coordinates":[7.3622629,43.9277108]},"properties":{"hiking":"yes","information":"guidepost","ref":"40","tourism":"information"}},
{"type":"Feature","geometry":{"type":"Point","coordinates":[7.5253537,43.9300034]},"properties":{"hiking":"yes","information":"guidepost","ref":"104","tourism":"information"}},
{"type":"Feature","geometry":{"type":"Point","coordinates":[7.3605453,43.9208856]},"properties":{"tourism":"picnic_site"}},
{"type":"Feature","geometry":{"type":"Point","coordinates":[7.3601698,43.9205533]},"properties":{"tourism":"picnic_site"}},
{"type":"Feature","geometry":{"type":"Point","coordinates":[7.3607165,43.9213265]},"properties":{"tourism":"picnic_site"}},
{"type":"Feature","geometry":{"type":"Point","coordinates":[7.4633042,43.7643265]},"properties":{"circumference":"16","denotation":"natural_monument","height":"13","leaf_type":"broadleaved","name":"Olivier Millénaire de Roquebrune-Cap-Martin","natural":"tree","species":"Olea europaea","species:fr":"Olivier","species:wikidata":"Q37083","species:wikipedia":"fr:Olea europaea","start_date":"~C1","tourism":"attraction","wheelchair":"yes","wikidata":"Q16509810","wikipedia":"fr:Olivier millénaire de Roquebrune-Cap-Martin"}},
{"type":"Feature","geometry":{"type":"Point","coordinates":[7.50895,43.7842901]},"properties":{"circumference":"3.9","leaf_type":"broadleaved","name":"Faux-poivrier de Menton","natural":"tree","species":"Schinus molle","species:fr":"Faux-poivrier odorant","tourism":"yes"}},
{"type":"Feature","geometry":{"type":"Point","coordinates":[7.3977816,43.7823424]},"properties":{"hiking":"yes","information":"guidepost","tourism":"information"}},
{"type":"Feature","geometry":{"type":"Point","coordinates":[7.4578737,43.9491652]},"properties":{"ele":"1839","name":"Cime de Gonella","natural":"peak"}},
{"type":"Feature","geometry":{"type":"Point","coordinates":[7.4884752,43.9510151]},"properties":{"ele":"1074","mountain_pass":"yes","name":"Col d'Agnon","natural":"saddle"}},
{"type":"Feature","geometry":{"type":"Point","coordinates":[7.4997176,43.841987]},"properties":{"ele":"1169","natural":"peak"}},
{"type":"Feature","geometry":{"type":"Point","coordinates":[7.4901557,43.8502408]},"properties":{"ele":"1125","name":"Mont Albo","name:it":"Monte Albo","natural":"peak","source":"IGN BDTOPO 2021-12-15","source:ele":"IGN RGEALTI 2020-09-15 (Lidar)"}},
{"type":"Feature","geometry":{"type":"Point","coordinates":[7.5472,43.9179164]},"properties":{"ele":"1339","fixme":"Position et altitude du sommet approximatives (RADAR). À ajuster lorsque le RGE ALTI Lidar sera disponible dans cette zone.","name":"Mont Tron","natural":"peak","source":"IGN BDTOPO 2021-12-15"}},
{"type":"Feature","geometry":{"type":"Point","coordinates":[7.3651081,43.8484247]},"properties":{"hiking":"yes","information":"guidepost","tourism":"information"}},
{"type":"Feature","geometry":{"type":"Point","coordinates":[7.3782948,43.7755008]},"properties":{"hiking":"yes","information":"guidepost","tourism":"information"}},
{"type":"Feature","geometry":{"type":"Point","coordinates":[7.3824451,43.7777001]},"properties":{"tourism":"viewpoint"}},
{"type":"Feature","geometry":{"type":"Point","coordinates":[7.3666792,43.8056884]},"properties":{"historic":"wayside_cross"}},
{"type":"Feature","geometry":{"type":"Point","coordinates":[7.361792,43.8075417]},"properties":{"historic":"ruins","name":"Ancien moulin à huile"}},
{"type":"Feature","geometry":{"type":"Point","coordinates":[7.3670933,43.8046244]},"properties":{"natural":"tree"}},
{"type":"Feature","geometry":{"type":"Point","coordinates":[7.3671604,43.804577]},"properties":{"natural":"tree"}},
{"type":"Feature","geometry":{"type":"Point","coordinates":[7.4191254,43.7527921]},"properties":{"tourism":"viewpoint"}},
{"type":"Feature","geometry":{"type":"Point","coordinates":[7.5566131,43.9472549]},"properties":{"ele":"1555","name":"Pas de L'Arpette","name:it":"Passo di l'Arpetta","natural":"saddle"}},
{"type":"Feature","geometry":{"type":"Point","coordinates":[7.3897189,43.9798978]},"properties":{"hiking":"yes","information":"guidepost","ref":"234","tourism":"information"}},
{"type":"Feature","geometry":{"type":"Point","coordinates":[7.3918413,43.9793955]},"properties":{"hiking":"yes","information":"guidepost","ref":"30","tourism":"information"}},
{"type":"Feature","geometry":{"type":"Point","coordinates":[7.5806525,43.9432591]},"properties":{"ele":"1053","name":"Monte Albano","natural":"peak","source":"CTR Regione Liguria"}},
{"type":"Feature","geometry":{"type":"Point","coordinates":[7.5028563,43.8751344]},"properties":{"ele":"725","name":"Monte Mergo","natural":"peak","source":"CTR Regione Liguria"}},
{"type":"Feature","geometry":{"type":"Point","coordinates":[7.5004175,43.8667327]},"properties":{"ele":"1075","name":"Tête de Cuore / Testa di Cuore","name:fr":"Tête de Cuore","name:it":"Testa di Cuore","natural":"peak","source":"CTR Regione Liguria","wikidata":"Q31645992"}},
{"type":"Feature","geometry":{"type":"Point","coordinates":[7.4342832,43.9188766]},"properties":{"ele":"1368","fixme":"Position et altitude du sommet approximatives (RADAR). À ajuster lorsque le RGE ALTI Lidar sera disponible dans cette zone.","name":"Cime de Linière","natural":"peak","source":"IGN BDTOPO 2021-12-15","source:ele":"IGN RGEALTI 2020-09-15 (RADAR)"}},
{"type":"Feature","geometry":{"type":"Point","coordinates":[7.4976718,43.7741346]},"properties":{"check_date":"2023-12-28","information":"office","name":"Office de tourisme","operator":"Mairie de Menton","tourism":"information"}},
{"type":"Feature","geometry":{"type":"Point","coordinates":[7.3625066,43.7673236]},"properties":{"information":"guidepost","tourism":"information"}},
{"type":"Feature","geometry":{"type":"Point","coordinates":[7.5166114,43.9399032]},"properties":{"access":"yes","leisure":"playground"}},
{"type":"Feature","geometry":{"type":"Point","coordinates":[7.3633749,43.9009851]},"properties":{"hiking":"yes","information":"guidepost","ref":"49","tourism":"information"}},
{"type":"Feature","geometry":{"type":"Point","coordinates":[7.3989276,43.8726341]},"properties":{"ele":"1002","mountain_pass":"yes","name":"Col de Braus","natural":"saddle","wikidata":"Q491686"}},
{"type":"Feature","geometry":{"type":"Point","coordinates":[7.4145269,43.8720806]},"properties":{"hiking":"yes","information":"guidepost","ref":"61","tourism":"information"}},
{"type":"Feature","geometry":{"type":"Point","coordinates":[7.5553722,43.973105]},"properties":{"mountain_pass":"yes","name":"Collet du Mont-Agu","natural":"saddle"}},
{"type":"Feature","geometry":{"type":"Point","coordinates":[7.5094013,43.7754439]},"properties":{"leisure":"slipway"}},
{"type":"Feature","geometry":{"type":"Point","coordinates":[7.4855556,43.7822222]},"properties":{"leisure":"pitch","source":"data.gouv.fr:Le ministère des droits des femmes, de la ville, de la jeunesse et des sports - 2014","sport":"multi"}},
{"type":"Feature","geometry":{"type":"Point","coordinates":[7.5279987,43.7861221]},"properties":{"historic":"memorial","memorial":"statue","name":"Statue","source":"cadastre-dgi-fr source : Direction Générale des Finances Publiques - Cadastre. Mise à jour : 2015"}},
{"type":"Feature","geometry":{"type":"Point","coordinates":[7.4129549,43.9404369]},"properties":{"name":"Gite communal","tourism":"guest_house"}},
{"type":"Feature","geometry":{"type":"Point","coordinates":[7.3827428,43.9541278]},"properties":{"information":"guidepost","tourism":"information"}},
{"type":"Feature","geometry":{"type":"Point","coordinates":[7.3873645,43.9698409]},"properties":{"tourism":"viewpoint"}},
{"type":"Feature","geometry":{"type":"Point","coordinates":[7.4127311,43.940721]},"properties":{"hiking":"yes","information":"guidepost","ref":"1","tourism":"information"}},
{"type":"Feature","geometry":{"type":"Point","coordinates":[7.3802114,43.966978]},"properties":{"hiking":"yes","information":"guidepost","ref":"182","tourism":"information"}},
{"type":"Feature","geometry":{"type":"Point","coordinates":[7.3616196,43.9747165]},"properties":{"hiking":"yes","information":"guidepost","operator":"Conseil Départemental des Alpes-Maritimes","ref":"191","tourism":"information"}},
{"type":"Feature","geometry":{"type":"Point","coordinates":[7.4130605,43.9381617]},"properties":{"hiking":"yes","information":"guidepost","ref":"20","tourism":"information"}},
{"type":"Feature","geometry":{"type":"Point","coordinates":[7.4040887,43.9251008]},"properties":{"hiking":"yes","information":"guidepost","operator":"Conseil Départemental des Alpes Maritimes","ref":"14","tourism":"information"}},
{"type":"Feature","geometry":{"type":"Point","coordinates":[7.40055,43.908103]},"properties":{"hiking":"yes","information":"guidepost","ref":"17","tourism":"information"}},
{"type":"Feature","geometry":{"type":"Point","coordinates":[7.3977016,43.9054807]},"properties":{"hiking":"yes","information":"guidepost","ref":"18","tourism":"information"}},
{"type":"Feature","geometry":{"type":"Point","coordinates":[7.4036617,43.9022514]},"properties":{"hiking":"yes","information":"guidepost","operator":"Conseil Départemental des Alpes Maritimes","ref":"19","tourism":"information"}},
{"type":"Feature","geometry":{"type":"Point","coordinates":[7.4049197,43.9343692]},"properties":{"hiking":"yes","information":"guidepost","ref":"3","tourism":"information"}},
{"type":"Feature","geometry":{"type":"Point","coordinates":[7.4195931,43.893306]},"properties":{"hiking":"yes","information":"guidepost","operator":"Conseil Départemental des Alpes Maritimes","ref":"55","tourism":"information"}},
{"type":"Feature","geometry":{"type":"Point","coordinates":[7.4508428,43.8765067]},"properties":{"hiking":"yes","information":"guidepost","operator":"Conseil Départemental des Alpes-Maritimes","ref":"105","tourism":"information"}},
{"type":"Feature","geometry":{"type":"Point","coordinates":[7.4508452,43.8766211]},"properties":{"hiking":"yes","information":"guidepost","operator":"Conseil Départemental des Alpes-Maritimes","ref":"105","tourism":"information"}},
{"type":"Feature","geometry":{"type":"Point","coordinates":[7.532113,43.7846103]},"properties":{"information":"office","name":"Sovrintendenza per i Beni Artistici Regione Liguria","tourism":"information"}},
{"type":"Feature","geometry":{"type":"Point","coordinates":[7.3995839,43.7550544]},"properties":{"leisure":"picnic_table"}},
{"type":"Feature","geometry":{"type":"Point","coordinates":[7.419989,43.7529025]},"properties":{"tourism":"viewpoint"}},
{"type":"Feature","geometry":{"type":"Point","coordinates":[7.4940004,43.7870452]},"properties":{"height":"4","leaf_type":"broadleaved","natural":"tree","start_date":"2017"}},
{"type":"Feature","geometry":{"type":"Point","coordinates":[7.4940695,43.7870711]},"properties":{"height":"3","leaf_type":"broadleaved","natural":"tree","start_date":"2017"}},
{"type":"Feature","geometry":{"type":"Point","coordinates":[7.4941101,43.7870847]},"properties":{"height":"3","leaf_type":"broadleaved","natural":"tree","start_date":"2017"}},
{"type":"Feature","geometry":{"type":"Point","coordinates":[7.4941513,43.7870986]},"properties":{"height":"3","leaf_type":"broadleaved","natural":"tree","start_date":"2017"}},
{"type":"Feature","geometry":{"type":"Point","coordinates":[7.4941899,43.7871124]},"properties":{"height":"3","leaf_type":"broadleaved","natural":"tree","start_date":"2017"}},
{"type":"Feature","geometry":{"type":"Point","coordinates":[7.4942293,43.7871255]},"properties":{"height":"3","leaf_type":"broadleaved","natural":"tree","start_date":"2017"}},
{"type":"Feature","geometry":{"type":"Point","coordinates":[7.4942685000000008,43.7871389]},"properties":{"height":"3","leaf_type":"broadleaved","natural":"tree","start_date":"2017"}},
{"type":"Feature","geometry":{"type":"Point","coordinates":[7.4939586,43.7871395]},"properties":{"height":"4","leaf_type":"broadleaved","natural":"tree","start_date":"2017"}},
{"type":"Feature","geometry":{"type":"Point","coordinates":[7.4943458,43.7871608]},"properties":{"height":"5","leaf_type":"broadleaved","natural":"tree","start_date":"2017"}},
{"type":"Feature","geometry":{"type":"Point","coordinates":[7.4939318,43.7871691]},"properties":{"height":"4","leaf_type":"broadleaved","natural":"tree","start_date":"2017"}},
{"type":"Feature","geometry":{"type":"Point","coordinates":[7.4939012,43.787195]},"properties":{"height":"5","leaf_type":"broadleaved","natural":"tree","start_date":"2017"}},
{"type":"Feature","geometry":{"type":"Point","coordinates":[7.4938633,43.7872847]},"properties":{"height":"3","leaf_type":"needleleaved","natural":"tree","start_date":"2017"}},
{"type":"Feature","geometry":{"type":"Point","coordinates":[7.4942429,43.7872857]},"properties":{"height":"3","leaf_type":"broadleaved","natural":"tree","start_date":"2017"}},
{"type":"Feature","geometry":{"type":"Point","coordinates":[7.4942198,43.7873208]},"properties":{"height":"3","leaf_type":"broadleaved","natural":"tree","start_date":"2017"}},
{"type":"Feature","geometry":{"type":"Point","coordinates":[7.4941952,43.7873596]},"properties":{"height":"3","leaf_type":"broadleaved","natural":"tree","start_date":"2017"}},
{"type":"Feature","geometry":{"type":"Point","coordinates":[7.4938235,43.7873892]},"properties":{"height":"3","leaf_type":"broadleaved","natural":"tree","start_date":"2017"}},
{"type":"Feature","geometry":{"type":"Point","coordinates":[7.4938534,43.7873994]},"properties":{"height":"3","leaf_type":"broadleaved","natural":"tree","start_date":"2017"}},
{"type":"Feature","geometry":{"type":"Point","coordinates":[7.4941598,43.7874106]},"properties":{"height":"3","leaf_type":"broadleaved","natural":"tree","start_date":"2017"}},
{"type":"Feature","geometry":{"type":"Point","coordinates":[7.4937843,43.7874488]},"properties":{"height":"3","leaf_type":"broadleaved","natural":"tree","start_date":"2017"}},
{"type":"Feature","geometry":{"type":"Point","coordinates":[7.494113,43.7874522]},"properties":{"height":"3","leaf_type":"broadleaved","natural":"tree","start_date":"2017"}},
{"type":"Feature","geometry":{"type":"Point","coordinates":[7.4938142,43.787459]},"properties":{"height":"3","leaf_type":"broadleaved","natural":"tree","start_date":"2017"}},
{"type":"Feature","geometry":{"type":"Point","coordinates":[7.4940809,43.7874633]},"properties":{"height":"5","leaf_type":"broadleaved","natural":"tree","start_date":"2017"}},
{"type":"Feature","geometry":{"type":"Point","coordinates":[7.4939859,43.7874679]},"properties":{"height":"3","leaf_type":"broadleaved","natural":"tree","start_date":"2017"}},
{"type":"Feature","geometry":{"type":"Point","coordinates":[7.4940436,43.7875343]},"properties":{"height":"5","leaf_type":"broadleaved","natural":"tree","start_date":"2017"}},
{"type":"Feature","geometry":{"type":"Point","coordinates":[7.361439,43.9392672]},"properties":{"hiking":"yes","information":"guidepost","tourism":"information"}},
{"type":"Feature","geometry":{"type":"Point","coordinates":[7.3599117,43.9428857]},"properties":{"hiking":"yes","information":"guidepost","ref":"172","tourism":"information"}},
{"type":"Feature","geometry":{"type":"Point","coordinates":[7.3622443,43.9334674]},"properties":{"hiking":"yes","information":"guidepost","ref":"36","tourism":"information"}},
{"type":"Feature","geometry":{"type":"Point","coordinates":[7.361736,43.9325086]},"properties":{"hiking":"yes","information":"guidepost","ref":"37","tourism":"information"}},
{"type":"Feature","geometry":{"type":"Point","coordinates":[7.3696486,43.9485146]},"properties":{"hiking":"yes","information":"guidepost","ref":"180","tourism":"information"}},
{"type":"Feature","geometry":{"type":"Point","coordinates":[7.5897689,43.9109793]},"properties":{"natural":"saddle"}},
{"type":"Feature","geometry":{"type":"Point","coordinates":[7.4585461,43.7674419]},"properties":{"hiking":"yes","information":"guidepost","note":"Référence manquante, à relever sur le terrain","operator":"Conseil Départemental des Alpes-Maritimes","tourism":"information"}},
{"type":"Feature","geometry":{"type":"Point","coordinates":[7.458266,43.7678652]},"properties":{"hiking":"yes","information":"guidepost","tourism":"information"}},
{"type":"Feature","geometry":{"type":"Point","coordinates":[7.4611874,43.7716978]},"properties":{"ele":"452","natural":"peak"}},
{"type":"Feature","geometry":{"type":"Point","coordinates":[7.443574,43.7688006]},"properties":{"hiking":"yes","information":"guidepost","note":"Référence manquante, à relever sur le terrain","operator":"Conseil Départemental des Alpes-Maritimes","tourism":"information"}},
{"type":"Feature","geometry":{"type":"Point","coordinates":[7.4464426,43.7753316]},"properties":{"hiking":"yes","information":"guidepost","note":"Référence manquante, à relever sur le terrain","operator":"Conseil Départemental des Alpes-Maritimes","tourism":"information"}},
{"type":"Feature","geometry":{"type":"Point","coordinates":[7.4468832,43.7755635]},"properties":{"ele":"440","hiking":"yes","information":"guidepost","name":"Col de La Coupière","note":"Référence manquante, à relever sur le terrain","operator":"Conseil Départemental des Alpes-Maritimes","tourism":"information"}},
{"type":"Feature","geometry":{"type":"Point","coordinates":[7.441095,43.784744]},"properties":{"hiking":"yes","information":"guidepost","operator":"Conseil Départemental des Alpes-Maritimes","ref":"511","tourism":"information"}},
{"type":"Feature","geometry":{"type":"Point","coordinates":[7.4214728,43.7895873]},"properties":{"hiking":"yes","information":"guidepost","name":"507","operator":"Conseil Départemental des Alpes-Maritimes","tourism":"information"}},
{"type":"Feature","geometry":{"type":"Point","coordinates":[7.4200544,43.7942199]},"properties":{"hiking":"yes","information":"guidepost","operator":"Conseil Départemental des Alpes-Maritimes","ref":"506","tourism":"information"}},
{"type":"Feature","geometry":{"type":"Point","coordinates":[7.4237561,43.802486]},"properties":{"hiking":"yes","information":"guidepost","operator":"Conseil Départemental des Alpes-Maritimes","ref":"505","tourism":"information"}},
{"type":"Feature","geometry":{"type":"Point","coordinates":[7.4234654,43.8031007]},"properties":{"hiking":"yes","information":"guidepost","operator":"Conseil Départemental des Alpes-Maritimes","ref":"557","tourism":"information"}},
{"type":"Feature","geometry":{"type":"Point","coordinates":[7.423214,43.8031804]},"properties":{"ele":"922","hiking":"yes","information":"guidepost","name":"Col de la Madone","operator":"Conseil Départemental des Alpes-Maritimes","ref":"557","tourism":"information"}},
{"type":"Feature","geometry":{"type":"Point","coordinates":[7.4289779,43.8093693]},"properties":{"description":"Table d'orientation","information":"map","map_type":"toposcope","tourism":"information"}},
{"type":"Feature","geometry":{"type":"Point","coordinates":[7.4417579,43.7758542]},"properties":{"hiking":"yes","information":"guidepost","operator":"Conseil Départemental des Alpes-Maritimes","ref":"509","tourism":"information"}},
{"type":"Feature","geometry":{"type":"Point","coordinates":[7.4267719,43.7799946]},"properties":{"destination":"Fontbonne;Col de Guerre;La Turbie;Baisse des Cabanelles;Col de la Madone","hiking":"yes","information":"guidepost","operator":"Conseil Départemental des Alpes-Maritimes","ref":"508","tourism":"information"}},
{"type":"Feature","geometry":{"type":"Point","coordinates":[7.4407548,43.7855984]},"properties":{"hiking":"yes","information":"guidepost","operator":"Conseil Départemental des Alpes-Maritimes","ref":"512","tourism":"information"}},
{"type":"Feature","geometry":{"type":"Point","coordinates":[7.4408284,43.788415]},"properties":{"hiking":"yes","information":"guidepost","note":"Référence manquante, à relever sur le terrain","operator":"Conseil Départemental des Alpes-Maritimes","tourism":"information"}},
{"type":"Feature","geometry":{"type":"Point","coordinates":[7.4403073,43.7888609]},"properties":{"hiking":"yes","information":"guidepost","note":"Référence manquante, à relever sur le terrain","operator":"Conseil Départemental des Alpes-Maritimes","tourism":"information"}},
{"type":"Feature","geometry":{"type":"Point","coordinates":[7.4421377,43.7565749]},"properties":{"tourism":"viewpoint","website":"https://youtu.be/YWPtjkJDpWE"}},
{"type":"Feature","geometry":{"type":"Point","coordinates":[7.5860321,43.945034]},"properties":{"ele":"1340","name":"Monte Paganaia","natural":"peak","source":"CTR Regione Liguria"}},
{"type":"Feature","geometry":{"type":"Point","coordinates":[7.4950824,43.7754317]},"properties":{"addr:housenumber":"39","addr:street":"Avenue de Verdun","internet_access":"wlan","name":"Claridge's Hôtel","tourism":"hostel"}},
{"type":"Feature","geometry":{"type":"Point","coordinates":[7.4605273,43.7636682]},"properties":{"addr:city":"Roquebrune-Cap-Martin","addr:housenumber":"45-47","addr:postcode":"06190","addr:street":"Avenue Gabriel Hanotaux","email":"labellevue@labellevuercm.com","name":"La Belle Vue","phone":"+33 4 93 51 32 15","tourism":"hotel","website":"http://www.labellevuercm.com/"}},
{"type":"Feature","geometry":{"type":"Point","coordinates":[7.4518752,43.7596323]},"properties":{"email":"hotelregency@orange.fr","name":"Charme Regency","phone":"+33 4 93350091","stars":"2","tourism":"hotel","website":"https://www.hotelregencymonaco.com/","wheelchair":"yes"}},
{"type":"Feature","geometry":{"type":"Point","coordinates":[7.4520286,43.7597611]},"properties":{"email":"leroquebrune@orange.fr","name":"Le Roquebrune","phone":"+33 4 93 35 00 16","stars":"3","tourism":"hotel","website":"http://www.leroquebrune.com/","wheelchair":"yes","wikidata":"Q111876916"}},
{"type":"Feature","geometry":{"type":"Point","coordinates":[7.458704,43.7648196]},"properties":{"tourism":"viewpoint"}},
{"type":"Feature","geometry":{"type":"Point","coordinates":[7.4117719,43.7562262]},"properties":{"tourism":"viewpoint"}},
{"type":"Feature","geometry":{"type":"Point","coordinates":[7.4842815,43.8197988]},"properties":{"covered":"no","leisure":"picnic_table"}},
{"type":"Feature","geometry":{"type":"Point","coordinates":[7.4712651,43.8242011]},"properties":{"leisure":"picnic_table"}},
{"type":"Feature","geometry":{"type":"Point","coordinates":[7.5143486,43.8050099]},"properties":{"ele":"720","name":"Plan du Lion","natural":"saddle"}},
{"type":"Feature","geometry":{"type":"Point","coordinates":[7.3889952,43.9825906]},"properties":{"hiking":"yes","information":"guidepost","ref":"235","tourism":"information"}},
{"type":"Feature","geometry":{"type":"Point","coordinates":[7.5119166,43.7827033]},"properties":{"source:modif":"Apidae (2017-11-21), in Opendata PACA"}},
{"type":"Feature","geometry":{"type":"Point","coordinates":[7.5102456,43.7812092]},"properties":{"name":"Festival Plage","natural":"beach"}},
{"type":"Feature","geometry":{"type":"Point","coordinates":[7.514431,43.805022]},"properties":{"ele":"720","information":"guidepost","name":"Plan du Lion","operator":"Conseil Départemental des Alpes-Maritimes","ref":"10","tourism":"information"}},
{"type":"Feature","geometry":{"type":"Point","coordinates":[7.5142845,43.8074605]},"properties":{"hiking":"yes","information":"guidepost","old_ref":"410","operator":"Conseil Départemental des Alpes-Maritimes","ref":"11","tourism":"information"}},
{"type":"Feature","geometry":{"type":"Point","coordinates":[7.5023185,43.8254431]},"properties":{"hiking":"yes","information":"guidepost","operator":"Conseil Départemental des Alpes-Maritimes","tourism":"information"}},
{"type":"Feature","geometry":{"type":"Point","coordinates":[7.5215057,43.7949319]},"properties":{"ele":"465","information":"guidepost","name":"Granges St-Paul","tourism":"information"}},
{"type":"Feature","geometry":{"type":"Point","coordinates":[7.5180081,43.7918554]},"properties":{"hiking":"yes","information":"guidepost","operator":"Conseil Départemental des Alpes-Maritimes","ref":"424","tourism":"information"}},
{"type":"Feature","geometry":{"type":"Point","coordinates":[7.5165822,43.7910355]},"properties":{"hiking":"yes","information":"guidepost","operator":"Conseil Départemental des Alpes-Maritimes","ref":"423","tourism":"information"}},
{"type":"Feature","geometry":{"type":"Point","coordinates":[7.5178942,43.8018918]},"properties":{"information":"guidepost","operator":"Conseil Départemental des Alpes-Maritimes","ref":"9","tourism":"information"}},
{"type":"Feature","geometry":{"type":"Point","coordinates":[7.4751214,43.8788165]},"properties":{"hiking":"yes","information":"guidepost","operator":"Conseil Départemental des Alpes-Maritimes","ref":"90c","tourism":"information"}},
{"type":"Feature","geometry":{"type":"Point","coordinates":[7.4952654,43.8632374]},"properties":{"ele":"1022","hiking":"yes","information":"guidepost","name":"Col du Cuore","operator":"Conseil Départemental des Alpes-Maritimes","ref":"90a","tourism":"information"}},
{"type":"Feature","geometry":{"type":"Point","coordinates":[7.4832459,43.8484046]},"properties":{"hiking":"yes","information":"guidepost","name":"Col de Roulabre","ref":"91","tourism":"information"}},
{"type":"Feature","geometry":{"type":"Point","coordinates":[7.4758632,43.859967]},"properties":{"hiking":"yes","information":"guidepost","tourism":"information"}},
{"type":"Feature","geometry":{"type":"Point","coordinates":[7.476916,43.8625677]},"properties":{"hiking":"yes","information":"guidepost","tourism":"information"}},
{"type":"Feature","geometry":{"type":"Point","coordinates":[7.4743191,43.8703695]},"properties":{"ele":"603","hiking":"yes","information":"guidepost","operator":"Conseil Départemental des Alpes-Maritimes","ref":"107","tourism":"information"}},
{"type":"Feature","geometry":{"type":"Point","coordinates":[7.4648863,43.8743926]},"properties":{"hiking":"yes","information":"guidepost","tourism":"information"}},
{"type":"Feature","geometry":{"type":"Point","coordinates":[7.4599771,43.8770376]},"properties":{"hiking":"yes","information":"guidepost","ref":"103","tourism":"information"}},
{"type":"Feature","geometry":{"type":"Point","coordinates":[7.4768677,43.8624267]},"properties":{"historic":"memorial"}},
{"type":"Feature","geometry":{"type":"Point","coordinates":[7.4731894,43.9027715]},"properties":{"ele":"657","hiking":"yes","information":"guidepost","name":"Col du Pérus","operator":"Conseil Départemental des Alpes-Maritimes","ref":"86","tourism":"information"}},
{"type":"Feature","geometry":{"type":"Point","coordinates":[7.4833538,43.9084076]},"properties":{"ele":"570","hiking":"yes","information":"guidepost","operator":"Conseil Départemental des Alpes-Maritimes","ref":"96","tourism":"information"}},
{"type":"Feature","geometry":{"type":"Point","coordinates":[7.4728921,43.9023682]},"properties":{"hiking":"yes","information":"guidepost","operator":"Conseil Départemental des Alpes-Maritimes","tourism":"information"}},
{"type":"Feature","geometry":{"type":"Point","coordinates":[7.4660318,43.8884072]},"properties":{"hiking":"yes","information":"guidepost","operator":"Conseil Départemental des Alpes-Maritimes","ref":"99","tourism":"information"}},
{"type":"Feature","geometry":{"type":"Point","coordinates":[7.4522786,43.889057]},"properties":{"hiking":"yes","information":"guidepost","operator":"Conseil Départemental des Alpes-Maritimes","ref":"83","tourism":"information"}},
{"type":"Feature","geometry":{"type":"Point","coordinates":[7.4517965,43.8891111]},"properties":{"ele":"666","hiking":"yes","information":"guidepost","operator":"Conseil Départemental des Alpes-Maritimes","ref":"83","tourism":"information"}},
{"type":"Feature","geometry":{"type":"Point","coordinates":[7.4765921,43.8824297]},