{"type":"FeatureCollection","features":[
{"type":"Feature","geometry":{"type":"Point","coordinates":[6.6383607,47.0808746]},"properties":{"contact:facebook":"https://www.facebook.com/nautiquevalmorteau/","email":"accueil.morteau@vert-marine.com","leisure":"sports_centre","name":"Piscine Centre Nautique du Val de Morteau","opening_hours:url":"https://www.vert-marine.info/centrenautiqueduvaldemorteau/horaires/","phone":"+33 3 81 67 25 48","ref:FR:SIRET":"83501054700015","sauna":"yes","sport":"swimming","start_date":"2002-02-02","website":"https://www.vert-marine.info/centrenautiqueduvaldemorteau/"}},
{"type":"Feature","geometry":{"type":"Point","coordinates":[6.5101385,47.0381822]},"properties":{"source":"cadastre-dgi-fr source : Direction Générale des Impôts - Cadastre ; mise à jour : 2009"}},
{"type":"Feature","geometry":{"type":"Point","coordinates":[6.512278,47.0355216]},"properties":{"denomination":"catholic","heritage":"3","heritage:operator":"mhs","historic":"wayside_shrine","mhs:inscription_date":"2009-12-29","name":"Église de la Grotte","natural":"cave_entrance","ref:mhs":"PA25000066","religion":"christian","source:heritage":"data.gouv.fr:Ministère de la Culture - 04/2015"}},
{"type":"Feature","geometry":{"type":"Point","coordinates":[6.5996315,47.053301]},"properties":{"source":"cadastre-dgi-fr source : Direction Générale des Impôts - Cadastre ; mise à jour : 2009"}},
{"type":"Feature","geometry":{"type":"Point","coordinates":[6.6216501,47.0485174]},"properties":{"source":"cadastre-dgi-fr source : Direction Générale des Impôts - Cadastre ; mise à jour : 2009"}},
{"type":"Feature","geometry":{"type":"Point","coordinates":[6.457205,47.0572369]},"properties":{"natural":"tree"}},
{"type":"Feature","geometry":{"type":"Point","coordinates":[6.6041686,47.0730187]},"properties":{"name":"Belvedere du mont Vouillot","tourism":"viewpoint"}},
{"type":"Feature","geometry":{"type":"Point","coordinates":[6.6072088,47.149561]},"properties":{"ele":"850","name":"La Roche du Prêtre","tourism":"viewpoint"}},
{"type":"Feature","geometry":{"type":"Point","coordinates":[6.4490543,47.194155]},"properties":{"ele":"693","historic":"wayside_cross"}},
{"type":"Feature","geometry":{"type":"Point","coordinates":[6.5068879,47.2201062]},"properties":{"historic":"wayside_cross"}},
{"type":"Feature","geometry":{"type":"Point","coordinates":[6.5408099,47.2159924]},"properties":{"natural":"tree","source":"Bing"}},
{"type":"Feature","geometry":{"type":"Point","coordinates":[6.5406633,47.2160656]},"properties":{"natural":"tree","source":"Bing"}},
{"type":"Feature","geometry":{"type":"Point","coordinates":[6.540936,47.2160896]},"properties":{"natural":"tree","source":"Bing"}},
{"type":"Feature","geometry":{"type":"Point","coordinates":[6.541143,47.2162885]},"properties":{"natural":"tree","source":"Bing"}},
{"type":"Feature","geometry":{"type":"Point","coordinates":[6.5409309,47.2163057]},"properties":{"natural":"tree","source":"Bing"}},
{"type":"Feature","geometry":{"type":"Point","coordinates":[6.5411885,47.2165424]},"properties":{"natural":"tree","source":"Bing"}},
{"type":"Feature","geometry":{"type":"Point","coordinates":[6.5414346,47.2165689]},"properties":{"natural":"tree","source":"Bing"}},
{"type":"Feature","geometry":{"type":"Point","coordinates":[6.5413521,47.2167048]},"properties":{"natural":"tree","source":"Bing"}},
{"type":"Feature","geometry":{"type":"Point","coordinates":[6.5416935,47.2167928]},"properties":{"natural":"tree","source":"Bing"}},
{"type":"Feature","geometry":{"type":"Point","coordinates":[6.5414965,47.2168236]},"properties":{"natural":"tree","source":"Bing"}},
{"type":"Feature","geometry":{"type":"Point","coordinates":[6.5416789,47.2170291]},"properties":{"natural":"tree","source":"Bing"}},
{"type":"Feature","geometry":{"type":"Point","coordinates":[6.5419308,47.2170157]},"properties":{"natural":"tree","source":"Bing"}},
{"type":"Feature","geometry":{"type":"Point","coordinates":[6.5418904,47.2172078]},"properties":{"natural":"tree","source":"Bing"}},
{"type":"Feature","geometry":{"type":"Point","coordinates":[6.5327846,47.221603]},"properties":{"email":"camping.le.cret@club-internet.fr","internet_access":"no","internet_access:fee":"no","name":"Ferme du Cret","nudism":"no","payment:cash":"yes","phone":"+33 381 560 476","tents":"no","tourism":"camp_site","website":"https://www.camping-lecret.fr/","wheelchair":"limited"}},
{"type":"Feature","geometry":{"type":"Point","coordinates":[6.6036254,47.0565305]},"properties":{"information":"office","name":"Office du Tourisme","tourism":"information"}},
{"type":"Feature","geometry":{"type":"Point","coordinates":[6.5910366,47.0535315]},"properties":{"name":"La Table du roi","natural":"stone","tourism":"attraction"}},
{"type":"Feature","geometry":{"type":"Point","coordinates":[6.5864311,47.0551159]},"properties":{"bench":"yes","leisure":"picnic_table","lit":"no","material":"wood"}},
{"type":"Feature","geometry":{"type":"Point","coordinates":[6.5449776,47.0591914]},"properties":{"contact:facebook":"https://www.facebook.com/profile.php?id=61566486947696","name":"Auberge de la Motte","ref:FR:SIRET":"90306960700021","tourism":"guest_house"}},
{"type":"Feature","geometry":{"type":"Point","coordinates":[6.6099443,47.1498628]},"properties":{"drinking_water":"yes","name":"Source du Lançot","natural":"spring"}},
{"type":"Feature","geometry":{"type":"Point","coordinates":[6.6116735,47.1546409]},"properties":{"name":"Source Noire","natural":"spring"}},
{"type":"Feature","geometry":{"type":"Point","coordinates":[6.6117389,47.1514854]},"properties":{"name":"Source du Tabourot","natural":"spring"}},
{"type":"Feature","geometry":{"type":"Point","coordinates":[6.6062159,47.156446]},"properties":{"name":"Belvédère Sainte-Catherine","tourism":"viewpoint"}},
{"type":"Feature","geometry":{"type":"Point","coordinates":[6.6011284,47.1530691]},"properties":{"name":"Source du Dessoubre","natural":"spring","source":"cadastre-dgi-fr source : Direction Générale des Impôts - Cadastre. Mise à jour : 2012"}},
{"type":"Feature","geometry":{"type":"Point","coordinates":[6.5665612,47.0369887]},"properties":{"name":"Belvédère des chamois","tourism":"viewpoint"}},
{"type":"Feature","geometry":{"type":"Point","coordinates":[6.4478055,47.1188066]},"properties":{"name":"Grotte de la Baume","natural":"cave_entrance"}},
{"type":"Feature","geometry":{"type":"Point","coordinates":[6.4795096,47.0478439]},"properties":{"historic":"memorial"}},
{"type":"Feature","geometry":{"type":"Point","coordinates":[6.49216,47.0412737]},"properties":{"information":"guidepost","inscription":"Départ","tourism":"information"}},
{"type":"Feature","geometry":{"type":"Point","coordinates":[6.4917606,47.0414669]},"properties":{"covered":"no","leisure":"picnic_table"}},
{"type":"Feature","geometry":{"type":"Point","coordinates":[6.6099456,47.1498228]},"properties":{"name":"Grande Grotte du Lançot","natural":"cave_entrance"}},
{"type":"Feature","geometry":{"type":"Point","coordinates":[6.6112653,47.1618589]},"properties":{"name":"Chauve Roche","tourism":"viewpoint"}},
{"type":"Feature","geometry":{"type":"Point","coordinates":[6.6058445,47.1586053]},"properties":{"capacity":"5","caravan_site":"motorhome_stopover","caravan_site:type":"village","fee":"yes","maxstay":"72 hours","name":"Consolation-Maisonnettes","power_supply":"yes","seasonal":"no","tourism":"caravan_site"}},
{"type":"Feature","geometry":{"type":"Point","coordinates":[6.6060286,47.1590557]},"properties":{"caravans":"no","drinking_water":"yes","name:signed":"no","power_supply":"no","shower":"yes","static_caravans":"no","tents":"yes","toilets":"yes","toilets:disposal":"pitlatrine","tourism":"camp_site"}},
{"type":"Feature","geometry":{"type":"Point","coordinates":[6.6046931,47.0568563]},"properties":{"historic":"memorial","memorial":"war_memorial","name":"Monument aux Morts"}},
{"type":"Feature","geometry":{"type":"Point","coordinates":[6.5145115,47.1330887]},"properties":{"tourism":"picnic_site"}},
{"type":"Feature","geometry":{"type":"Point","coordinates":[6.5085388,47.1378745]},"properties":{"leisure":"picnic_table"}},
{"type":"Feature","geometry":{"type":"Point","coordinates":[6.5085375,47.1379777]},"properties":{"tourism":"viewpoint"}},
{"type":"Feature","geometry":{"type":"Point","coordinates":[6.5021375,47.1724527]},"properties":{"name":"Grotte de la Borne de Martinvaux","natural":"cave_entrance"}},
{"type":"Feature","geometry":{"type":"Point","coordinates":[6.4926954,47.1753596]},"properties":{"name":"Puits de la Roye","natural":"cave_entrance"}},
{"type":"Feature","geometry":{"type":"Point","coordinates":[6.4865528,47.1750061]},"properties":{"name":"Source de la Reverotte","natural":"spring"}},
{"type":"Feature","geometry":{"type":"Point","coordinates":[6.6282168,47.0785507]},"properties":{"historic":"monument"}},
{"type":"Feature","geometry":{"type":"Point","coordinates":[6.6272534,47.0786907]},"properties":{"historic":"wayside_cross"}},
{"type":"Feature","geometry":{"type":"Point","coordinates":[6.6330978,47.0810097]},"properties":{"historic":"wayside_cross"}},
{"type":"Feature","geometry":{"type":"Point","coordinates":[6.6013543,47.0555539]},"properties":{"leisure":"playground"}},
{"type":"Feature","geometry":{"type":"Point","coordinates":[6.4943943,47.1059965]},"properties":{"capacity":"6","caravan_site":"motorhome_stopover","caravan_site:type":"farm","charge":"7 EUR","fee":"yes","name":"Aire de camping-cars - La Ferme des Ravières","operator":"Bernard & Maria Vivot","sanitary_dump_station":"yes","seasonal":"no","tourism":"caravan_site","water_point":"yes","website":"https://giteschambreshotes.com/en/motorhome-area/"}},
{"type":"Feature","geometry":{"type":"Point","coordinates":[6.5535276,47.2585533]},"properties":{"leisure":"playground"}},
{"type":"Feature","geometry":{"type":"Point","coordinates":[6.5123222,47.0354595]},"properties":{"denomination":"catholic","historic":"wayside_cross","religion":"christian"}},
{"type":"Feature","geometry":{"type":"Point","coordinates":[6.5127138,47.0355655]},"properties":{"denomination":"catholic","historic":"wayside_shrine","memorial":"statue","religion":"christian"}},
{"type":"Feature","geometry":{"type":"Point","coordinates":[6.5719163,47.1298004]},"properties":{"denomination":"catholic","historic":"wayside_cross","religion":"christian"}},
{"type":"Feature","geometry":{"type":"Point","coordinates":[6.5677712,47.1318045]},"properties":{"denomination":"catholic","historic":"wayside_cross","religion":"christian"}},
{"type":"Feature","geometry":{"type":"Point","coordinates":[6.5853981,47.1340745]},"properties":{"denomination":"catholic","historic":"wayside_cross","religion":"christian"}},
{"type":"Feature","geometry":{"type":"Point","coordinates":[6.5958525,47.1521238]},"properties":{"historic":"memorial","memorial":"war_memorial"}},
{"type":"Feature","geometry":{"type":"Point","coordinates":[6.5967154,47.1209845]},"properties":{"denomination":"catholic","historic":"wayside_cross","religion":"christian"}},
{"type":"Feature","geometry":{"type":"Point","coordinates":[6.6065235,47.1575768]},"properties":{"covered":"no","leisure":"picnic_table","material":"wood"}},
{"type":"Feature","geometry":{"type":"Point","coordinates":[6.6067266,47.1574298]},"properties":{"denomination":"catholic","historic":"wayside_shrine","religion":"christian"}},
{"type":"Feature","geometry":{"type":"Point","coordinates":[6.4726864,47.0673356]},"properties":{"ele":"1092","name":"Mont Chaumont","natural":"peak","wikidata":"Q31648000"}},
{"type":"Feature","geometry":{"type":"Point","coordinates":[6.6062968,47.0554216]},"properties":{"name":"La Guimbarde","tourism":"hotel"}},
{"type":"Feature","geometry":{"type":"Point","coordinates":[6.515561,47.1519184]},"properties":{"ele":"987","name":"Point de vue de la Roche Barchey","tourism":"viewpoint"}},
{"type":"Feature","geometry":{"type":"Point","coordinates":[6.6214349,47.1818344]},"properties":{"heritage":"3","heritage:operator":"mhs","historic":"wayside_cross","mhs:inscription_date":"1997-06-13","name":"Croix de Cimetière","ref:mhs":"PA25000008","source:heritage":"data.gouv.fr, Ministère de la Culture - 2016","start_date":"C19","wikidata":"Q3003494","wikipedia":"fr:Croix de cimetière de Laval-le-Prieuré"}},
{"type":"Feature","geometry":{"type":"Point","coordinates":[6.4667389,47.2250545]},"properties":{"heritage":"2","heritage:operator":"mhs","historic":"wayside_cross","mhs:inscription_date":"1992-08-31","name":"Croix du bas du village","ref:mhs":"PA00101765","source:heritage":"data.gouv.fr, Ministère de la Culture - 2016","start_date":"C16","wikidata":"Q3003328","wikipedia":"fr:Croix de Germéfontaine"}},
{"type":"Feature","geometry":{"type":"Point","coordinates":[6.4745495,47.1387064]},"properties":{"heritage":"2","heritage:operator":"mhs","historic":"wayside_cross","mhs:inscription_date":"1906-10-16","ref:mhs":"PA00101645","source:heritage":"data.gouv.fr, Ministère de la Culture - 2016","start_date":"C16","wikidata":"Q3003324","wikipedia":"fr:Croix de Flangebouche"}},
{"type":"Feature","geometry":{"type":"Point","coordinates":[6.4755489,47.2020996]},"properties":{"heritage":"2","heritage:operator":"mhs","historic":"wayside_cross","mhs:inscription_date":"1913-11-29","name":"Croix de chemin en pierre","ref:mhs":"PA00101638","source:heritage":"data.gouv.fr, Ministère de la Culture - 2016","start_date":"C16","wikidata":"Q3003439","wikipedia":"fr:Croix de chemin de Domprel"}},
{"type":"Feature","geometry":{"type":"Point","coordinates":[6.6356113,47.1195051]},"properties":{"description":"Croix en fer forgé","heritage":"3","heritage:operator":"mhs","historic":"wayside_cross","mhs:inscription_date":"1929-03-20","name":"Croix du Bélieu","ref:mhs":"PA00101448","source:heritage":"data.gouv.fr, Ministère de la Culture - 2016","wikidata":"Q3003605","wikipedia":"fr:Croix du Bélieu"}},
{"type":"Feature","geometry":{"type":"Point","coordinates":[6.6039699,47.0731478]},"properties":{"leisure":"picnic_table"}},
{"type":"Feature","geometry":{"type":"Point","coordinates":[6.6040337,47.0731057]},"properties":{"leisure":"picnic_table"}},
{"type":"Feature","geometry":{"type":"Point","coordinates":[6.6059106,47.0522088]},"properties":{"leisure":"sports_centre","name":"Stade Municipal de Rugby Gilles Lapraye"}},
{"type":"Feature","geometry":{"type":"Point","coordinates":[6.5852532,47.0481511]},"properties":{"direction":"150","ele":"900","name":"La roche de Jeannin","tourism":"viewpoint"}},
{"type":"Feature","geometry":{"type":"Point","coordinates":[6.6205638,47.1749604]},"properties":{"name":"L'aiguillon","name:en":"L'aiguillon","name:fr":"L'aiguillon","tourism":"viewpoint"}},
{"type":"Feature","geometry":{"type":"Point","coordinates":[6.6357966,47.1934548]},"properties":{"name":"Belvédère de Plaimbois","name:en":"Plaimbois point of view","name:fr":"Belvédère de Plaimbois","tourism":"viewpoint"}},
{"type":"Feature","geometry":{"type":"Point","coordinates":[6.4466274,47.1487239]},"properties":{"historic":"memorial","inscription":"http://www.aerosteles.net/stelefr-avoudrey-b17","material":"stone","memorial":"plaque","name":"Aérostèle du B-17 \"Why Worry II\""}},
{"type":"Feature","geometry":{"type":"Point","coordinates":[6.450242,47.130057]},"properties":{"access":"no","name":"Gouffre d'Orcheval","natural":"cave_entrance"}},
{"type":"Feature","geometry":{"type":"Point","coordinates":[6.5527237,47.2123338]},"properties":{"name":"Source du Val","natural":"spring"}},
{"type":"Feature","geometry":{"type":"Point","coordinates":[6.4964178,47.1528476]},"properties":{"denomination":"catholic","heritage":"2","heritage:operator":"mhs","historic":"wayside_cross","mhs:inscription_date":"1906-10-25","name":"Croix de l'Ancien Cimetière","ref:mhs":"PA00101662","religion":"christian","source:heritage":"data.gouv.fr:Ministère de la Culture - 04/2015"}},
{"type":"Feature","geometry":{"type":"Point","coordinates":[6.4294648,47.1448961]},"properties":{"historic":"wayside_cross","name":"Les 3 croix"}},
{"type":"Feature","geometry":{"type":"Point","coordinates":[6.4614371,47.2337848]},"properties":{"denomination":"catholic","heritage":"3","heritage:operator":"mhs","historic":"wayside_cross","mhs:inscription_date":"1989-07-07","name":"Croix du Mont","ref:mhs":"PA00101761","religion":"christian","source:heritage":"data.gouv.fr:Ministère de la Culture - 04/2015","wikidata":"Q3003617"}},
{"type":"Feature","geometry":{"type":"Point","coordinates":[6.4345762,47.1389967]},"properties":{"historic":"monument","name":"Monument"}},
{"type":"Feature","geometry":{"type":"Point","coordinates":[6.4342384,47.140162]},"properties":{"historic":"wayside_cross","name":"Vierge"}},
{"type":"Feature","geometry":{"type":"Point","coordinates":[6.4294698,47.1449613]},"properties":{"historic":"wayside_cross"}},
{"type":"Feature","geometry":{"type":"Point","coordinates":[6.4293822,47.1449327]},"properties":{"historic":"wayside_cross"}},
{"type":"Feature","geometry":{"type":"Point","coordinates":[6.428989,47.1402248]},"properties":{"historic":"wayside_cross"}},
{"type":"Feature","geometry":{"type":"Point","coordinates":[6.6007257,47.1709665]},"properties":{"access":"no","name":"Grotte Sainte-Catherine","natural":"cave_entrance","wheelchair":"no"}},
{"type":"Feature","geometry":{"type":"Point","coordinates":[6.4232247,47.1061821]},"properties":{"board_type":"nature","information":"board","name":"Zone protégée du Barchet","tourism":"information"}},
{"type":"Feature","geometry":{"type":"Point","coordinates":[6.4342737,47.1835124]},"properties":{"addr:city":"Vercel-Villedieu-le-Camp","addr:postcode":"25530","name":"Gouffre du Moray","natural":"cave_entrance"}},
{"type":"Feature","geometry":{"type":"Point","coordinates":[6.4330728,47.1789591]},"properties":{"ele":"795","natural":"peak"}},
{"type":"Feature","geometry":{"type":"Point","coordinates":[6.4847879,47.1748431]},"properties":{"name":"Belvédère des Genevois","tourism":"viewpoint"}},
{"type":"Feature","geometry":{"type":"Point","coordinates":[6.5155918,47.1518871]},"properties":{"ele":"988","name":"Roche Barchey","natural":"peak"}},
{"type":"Feature","geometry":{"type":"Point","coordinates":[6.4994741,47.1480795]},"properties":{"name":"Puits de Cival","natural":"cave_entrance"}},
{"type":"Feature","geometry":{"type":"Point","coordinates":[6.4623856,47.0563146]},"properties":{"ele":"1083","name":"Le Rond d'Amont","natural":"peak"}},
{"type":"Feature","geometry":{"type":"Point","coordinates":[6.569912,47.1048272]},"properties":{"description":"Grotte","natural":"cave_entrance"}},
{"type":"Feature","geometry":{"type":"Point","coordinates":[6.5239301,47.0947173]},"properties":{"name":"Gouffre","natural":"cave_entrance"}},
{"type":"Feature","geometry":{"type":"Point","coordinates":[6.4972043,47.0778793]},"properties":{"ele":"965","mountain_pass":"yes","name":"Col du Tonet","natural":"saddle"}},
{"type":"Feature","geometry":{"type":"Point","coordinates":[6.5339396,47.0782787]},"properties":{"ele":"962","natural":"peak"}},
{"type":"Feature","geometry":{"type":"Point","coordinates":[6.5681057,47.0665952]},"properties":{"ele":"1031","natural":"peak"}},
{"type":"Feature","geometry":{"type":"Point","coordinates":[6.573729,47.0632855]},"properties":{"ele":"1042","natural":"peak"}},
{"type":"Feature","geometry":{"type":"Point","coordinates":[6.5090037,47.1134578]},"properties":{"ele":"827","name":"Le Gros Cratot","natural":"peak"}},
{"type":"Feature","geometry":{"type":"Point","coordinates":[6.6425565,47.1023593]},"properties":{"ele":"936","natural":"peak"}},
{"type":"Feature","geometry":{"type":"Point","coordinates":[6.5274337,47.2567288]},"properties":{"description":"Terrain de Ball Trap","leisure":"pitch","source":"data.gouv.fr:Le ministère des droits des femmes, de la ville, de la jeunesse et des sports - 11/2015","sport":"shooting"}},
{"type":"Feature","geometry":{"type":"Point","coordinates":[6.5337755,47.04391]},"properties":{"leisure":"horse_riding","name":"Centre de Tourisme Équestre la Combe d'Abondance","source":"data.gouv.fr:Le ministère des droits des femmes, de la ville, de la jeunesse et des sports - 11/2015","sport":"equestrian"}},
{"type":"Feature","geometry":{"type":"Point","coordinates":[6.5095827,47.0345689]},"properties":{"leisure":"slipway","source":"data.gouv.fr:Le ministère des droits des femmes, de la ville, de la jeunesse et des sports - 11/2015"}},
{"type":"Feature","geometry":{"type":"Point","coordinates":[6.5339085,47.0338696]},"properties":{"name":"Site d'Escalade la Corchère","natural":"yes","source":"data.gouv.fr:Le ministère des droits des femmes, de la ville, de la jeunesse et des sports - 11/2015","sport":"climbing"}},
{"type":"Feature","geometry":{"type":"Point","coordinates":[6.5692117,47.0329734]},"properties":{"leisure":"pitch","name":"Stand de Tir Camille Baverel","source":"data.gouv.fr:Le ministère des droits des femmes, de la ville, de la jeunesse et des sports - 11/2015","sport":"shooting"}},
{"type":"Feature","geometry":{"type":"Point","coordinates":[6.607841,47.0601108]},"properties":{"leisure":"pitch","source":"data.gouv.fr:Le ministère des droits des femmes, de la ville, de la jeunesse et des sports - 11/2015","sport":"multi"}},
{"type":"Feature","geometry":{"type":"Point","coordinates":[6.60846,47.05956]},"properties":{"dance:teaching":"yes","leisure":"dance","source":"data.gouv.fr:Le ministère des droits des femmes, de la ville, de la jeunesse et des sports - 11/2015"}},
{"type":"Feature","geometry":{"type":"Point","coordinates":[6.6382635,47.0812076]},"properties":{"leisure":"pitch","name":"Tennis du centre nautique","source":"data.gouv.fr:Le ministère des droits des femmes, de la ville, de la jeunesse et des sports - 11/2015","sport":"tennis"}},
{"type":"Feature","geometry":{"type":"Point","coordinates":[6.5185873,47.1447223]},"properties":{"ele":"790","name":"Col des Äges","natural":"saddle"}},
{"type":"Feature","geometry":{"type":"Point","coordinates":[6.5965187,47.0521262]},"properties":{"addr:city":"Morteau","addr:housenumber":"10","addr:postcode":"25500","addr:street":"Chemin du Breuille","leisure":"resort","name":"Espace Morteau"}},
{"type":"Feature","geometry":{"type":"Point","coordinates":[6.5543836,47.1932829]},"properties":{"name":"Grotte de l'Ermite","natural":"cave_entrance"}},
{"type":"Feature","geometry":{"type":"Point","coordinates":[6.5564478,47.1909588]},"properties":{"natural":"spring"}},
{"type":"Feature","geometry":{"type":"Point","coordinates":[6.5620736,47.1121993]},"properties":{"historic":"wayside_cross"}},
{"type":"Feature","geometry":{"type":"Point","coordinates":[6.561742,47.1121596]},"properties":{"historic":"wayside_cross"}},
{"type":"Feature","geometry":{"type":"Point","coordinates":[6.5620122,47.0915345]},"properties":{"name":"Gouffre de Leusiole","natural":"cave_entrance"}},
{"type":"Feature","geometry":{"type":"Point","coordinates":[6.5687305,47.1597242]},"properties":{"historic":"wayside_cross","name":"Grande croix"}},
{"type":"Feature","geometry":{"type":"Point","coordinates":[6.6001022,47.1703]},"properties":{"access":"no","name":"Grotte du Bief Airoux","natural":"cave_entrance","wheelchair":"no"}},
{"type":"Feature","geometry":{"type":"Point","coordinates":[6.5353829,47.2129428]},"properties":{"historic":"monument","inscription":"A la mémoire d'Elie NORMAND Maire de La Sommette lâchement assassiné par les Allemands le 18 juin 1940 à l'âge de 62 ans.  Les maires du canton A leur collegue Elie NORMAND","name":"Stèle Elie NORMAND"}},
{"type":"Feature","geometry":{"type":"Point","coordinates":[6.4345129,47.1403859]},"properties":{"historic":"wayside_cross"}},
{"type":"Feature","geometry":{"type":"Point","coordinates":[6.4394554,47.1334385]},"properties":{"historic":"wayside_cross"}},
{"type":"Feature","geometry":{"type":"Point","coordinates":[6.525725,47.1302811]},"properties":{"historic":"memorial","memorial":"war_memorial","name":"Monument aux Morts"}},
{"type":"Feature","geometry":{"type":"Point","coordinates":[6.6397637,47.124824]},"properties":{"historic":"wayside_cross"}},
{"type":"Feature","geometry":{"type":"Point","coordinates":[6.6386326,47.1169592]},"properties":{"information":"board","tourism":"information"}},
{"type":"Feature","geometry":{"type":"Point","coordinates":[6.440095,47.1205804]},"properties":{"leisure":"picnic_table"}},
{"type":"Feature","geometry":{"type":"Point","coordinates":[6.4397947,47.1202149]},"properties":{"leisure":"picnic_table"}},
{"type":"Feature","geometry":{"type":"Point","coordinates":[6.5719422,47.2137013]},"properties":{"ele":"911","name":"Roche Percée","natural":"peak"}},
{"type":"Feature","geometry":{"type":"Point","coordinates":[6.554359,47.1930954]},"properties":{"historic":"wayside_cross","name":"Calvaire de Pierre Lamadou"}},
{"type":"Feature","geometry":{"type":"Point","coordinates":[6.5781542,47.2110849]},"properties":{"ele":"947","name":"Belmont","natural":"peak"}},
{"type":"Feature","geometry":{"type":"Point","coordinates":[6.5951591,47.2115731]},"properties":{"natural":"cave_entrance"}},
{"type":"Feature","geometry":{"type":"Point","coordinates":[6.557642,47.1755806]},"properties":{"ele":"1006","natural":"peak"}},
{"type":"Feature","geometry":{"type":"Point","coordinates":[6.5576895,47.1893436]},"properties":{"historic":"wayside_cross"}},
{"type":"Feature","geometry":{"type":"Point","coordinates":[6.5691795,47.2100462]},"properties":{"historic":"memorial","name":"Mémorial FFI"}},
{"type":"Feature","geometry":{"type":"Point","coordinates":[6.5532919,47.2596437]},"properties":{"name":"Gîte du peu","ref:refuges.info":"7795","tourism":"chalet"}},
{"type":"Feature","geometry":{"type":"Point","coordinates":[6.616742,47.2338652]},"properties":{"ele":"868","natural":"peak"}},
{"type":"Feature","geometry":{"type":"Point","coordinates":[6.5504265,47.2654043]},"properties":{"ele":"857","natural":"peak"}},
{"type":"Feature","geometry":{"type":"Point","coordinates":[6.5494475,47.2649772]},"properties":{"name":"Le Peu","tourism":"viewpoint"}},
{"type":"Feature","geometry":{"type":"Point","coordinates":[6.5060849,47.1915267]},"properties":{"historic":"wayside_cross"}},
{"type":"Feature","geometry":{"type":"Point","coordinates":[6.42757,47.1649933]},"properties":{"historic":"wayside_cross"}},
{"type":"Feature","geometry":{"type":"Point","coordinates":[6.4735998,47.1394069]},"properties":{"historic":"monument"}},
{"type":"Feature","geometry":{"type":"Point","coordinates":[6.4689269,47.1383053]},"properties":{"historic":"wayside_cross"}},
{"type":"Feature","geometry":{"type":"Point","coordinates":[6.4466469,47.1457734]},"properties":{"natural":"tree"}},
{"type":"Feature","geometry":{"type":"Point","coordinates":[6.4468507,47.1456658]},"properties":{"natural":"tree"}},
{"type":"Feature","geometry":{"type":"Point","coordinates":[6.4466951,47.1455983]},"properties":{"natural":"tree"}},
{"type":"Feature","geometry":{"type":"Point","coordinates":[6.4986738,47.1453153]},"properties":{"historic":"wayside_cross"}},
{"type":"Feature","geometry":{"type":"Point","coordinates":[6.4956171,47.1530267]},"properties":{"historic":"monument"}},
{"type":"Feature","geometry":{"type":"Point","coordinates":[6.6247294,47.1763248]},"properties":{"information":"guidepost","tourism":"information"}},
{"type":"Feature","geometry":{"type":"Point","coordinates":[6.6258142,47.1768897]},"properties":{"name":"La Rousse","tourism":"viewpoint"}},
{"type":"Feature","geometry":{"type":"Point","coordinates":[6.4995253,47.108741]},"properties":{"name":"Gouffre des Ravières","natural":"cave_entrance"}},
{"type":"Feature","geometry":{"type":"Point","coordinates":[6.6119724,47.1509173]},"properties":{"hiking":"yes","information":"guidepost","tourism":"information"}},
{"type":"Feature","geometry":{"type":"Point","coordinates":[6.6096711,47.1500235]},"properties":{"information":"board","tourism":"information"}},
{"type":"Feature","geometry":{"type":"Point","coordinates":[6.4231547,47.1066861]},"properties":{"name":"Perte du Moulin de Chantereine","natural":"cave_entrance"}},
{"type":"Feature","geometry":{"type":"Point","coordinates":[6.4859922,47.1748902]},"properties":{"name":"Grotte de la Réverotte","natural":"cave_entrance"}},
{"type":"Feature","geometry":{"type":"Point","coordinates":[6.4294907,47.2157302]},"properties":{"name":"Grotte de la Creuse","natural":"cave_entrance"}},
{"type":"Feature","geometry":{"type":"Point","coordinates":[6.5565736,47.1909262]},"properties":{"name":"Grotte de Vermondans","natural":"cave_entrance"}},
{"type":"Feature","geometry":{"type":"Point","coordinates":[6.5626751,47.0908106]},"properties":{"name":"Gouffre Huot","natural":"cave_entrance"}},
{"type":"Feature","geometry":{"type":"Point","coordinates":[6.5633727,47.0906698]},"properties":{"name":"Gouffre du Charretier","natural":"cave_entrance"}},
{"type":"Feature","geometry":{"type":"Point","coordinates":[6.6068305,47.0592984]},"properties":{"natural":"tree"}},
{"type":"Feature","geometry":{"type":"Point","coordinates":[6.6081555,47.0604275]},"properties":{"natural":"tree"}},
{"type":"Feature","geometry":{"type":"Point","coordinates":[6.6055591,47.0585474]},"properties":{"natural":"tree"}},
{"type":"Feature","geometry":{"type":"Point","coordinates":[6.605872,47.0579656]},"properties":{"natural":"tree"}},
{"type":"Feature","geometry":{"type":"Point","coordinates":[6.6049681,47.0565275]},"properties":{"natural":"tree"}},
{"type":"Feature","geometry":{"type":"Point","coordinates":[6.6050781,47.0565768]},"properties":{"natural":"tree"}},
{"type":"Feature","geometry":{"type":"Point","coordinates":[6.6067098,47.0588616]},"properties":{"tourism":"artwork"}},
{"type":"Feature","geometry":{"type":"Point","coordinates":[6.6041232,47.0565678]},"properties":{"natural":"tree"}},
{"type":"Feature","geometry":{"type":"Point","coordinates":[6.6058666,47.057569]},"properties":{"natural":"tree"}},
{"type":"Feature","geometry":{"type":"Point","coordinates":[6.6040964,47.0566427]},"properties":{"natural":"tree"}},
{"type":"Feature","geometry":{"type":"Point","coordinates":[6.6057406,47.057803]},"properties":{"natural":"tree"}},
{"type":"Feature","geometry":{"type":"Point","coordinates":[6.607197,47.060487]},"properties":{"natural":"tree"}},
{"type":"Feature","geometry":{"type":"Point","coordinates":[6.6054831,47.0575398]},"properties":{"natural":"tree"}},
{"type":"Feature","geometry":{"type":"Point","coordinates":[6.6061751,47.0571743]},"properties":{"natural":"tree"}},
{"type":"Feature","geometry":{"type":"Point","coordinates":[6.6053436,47.0574504]},"properties":{"natural":"tree"}},
{"type":"Feature","geometry":{"type":"Point","coordinates":[6.604496,47.0574357]},"properties":{"natural":"tree"}},
{"type":"Feature","geometry":{"type":"Point","coordinates":[6.6055689,47.0577263]},"properties":{"natural":"tree"}},
{"type":"Feature","geometry":{"type":"Point","coordinates":[6.6059417,47.0575125]},"properties":{"natural":"tree"}},
{"type":"Feature","geometry":{"type":"Point","coordinates":[6.6055301,47.058542]},"properties":{"natural":"tree"}},
{"type":"Feature","geometry":{"type":"Point","coordinates":[6.6043887,47.057675]},"properties":{"natural":"tree"}},
{"type":"Feature","geometry":{"type":"Point","coordinates":[6.6047776,47.0564307]},"properties":{"natural":"tree"}},
{"type":"Feature","geometry":{"type":"Point","coordinates":[6.6064057,47.0572749]},"properties":{"natural":"tree"}},
{"type":"Feature","geometry":{"type":"Point","coordinates":[6.604201,47.056533]},"properties":{"natural":"tree"}},
{"type":"Feature","geometry":{"type":"Point","coordinates":[6.6063467,47.0573096]},"properties":{"natural":"tree"}},
{"type":"Feature","geometry":{"type":"Point","coordinates":[6.6062931,47.0571269]},"properties":{"natural":"tree"}},
{"type":"Feature","geometry":{"type":"Point","coordinates":[6.6031522,47.0567615]},"properties":{"natural":"tree"}},
{"type":"Feature","geometry":{"type":"Point","coordinates":[6.6044451,47.0575125]},"properties":{"natural":"tree"}},
{"type":"Feature","geometry":{"type":"Point","coordinates":[6.6050941,47.0568455]},"properties":{"natural":"tree"}},
{"type":"Feature","geometry":{"type":"Point","coordinates":[6.6032944,47.0568711]},"properties":{"natural":"tree"}},
{"type":"Feature","geometry":{"type":"Point","coordinates":[6.6044692,47.0570336]},"properties":{"natural":"tree"}},
{"type":"Feature","geometry":{"type":"Point","coordinates":[6.6057888,47.0575252]},"properties":{"natural":"tree"}},
{"type":"Feature","geometry":{"type":"Point","coordinates":[6.6067151,47.0592143]},"properties":{"natural":"tree"}},
{"type":"Feature","geometry":{"type":"Point","coordinates":[6.6055018,47.0574174]},"properties":{"natural":"tree"}},
{"type":"Feature","geometry":{"type":"Point","coordinates":[6.605011,47.0569223]},"properties":{"natural":"tree"}},
{"type":"Feature","geometry":{"type":"Point","coordinates":[6.6070173,47.0604542]},"properties":{"natural":"tree"}},
{"type":"Feature","geometry":{"type":"Point","coordinates":[6.6049144,47.0570027]},"properties":{"natural":"tree"}},
{"type":"Feature","geometry":{"type":"Point","coordinates":[6.6052068,47.0567377]},"properties":{"natural":"tree"}},
{"type":"Feature","geometry":{"type":"Point","coordinates":[6.6070719,47.060676]},"properties":{"natural":"tree"}},
{"type":"Feature","geometry":{"type":"Point","coordinates":[6.6042502,47.0579481]},"properties":{"natural":"tree"}},
{"type":"Feature","geometry":{"type":"Point","coordinates":[6.605475,47.0577372]},"properties":{"natural":"tree"}},
{"type":"Feature","geometry":{"type":"Point","coordinates":[6.60518,47.0573316]},"properties":{"natural":"tree"}},
{"type":"Feature","geometry":{"type":"Point","coordinates":[6.6061188,47.057644]},"properties":{"natural":"tree"}},
{"type":"Feature","geometry":{"type":"Point","coordinates":[6.6057272,47.0575088]},"properties":{"natural":"tree"}},
{"type":"Feature","geometry":{"type":"Point","coordinates":[6.6048581,47.0564745]},"properties":{"natural":"tree"}},
{"type":"Feature","geometry":{"type":"Point","coordinates":[6.6041851,47.0578869]},"properties":{"natural":"tree"}},
{"type":"Feature","geometry":{"type":"Point","coordinates":[6.6043968,47.0575801]},"properties":{"natural":"tree"}},
{"type":"Feature","geometry":{"type":"Point","coordinates":[6.6043977,47.0579152]},"properties":{"natural":"tree"}},
{"type":"Feature","geometry":{"type":"Point","coordinates":[6.6057111,47.0576477]},"properties":{"natural":"tree"}},
{"type":"Feature","geometry":{"type":"Point","coordinates":[6.6058318,47.0579218]},"properties":{"natural":"tree"}},
{"type":"Feature","geometry":{"type":"Point","coordinates":[6.6057915,47.0578633]},"properties":{"natural":"tree"}},
{"type":"Feature","geometry":{"type":"Point","coordinates":[6.6059846,47.0574832]},"properties":{"natural":"tree"}},
{"type":"Feature","geometry":{"type":"Point","coordinates":[6.605652,47.0577263]},"properties":{"natural":"tree"}},
{"type":"Feature","geometry":{"type":"Point","coordinates":[6.6043709,47.0578495]},"properties":{"natural":"tree"}},
{"type":"Feature","geometry":{"type":"Point","coordinates":[6.6059337,47.0581155]},"properties":{"natural":"tree"}},
{"type":"Feature","geometry":{"type":"Point","coordinates":[6.60588,47.0581575]},"properties":{"natural":"tree"}},
{"type":"Feature","geometry":{"type":"Point","coordinates":[6.6057111,47.0577628]},"properties":{"natural":"tree"}},
{"type":"Feature","geometry":{"type":"Point","coordinates":[6.6058774,47.0575252]},"properties":{"natural":"tree"}},
{"type":"Feature","geometry":{"type":"Point","coordinates":[6.6062421,47.0571488]},"properties":{"natural":"tree"}},
{"type":"Feature","geometry":{"type":"Point","coordinates":[6.6059364,47.0580625]},"properties":{"natural":"tree"}},
{"type":"Feature","geometry":{"type":"Point","coordinates":[6.6059069,47.0580113]},"properties":{"natural":"tree"}},
{"type":"Feature","geometry":{"type":"Point","coordinates":[6.6060302,47.0574595]},"properties":{"natural":"tree"}},
{"type":"Feature","geometry":{"type":"Point","coordinates":[6.605644,47.0574778]},"properties":{"natural":"tree"}},
{"type":"Feature","geometry":{"type":"Point","coordinates":[6.6047437,47.0551164]},"properties":{"contact:facebook":"https://www.facebook.com/fitnessmorteau","contact:instagram":"https://www.instagram.com/libertefitness.morteau/","email":"contact@liberte-fitness.fr","leisure":"fitness_centre","name":"Liberté Fitness","opening_hours":"Mo-Fr 06:00-23:00; Sa,Su 07:00-22:00","personal_trainer":"yes","phone":"+33 3 81 67 29 91","ref:FR:SIRET":"53316638500013","website":"https://liberte-fitness.fr/"}},
{"type":"Feature","geometry":{"type":"Point","coordinates":[6.6057441,47.0562322]},"properties":{"natural":"tree"}},
{"type":"Feature","geometry":{"type":"Point","coordinates":[6.6046393,47.0546046]},"properties":{"leisure":"fitness_centre","name":"Lib'Fit"}},
{"type":"Feature","geometry":{"type":"Point","coordinates":[6.606077,47.055907]},"properties":{"natural":"tree"}},
{"type":"Feature","geometry":{"type":"Point","coordinates":[6.6050038,47.05488]},"properties":{"natural":"tree"}},
{"type":"Feature","geometry":{"type":"Point","coordinates":[6.6058407,47.0560368]},"properties":{"natural":"tree"}},
{"type":"Feature","geometry":{"type":"Point","coordinates":[6.6016755,47.0542209]},"properties":{"natural":"tree"}},
{"type":"Feature","geometry":{"type":"Point","coordinates":[6.6048402,47.0539023]},"properties":{"tourism":"artwork"}},
{"type":"Feature","geometry":{"type":"Point","coordinates":[6.6060097,47.0558723]},"properties":{"natural":"tree"}},
{"type":"Feature","geometry":{"type":"Point","coordinates":[6.6028369,47.054495]},"properties":{"natural":"tree"}},
{"type":"Feature","geometry":{"type":"Point","coordinates":[6.6027189,47.0544712]},"properties":{"natural":"tree"}},
{"type":"Feature","geometry":{"type":"Point","coordinates":[6.604564,47.0539663]},"properties":{"natural":"tree"}},
{"type":"Feature","geometry":{"type":"Point","coordinates":[6.6040865,47.0547984]},"properties":{"natural":"tree"}},
{"type":"Feature","geometry":{"type":"Point","coordinates":[6.602228,47.0543506]},"properties":{"natural":"tree"}},
{"type":"Feature","geometry":{"type":"Point","coordinates":[6.6039124,47.0547564]},"properties":{"natural":"tree"}},
{"type":"Feature","geometry":{"type":"Point","coordinates":[6.601941,47.054283]},"properties":{"natural":"tree"}},
{"type":"Feature","geometry":{"type":"Point","coordinates":[6.6065142,47.055525]},"properties":{"natural":"tree"}},
{"type":"Feature","geometry":{"type":"Point","coordinates":[6.6069002,47.0550848]},"properties":{"natural":"tree"}},
{"type":"Feature","geometry":{"type":"Point","coordinates":[6.6064174,47.0554867]},"properties":{"natural":"tree"}},
{"type":"Feature","geometry":{"type":"Point","coordinates":[6.6064576,47.0552162]},"properties":{"natural":"tree"}},
{"type":"Feature","geometry":{"type":"Point","coordinates":[6.6037596,47.0547198]},"properties":{"natural":"tree"}},
{"type":"Feature","geometry":{"type":"Point","coordinates":[6.6056476,47.0561958]},"properties":{"natural":"tree"}},
{"type":"Feature","geometry":{"type":"Point","coordinates":[6.6064817,47.0551231]},"properties":{"natural":"tree"}},
{"type":"Feature","geometry":{"type":"Point","coordinates":[6.6018069,47.054252]},"properties":{"natural":"tree"}},
{"type":"Feature","geometry":{"type":"Point","coordinates":[6.6063101,47.0557134]},"properties":{"natural":"tree"}},
{"type":"Feature","geometry":{"type":"Point","coordinates":[6.6062162,47.0556712]},"properties":{"natural":"tree"}},
{"type":"Feature","geometry":{"type":"Point","coordinates":[6.6024185,47.0544]},"properties":{"natural":"tree"}},
{"type":"Feature","geometry":{"type":"Point","coordinates":[6.604395,47.0548696]},"properties":{"natural":"tree"}},
{"type":"Feature","geometry":{"type":"Point","coordinates":[6.6025821,47.0544366]},"properties":{"natural":"tree"}},
{"type":"Feature","geometry":{"type":"Point","coordinates":[6.6066909,47.055379]},"properties":{"natural":"tree"}},
{"type":"Feature","geometry":{"type":"Point","coordinates":[6.60303,47.0545353]},"properties":{"natural":"tree"}},
{"type":"Feature","geometry":{"type":"Point","coordinates":[6.606699,47.0551195]},"properties":{"natural":"tree"}},
{"type":"Feature","geometry":{"type":"Point","coordinates":[6.6065837,47.0553223]},"properties":{"natural":"tree"}},
{"type":"Feature","geometry":{"type":"Point","coordinates":[6.6073385,47.0550041]},"properties":{"natural":"tree"}},
{"type":"Feature","geometry":{"type":"Point","coordinates":[6.6031882,47.0545791]},"properties":{"natural":"tree"}},
{"type":"Feature","geometry":{"type":"Point","coordinates":[6.607644,47.0549439]},"properties":{"natural":"tree"}},
{"type":"Feature","geometry":{"type":"Point","coordinates":[6.6068025,47.0550714]},"properties":{"natural":"tree"}},
{"type":"Feature","geometry":{"type":"Point","coordinates":[6.6079096,47.0549658]},"properties":{"natural":"tree"}},
{"type":"Feature","geometry":{"type":"Point","coordinates":[6.6081958,47.0567403]},"properties":{"natural":"tree"}},
{"type":"Feature","geometry":{"type":"Point","coordinates":[6.6071425,47.0550408]},"properties":{"natural":"tree"}},
{"type":"Feature","geometry":{"type":"Point","coordinates":[6.6156044,47.0562227]},"properties":{"natural":"tree"}},
{"type":"Feature","geometry":{"type":"Point","coordinates":[6.6149258,47.0565169]},"properties":{"natural":"tree"}},
{"type":"Feature","geometry":{"type":"Point","coordinates":[6.6163125,47.0567179]},"properties":{"natural":"tree"}},
{"type":"Feature","geometry":{"type":"Point","coordinates":[6.5256776,47.1306076]},"properties":{"natural":"tree"}},
{"type":"Feature","geometry":{"type":"Point","coordinates":[6.5250821,47.1304071]},"properties":{"natural":"tree"}},
{"type":"Feature","geometry":{"type":"Point","coordinates":[6.5261246999999999,47.130380100000007]},"properties":{"natural":"tree"}},
{"type":"Feature","geometry":{"type":"Point","coordinates":[6.5258109,47.1308018]},"properties":{"natural":"tree"}},
{"type":"Feature","geometry":{"type":"Point","coordinates":[6.5260684,47.1304405]},"properties":{"natural":"tree"}},
{"type":"Feature","geometry":{"type":"Point","coordinates":[6.5249212,47.1305346]},"properties":{"leaf_type":"broadleaved","natural":"tree"}},
{"type":"Feature","geometry":{"type":"Point","coordinates":[6.524501,47.130247]},"properties":{"leaf_type":"broadleaved","natural":"tree"}},
{"type":"Feature","geometry":{"type":"Point","coordinates":[6.5255864,47.1304835]},"properties":{"natural":"tree"}},
{"type":"Feature","geometry":{"type":"Point","coordinates":[6.5248488,47.1303286]},"properties":{"leaf_type":"broadleaved","natural":"tree"}},
{"type":"Feature","geometry":{"type":"Point","coordinates":[6.5251774,47.1296021]},"properties":{"historic":"wayside_cross"}},
{"type":"Feature","geometry":{"type":"Point","coordinates":[6.5255266,47.1301228]},"properties":{"natural":"tree"}},
{"type":"Feature","geometry":{"type":"Point","coordinates":[6.5247361,47.1304325]},"properties":{"natural":"tree"}},
{"type":"Feature","geometry":{"type":"Point","coordinates":[6.5263581,47.1302944]},"properties":{"natural":"tree"}},
{"type":"Feature","geometry":{"type":"Point","coordinates":[6.523877,47.1277853]},"properties":{"leisure":"playground"}},
{"type":"Feature","geometry":{"type":"Point","coordinates":[6.5269481,47.1316373]},"properties":{"natural":"tree"}},
{"type":"Feature","geometry":{"type":"Point","coordinates":[6.5256821,47.1300718]},"properties":{"natural":"tree"}},
{"type":"Feature","geometry":{"type":"Point","coordinates":[6.52435,47.1303048]},"properties":{"leaf_cycle":"deciduous","leaf_type":"broadleaved","natural":"tree"}},
{"type":"Feature","geometry":{"type":"Point","coordinates":[6.5256213,47.1305237]},"properties":{"natural":"tree"}},
{"type":"Feature","geometry":{"type":"Point","coordinates":[6.5258484,47.1303912]},"properties":{"natural":"tree"}},
{"type":"Feature","geometry":{"type":"Point","coordinates":[6.5260711,47.1312085]},"properties":{"natural":"tree"}},
{"type":"Feature","geometry":{"type":"Point","coordinates":[6.5254917,47.1300773]},"properties":{"natural":"tree"}},
{"type":"Feature","geometry":{"type":"Point","coordinates":[6.5223109,47.1272889]},"properties":{"natural":"tree"}},
{"type":"Feature","geometry":{"type":"Point","coordinates":[6.5232416,47.1274952]},"properties":{"natural":"tree"}},
{"type":"Feature","geometry":{"type":"Point","coordinates":[6.5239816,47.1279532]},"properties":{"leisure":"playground"}},
{"type":"Feature","geometry":{"type":"Point","coordinates":[6.5239307,47.1279203]},"properties":{"leisure":"playground"}},
{"type":"Feature","geometry":{"type":"Point","coordinates":[6.5239789,47.1280444]},"properties":{"leisure":"playground"}},
{"type":"Feature","geometry":{"type":"Point","coordinates":[6.521922,47.1272505]},"properties":{"natural":"tree"}},
{"type":"Feature","geometry":{"type":"Point","coordinates":[6.5221902,47.1272688]},"properties":{"natural":"tree"}},
{"type":"Feature","geometry":{"type":"Point","coordinates":[6.5220561,47.1272561]},"properties":{"natural":"tree"}},
{"type":"Feature","geometry":{"type":"Point","coordinates":[6.5229653,47.1274842]},"properties":{"natural":"tree"}},
{"type":"Feature","geometry":{"type":"Point","coordinates":[6.5239146,47.127612]},"properties":{"natural":"tree"}},
{"type":"Feature","geometry":{"type":"Point","coordinates":[6.5240219,47.1278236]},"properties":{"natural":"tree"}},
{"type":"Feature","geometry":{"type":"Point","coordinates":[6.5226515,47.1273638]},"properties":{"natural":"tree"}},
{"type":"Feature","geometry":{"type":"Point","coordinates":[6.5239628,47.1277178]},"properties":{"natural":"tree"}},
{"type":"Feature","geometry":{"type":"Point","coordinates":[6.5239038,47.1279842]},"properties":{"leisure":"playground"}},
{"type":"Feature","geometry":{"type":"Point","coordinates":[6.5239307,47.1280352]},"properties":{"leisure":"playground"}},
{"type":"Feature","geometry":{"type":"Point","coordinates":[6.5227722,47.1273984]},"properties":{"natural":"tree"}},
{"type":"Feature","geometry":{"type":"Point","coordinates":[6.5240755,47.1279403]},"properties":{"natural":"tree"}},
{"type":"Feature","geometry":{"type":"Point","coordinates":[6.5246575,47.124639]},"properties":{"historic":"wayside_cross"}},
{"type":"Feature","geometry":{"type":"Point","coordinates":[6.5246924,47.1245697]},"properties":{"natural":"tree"}},
{"type":"Feature","geometry":{"type":"Point","coordinates":[6.5225576,47.1273382]},"properties":{"natural":"tree"}},
{"type":"Feature","geometry":{"type":"Point","coordinates":[6.5237137,47.1278053]},"properties":{"natural":"tree"}},
{"type":"Feature","geometry":{"type":"Point","coordinates":[6.5224369,47.1273089]},"properties":{"natural":"tree"}},
{"type":"Feature","geometry":{"type":"Point","coordinates":[6.6340503,47.0829785]},"properties":{"information":"map","tourism":"information"}},
{"type":"Feature","geometry":{"type":"Point","coordinates":[6.6284897,47.0783093]},"properties":{"natural":"tree"}},
{"type":"Feature","geometry":{"type":"Point","coordinates":[6.630048,47.078682]},"properties":{"natural":"tree"}},
{"type":"Feature","geometry":{"type":"Point","coordinates":[6.4349898,47.1331376]},"properties":{"natural":"tree"}},
{"type":"Feature","geometry":{"type":"Point","coordinates":[6.4349557,47.1332192]},"properties":{"natural":"tree"}},
{"type":"Feature","geometry":{"type":"Point","coordinates":[6.4549751,47.1941728]},"properties":{"historic":"wayside_shrine"}},
{"type":"Feature","geometry":{"type":"Point","coordinates":[6.5848966,47.1540187]},"properties":{"historic":"wayside_cross"}},
{"type":"Feature","geometry":{"type":"Point","coordinates":[6.4302222,47.1631845]},"properties":{"information":"yes","name":"Balance publique","tourism":"information"}},
{"type":"Feature","geometry":{"type":"Point","coordinates":[6.4559727,47.2341365]},"properties":{"amenity":"fountain"}},
{"type":"Feature","geometry":{"type":"Point","coordinates":[6.4607508,47.2344349]},"properties":{"historic":"wayside_cross"}},
{"type":"Feature","geometry":{"type":"Point","coordinates":[6.4930809,47.0475727]},"properties":{"bicycle":"yes","information":"map","map_size":"region","map_type":"topo","tourism":"information"}},
{"type":"Feature","geometry":{"type":"Point","coordinates":[6.4931043,47.0475371]},"properties":{"covered":"no","leisure":"picnic_table"}},
{"type":"Feature","geometry":{"type":"Point","coordinates":[6.4916405,47.0416371]},"properties":{"covered":"no","leisure":"picnic_table"}},
{"type":"Feature","geometry":{"type":"Point","coordinates":[6.4387857,47.2258802]},"properties":{"natural":"tree"}},
{"type":"Feature","geometry":{"type":"Point","coordinates":[6.4402153,47.2271681]},"properties":{"information":"map","tourism":"information"}},
{"type":"Feature","geometry":{"type":"Point","coordinates":[6.4401241,47.2272372]},"properties":{"tourism":"information"}},
{"type":"Feature","geometry":{"type":"Point","coordinates":[6.4402019,47.2272027]},"properties":{"natural":"tree"}},
{"type":"Feature","geometry":{"type":"Point","coordinates":[6.4414974,47.2262026]},"properties":{"natural":"tree"}},
{"type":"Feature","geometry":{"type":"Point","coordinates":[6.4420794,47.2259004]},"properties":{"historic":"memorial"}},
{"type":"Feature","geometry":{"type":"Point","coordinates":[6.4387535,47.2258748]},"properties":{"historic":"wayside_cross"}},
{"type":"Feature","geometry":{"type":"Point","coordinates":[6.4407402,47.1386889]},"properties":{"natural":"tree"}},
{"type":"Feature","geometry":{"type":"Point","coordinates":[6.4343154,47.1379842]},"properties":{"historic":"wayside_cross"}},
{"type":"Feature","geometry":{"type":"Point","coordinates":[6.4345619,47.1378752]},"properties":{"artwork_type":"statue","name":"Saint Donat","tourism":"artwork"}},
{"type":"Feature","geometry":{"type":"Point","coordinates":[6.4348371,47.1378461]},"properties":{"addr:city":"Avoudrey","addr:postcode":"25690","addr:street":"Place Saint-Donat","information":"terminal","operator":"Commune","tourism":"information"}},
{"type":"Feature","geometry":{"type":"Point","coordinates":[6.4306234,47.1338439]},"properties":{"natural":"tree"}},
{"type":"Feature","geometry":{"type":"Point","coordinates":[6.4307389,47.1337506]},"properties":{"natural":"tree"}},
{"type":"Feature","geometry":{"type":"Point","coordinates":[6.5879997,47.0486734]},"properties":{"leisure":"pitch","sport":"climbing_adventure"}},
{"type":"Feature","geometry":{"type":"Point","coordinates":[6.5866787,47.0552425]},"properties":{"leisure":"playground","playground:seesaw":"yes"}},
{"type":"Feature","geometry":{"type":"Point","coordinates":[6.5884047,47.0557962]},"properties":{"historic":"wayside_cross"}},
{"type":"Feature","geometry":{"type":"Point","coordinates":[6.6289213,47.1071942]},"properties":{"leaf_type":"broadleaved","natural":"tree"}},
{"type":"Feature","geometry":{"type":"Point","coordinates":[6.6290568,47.1072928]},"properties":{"leaf_type":"broadleaved","natural":"tree"}},
{"type":"Feature","geometry":{"type":"Point","coordinates":[6.6291104,47.1072672]},"properties":{"leaf_type":"broadleaved","natural":"tree"}},
{"type":"Feature","geometry":{"type":"Point","coordinates":[6.6290179,47.1072462]},"properties":{"leaf_type":"broadleaved","natural":"tree"}},
{"type":"Feature","geometry":{"type":"Point","coordinates":[6.6289709,47.1072754]},"properties":{"leaf_type":"broadleaved","natural":"tree"}},
{"type":"Feature","geometry":{"type":"Point","coordinates":[6.6288771,47.1072316]},"properties":{"leaf_type":"broadleaved","natural":"tree"}},
{"type":"Feature","geometry":{"type":"Point","coordinates":[6.6297696,47.1058012]},"properties":{"leaf_type":"broadleaved","natural":"tree"}},
{"type":"Feature","geometry":{"type":"Point","coordinates":[6.6295516,47.1060304]},"properties":{"leaf_type":"broadleaved","natural":"tree"}},
{"type":"Feature","geometry":{"type":"Point","coordinates":[6.6296268,47.1059587]},"properties":{"leaf_type":"broadleaved","natural":"tree"}},
{"type":"Feature","geometry":{"type":"Point","coordinates":[6.6293605,47.1064594]},"properties":{"leaf_type":"broadleaved","natural":"tree"}},
{"type":"Feature","geometry":{"type":"Point","coordinates":[6.6290233,47.1065748]},"properties":{"leaf_type":"broadleaved","natural":"tree"}},
{"type":"Feature","geometry":{"type":"Point","coordinates":[6.4347634,47.1383023]},"properties":{"addr:city":"Avoudrey","addr:housenumber":"17","addr:postcode":"25690","addr:street":"Grande Rue","information":"board","operator":"Commune","tourism":"information"}},
{"type":"Feature","geometry":{"type":"Point","coordinates":[6.4459399,47.1459966]},"properties":{"natural":"tree"}},
{"type":"Feature","geometry":{"type":"Point","coordinates":[6.4457998,47.1456613]},"properties":{"natural":"tree"}},
{"type":"Feature","geometry":{"type":"Point","coordinates":[6.4452567,47.1457005]},"properties":{"natural":"tree"}},
{"type":"Feature","geometry":{"type":"Point","coordinates":[6.4461051,47.1458077]},"properties":{"natural":"tree"}},
{"type":"Feature","geometry":{"type":"Point","coordinates":[6.4455896,47.1459677]},"properties":{"natural":"tree"}},
{"type":"Feature","geometry":{"type":"Point","coordinates":[6.4458173,47.1462026]},"properties":{"natural":"tree"}},
{"type":"Feature","geometry":{"type":"Point","coordinates":[6.6039808,47.0571605]},"properties":{"natural":"tree"}},
{"type":"Feature","geometry":{"type":"Point","coordinates":[6.6040847,47.0571409]},"properties":{"natural":"tree"}},
{"type":"Feature","geometry":{"type":"Point","coordinates":[6.6041853,47.0571171]},"properties":{"natural":"tree"}},
{"type":"Feature","geometry":{"type":"Point","coordinates":[6.6042779,47.0570988]},"properties":{"natural":"tree"}},
{"type":"Feature","geometry":{"type":"Point","coordinates":[6.6043697,47.0570796]},"properties":{"natural":"tree"}},
{"type":"Feature","geometry":{"type":"Point","coordinates":[6.6049726,47.0571865]},"properties":{"natural":"tree"}},
{"type":"Feature","geometry":{"type":"Point","coordinates":[6.6469385,47.1449984]},"properties":{"natural":"tree"}},
{"type":"Feature","geometry":{"type":"Point","coordinates":[6.6488643,47.1389998]},"properties":{"natural":"tree"}},
{"type":"Feature","geometry":{"type":"Point","coordinates":[6.6074918,47.0456363]},"properties":{"leaf_type":"broadleaved","natural":"tree"}},
{"type":"Feature","geometry":{"type":"Point","coordinates":[6.607343,47.045565]},"properties":{"leaf_type":"broadleaved","natural":"tree"}},
{"type":"Feature","geometry":{"type":"Point","coordinates":[6.6071337,47.0454626]},"properties":{"leaf_type":"broadleaved","natural":"tree"}},
{"type":"Feature","geometry":{"type":"Point","coordinates":[6.6069339,47.0453694]},"properties":{"leaf_type":"broadleaved","natural":"tree"}},
{"type":"Feature","geometry":{"type":"Point","coordinates":[6.6068749,47.0453438]},"properties":{"leaf_type":"broadleaved","natural":"tree"}},
{"type":"Feature","geometry":{"type":"Point","coordinates":[6.6066523,47.0452397]},"properties":{"leaf_type":"broadleaved","natural":"tree"}},
{"type":"Feature","geometry":{"type":"Point","coordinates":[6.6069941,47.0437093]},"properties":{"leaf_type":"broadleaved","natural":"tree"}},
{"type":"Feature","geometry":{"type":"Point","coordinates":[6.6080028,47.043868]},"properties":{"leaf_type":"broadleaved","natural":"tree"}},
{"type":"Feature","geometry":{"type":"Point","coordinates":[6.6078459,47.0439219]},"properties":{"leaf_type":"broadleaved","natural":"tree"}},
{"type":"Feature","geometry":{"type":"Point","coordinates":[6.6077346,47.0438469]},"properties":{"leaf_type":"broadleaved","natural":"tree"}},
{"type":"Feature","geometry":{"type":"Point","coordinates":[6.6075562,47.0437364]},"properties":{"leaf_type":"broadleaved","natural":"tree"}},
{"type":"Feature","geometry":{"type":"Point","coordinates":[6.607473,47.0436779]},"properties":{"leaf_type":"broadleaved","natural":"tree"}},
{"type":"Feature","geometry":{"type":"Point","coordinates":[6.6073872,47.0436294]},"properties":{"leaf_type":"broadleaved","natural":"tree"}},
{"type":"Feature","geometry":{"type":"Point","coordinates":[6.6073014,47.0435719]},"properties":{"leaf_type":"broadleaved","natural":"tree"}},
{"type":"Feature","geometry":{"type":"Point","coordinates":[6.6072611,47.0436102]},"properties":{"leaf_type":"broadleaved","natural":"tree"}},
{"type":"Feature","geometry":{"type":"Point","coordinates":[6.6072799,47.0436824]},"properties":{"leaf_type":"broadleaved","natural":"tree"}},
{"type":"Feature","geometry":{"type":"Point","coordinates":[6.6072947,47.0437583]},"properties":{"leaf_type":"broadleaved","natural":"tree"}},
{"type":"Feature","geometry":{"type":"Point","coordinates":[6.4479715,47.2436056]},"properties":{"information":"board","source":"survey","tourism":"information"}},
{"type":"Feature","geometry":{"type":"Point","coordinates":[6.600736,47.0542025]},"properties":{"addr:city":"Morteau","addr:country":"FR","addr:housenumber":"17","addr:postcode":"25500","addr:street":"Rue de la Glapiney","contact:facebook":"https://www.facebook.com/museehorlomorteau/","fee":"yes","name":"Musée de l'Horlogerie du Haut-Doubs","opening_hours":"Mo-Su 10:00-12:00,14:00-18:00","phone":"+33 3 81 67 40 88","tourism":"museum","website":"https://www.morteau.org/culture-et-loisirs/chateau-pertusier/;http://www.musee-horlogerie.com/"}},
{"type":"Feature","geometry":{"type":"Point","coordinates":[6.5488766,47.2529819]},"properties":{"historic":"wayside_cross"}},
{"type":"Feature","geometry":{"type":"Point","coordinates":[6.5509817,47.2560388]},"properties":{"historic":"wayside_cross"}},
{"type":"Feature","geometry":{"type":"Point","coordinates":[6.5552857,47.2560089]},"properties":{"historic":"wayside_cross"}},
{"type":"Feature","geometry":{"type":"Point","coordinates":[6.5557016,47.2607872]},"properties":{"historic":"wayside_cross"}},
{"type":"Feature","geometry":{"type":"Point","coordinates":[6.5617554,47.2625964]},"properties":{"historic":"wayside_cross"}},
{"type":"Feature","geometry":{"type":"Point","coordinates":[6.5518323,47.2125638]},"properties":{"tourism":"viewpoint"}},
{"type":"Feature","geometry":{"type":"Point","coordinates":[6.5827364,47.2130842]},"properties":{"name":"Belvedère du Bemont","tourism":"viewpoint"}},
{"type":"Feature","geometry":{"type":"Point","coordinates":[6.6499816,47.2368006]},"properties":{"historic":"memorial","memorial":"war_memorial","ref:FR:MemorialGenWeb":"46102"}},
{"type":"Feature","geometry":{"type":"Point","coordinates":[6.5481932,47.0357783]},"properties":{"drinking_water":"conditional","natural":"spring","source":"http://www.refuges.info/point/6973/point-d-eau/Jura-et-avant-pays-comtois/Source-de-La-Lavenne/"}},
{"type":"Feature","geometry":{"type":"Point","coordinates":[6.6069574,47.149671]},"properties":{"covered":"no","leisure":"picnic_table"}},
{"type":"Feature","geometry":{"type":"Point","coordinates":[6.4924881,47.0413026]},"properties":{"denomination":"catholic","historic":"wayside_cross","inscription":"Passant, jamais n'oublie de saluer la croix sur laquelle pour toi Jésus donna sa vie. Croix réstaurée en","material":"wood","religion":"christian"}},
{"type":"Feature","geometry":{"type":"Point","coordinates":[6.4793526,47.0477367]},"properties":{"natural":"tree"}},
{"type":"Feature","geometry":{"type":"Point","coordinates":[6.4791173,47.0477436]},"properties":{"natural":"tree"}},
{"type":"Feature","geometry":{"type":"Point","coordinates":[6.479008,47.0476906]},"properties":{"natural":"tree"}},
{"type":"Feature","geometry":{"type":"Point","coordinates":[6.4789128,47.0476417]},"properties":{"natural":"tree"}},
{"type":"Feature","geometry":{"type":"Point","coordinates":[6.4790522,47.0478135]},"properties":{"natural":"tree"}},
{"type":"Feature","geometry":{"type":"Point","coordinates":[6.6554326,47.0681804]},"properties":{"name":"Creux Ronsin","natural":"cave_entrance"}},
{"type":"Feature","geometry":{"type":"Point","coordinates":[6.5987753,47.053305]},"properties":{"covered":"no","leisure":"picnic_table"}},
{"type":"Feature","geometry":{"type":"Point","coordinates":[6.6099454,47.1504957]},"properties":{"orientation":"180","tourism":"viewpoint"}},
{"type":"Feature","geometry":{"type":"Point","coordinates":[6.4331362,47.1405345]},"properties":{"natural":"tree"}},
{"type":"Feature","geometry":{"type":"Point","coordinates":[6.4330316,47.1405459]},"properties":{"natural":"tree"}},
{"type":"Feature","geometry":{"type":"Point","coordinates":[6.4329511,47.1405035]},"properties":{"natural":"tree"}},
{"type":"Feature","geometry":{"type":"Point","coordinates":[6.5613793,47.2002573]},"properties":{"access":"yes","description":"Frais","ele":"610","fee":"no","name":"Grotte de la glacière du roi","natural":"cave_entrance"}},
{"type":"Feature","geometry":{"type":"Point","coordinates":[6.6108418,47.0455511]},"properties":{"leisure":"pitch","sport":"table_tennis"}},
{"type":"Feature","geometry":{"type":"Point","coordinates":[6.6109331,47.045426]},"properties":{"leisure":"picnic_table"}},
{"type":"Feature","geometry":{"type":"Point","coordinates":[6.6109378,47.0453876]},"properties":{"amenity":"waste_basket"}},
{"type":"Feature","geometry":{"type":"Point","coordinates":[6.6110442,47.0453059]},"properties":{"amenity":"waste_basket"}},
{"type":"Feature","geometry":{"type":"Point","coordinates":[6.6110715,47.0453162]},"properties":{"amenity":"bicycle_parking","bicycle_parking":"wall_loops","capacity":"6"}},
{"type":"Feature","geometry":{"type":"Point","coordinates":[6.6210149,47.0469527]},"properties":{"leisure":"picnic_table"}},
{"type":"Feature","geometry":{"type":"Point","coordinates":[6.64004,47.0460149]},"properties":{"check_date":"2024-08-13","covered":"no","leisure":"picnic_table"}},
{"type":"Feature","geometry":{"type":"Point","coordinates":[6.6400171,47.0459304]},"properties":{"check_date":"2024-08-13","covered":"no","leisure":"picnic_table"}},
{"type":"Feature","geometry":{"type":"Point","coordinates":[6.575338,47.1293517]},"properties":{"historic":"monument"}},
{"type":"Feature","geometry":{"type":"Point","coordinates":[6.6040331,47.0565831]},"properties":{"natural":"tree"}},
{"type":"Feature","geometry":{"type":"Point","coordinates":[6.6039687,47.0565219]},"properties":{"natural":"tree"}},
{"type":"Feature","geometry":{"type":"Point","coordinates":[6.5853053,47.0428161]},"properties":{"historic":"memorial","inscription":"À la mémoire de Fraichot Louis, Mairot Jean, de Grand'Combe-Châteleu, abattus par les Allemands le 24 août 1944, jour de la libération de la région.","memorial":"stele","name":"Stèle Mairot-Fraichot"}},
{"type":"Feature","geometry":{"type":"Point","coordinates":[6.5980618,47.0547827]},"properties":{"leaf_type":"broadleaved","natural":"tree"}},
{"type":"Feature","geometry":{"type":"Point","coordinates":[6.598033,47.0548306]},"properties":{"leaf_type":"broadleaved","natural":"tree"}},
{"type":"Feature","geometry":{"type":"Point","coordinates":[6.5980907,47.0547347]},"properties":{"leaf_type":"broadleaved","natural":"tree"}},
{"type":"Feature","geometry":{"type":"Point","coordinates":[6.5519688,47.2120596]},"properties":{"access":"yes","capacity":"6","leisure":"picnic_table","tourism":"picnic_site"}},
{"type":"Feature","geometry":{"type":"Point","coordinates":[6.4661178,47.2270934]},"properties":{"denomination":"catholic","historic":"wayside_shrine","religion":"christian","website":"https://www.france-voyage.com/villes-villages/germefontaine-6790.htm"}},
{"type":"Feature","geometry":{"type":"Point","coordinates":[6.5712754,47.1457508]},"properties":{"natural":"tree"}},
{"type":"Feature","geometry":{"type":"Point","coordinates":[6.5903601,47.0743722]},"properties":{"ele":"1114","natural":"peak"}},
{"type":"Feature","geometry":{"type":"Point","coordinates":[6.6044348,47.0782417]},"properties":{"ele":"1160","name":"Mont Vouillot","natural":"peak"}},
{"type":"Feature","geometry":{"type":"Point","coordinates":[6.6413374,47.0598508]},"properties":{"leisure":"picnic_table"}},
{"type":"Feature","geometry":{"type":"Point","coordinates":[6.6407471,47.0596544]},"properties":{"tourism":"viewpoint"}},
{"type":"Feature","geometry":{"type":"Point","coordinates":[6.641067,47.0594138]},"properties":{"leisure":"firepit"}},
{"type":"Feature","geometry":{"type":"Point","coordinates":[6.5719399,47.1300371]},"properties":{"historic":"memorial"}},
{"type":"Feature","geometry":{"type":"Point","coordinates":[6.5722111,47.1303832]},"properties":{"historic":"wayside_cross"}},
{"type":"Feature","geometry":{"type":"Point","coordinates":[6.6417022,47.1142199]},"properties":{"historic":"wayside_cross"}},
{"type":"Feature","geometry":{"type":"Point","coordinates":[6.6123591,47.149333]},"properties":{"tourism":"viewpoint"}},
{"type":"Feature","geometry":{"type":"Point","coordinates":[6.6095676,47.1542961]},"properties":{"natural":"cave_entrance"}},
{"type":"Feature","geometry":{"type":"Point","coordinates":[6.489285,47.1480524]},"properties":{"leaf_cycle":"deciduous","leaf_type":"broadleaved","natural":"tree"}},
{"type":"Feature","geometry":{"type":"Point","coordinates":[6.4900338,47.1483456]},"properties":{"leaf_cycle":"deciduous","leaf_type":"broadleaved","natural":"tree"}},
{"type":"Feature","geometry":{"type":"Point","coordinates":[6.4898422,47.1484506]},"properties":{"leaf_cycle":"deciduous","leaf_type":"broadleaved","natural":"tree"}},
{"type":"Feature","geometry":{"type":"Point","coordinates":[6.4901279,47.1481863]},"properties":{"leaf_cycle":"deciduous","leaf_type":"broadleaved","natural":"tree"}},
{"type":"Feature","geometry":{"type":"Point","coordinates":[6.4906975,47.1489044]},"properties":{"leaf_cycle":"deciduous","leaf_type":"broadleaved","natural":"tree"}},
{"type":"Feature","geometry":{"type":"Point","coordinates":[6.4906017,47.1487246]},"properties":{"leaf_cycle":"deciduous","leaf_type":"broadleaved","natural":"tree"}},
{"type":"Feature","geometry":{"type":"Point","coordinates":[6.4894465,47.1488815]},"properties":{"leaf_cycle":"deciduous","leaf_type":"broadleaved","natural":"tree"}},
{"type":"Feature","geometry":{"type":"Point","coordinates":[6.4892211,47.1485399]},"properties":{"leaf_cycle":"deciduous","leaf_type":"broadleaved","natural":"tree"}},
{"type":"Feature","geometry":{"type":"Point","coordinates":[6.4893577,47.1485593]},"properties":{"leaf_cycle":"deciduous","leaf_type":"broadleaved","natural":"tree"}},
{"type":"Feature","geometry":{"type":"Point","coordinates":[6.4895441,47.1486293]},"properties":{"leaf_cycle":"deciduous","leaf_type":"broadleaved","natural":"tree"}},
{"type":"Feature","geometry":{"type":"Point","coordinates":[6.4896221,47.1487246]},"properties":{"leaf_cycle":"deciduous","leaf_type":"broadleaved","natural":"tree"}},
{"type":"Feature","geometry":{"type":"Point","coordinates":[6.4895902,47.1488368]},"properties":{"leaf_cycle":"deciduous","leaf_type":"broadleaved","natural":"tree"}},
{"type":"Feature","geometry":{"type":"Point","coordinates":[6.4883678,47.1461716]},"properties":{"leaf_cycle":"deciduous","leaf_type":"broadleaved","natural":"tree"}},
{"type":"Feature","geometry":{"type":"Point","coordinates":[6.4883825,47.1464778]},"properties":{"leaf_cycle":"deciduous","leaf_type":"broadleaved","natural":"tree"}},
{"type":"Feature","geometry":{"type":"Point","coordinates":[6.4883971,47.1466782]},"properties":{"leaf_cycle":"deciduous","leaf_type":"broadleaved","natural":"tree"}},
{"type":"Feature","geometry":{"type":"Point","coordinates":[6.4883971,47.1467725]},"properties":{"leaf_cycle":"deciduous","leaf_type":"broadleaved","natural":"tree"}},
{"type":"Feature","geometry":{"type":"Point","coordinates":[6.4883922,47.1468652]},"properties":{"leaf_cycle":"deciduous","leaf_type":"broadleaved","natural":"tree"}},
{"type":"Feature","geometry":{"type":"Point","coordinates":[6.5262043,47.1622395]},"properties":{"bench":"yes","leisure":"picnic_table","lit":"no","material":"wood"}},
{"type":"Feature","geometry":{"type":"Point","coordinates":[6.5287554,47.1592072]},"properties":{"bench":"yes","leisure":"picnic_table","lit":"no"}},
{"type":"Feature","geometry":{"type":"Point","coordinates":[6.5290456,47.1589944]},"properties":{"direction":"100","tourism":"viewpoint"}},
{"type":"Feature","geometry":{"type":"Point","coordinates":[6.5356274,47.0865017]},"properties":{"denomination":"catholic","historic":"wayside_shrine","inscription":"St Claude Ora Pro Nobis","name":"Saint Claude","religion":"christian"}},
{"type":"Feature","geometry":{"type":"Point","coordinates":[6.6000406,47.151236]},"properties":{"information":"guidepost","tourism":"information"}},
{"type":"Feature","geometry":{"type":"Point","coordinates":[6.5518804,47.2119501]},"properties":{"information":"guidepost","tourism":"information"}},
{"type":"Feature","geometry":{"type":"Point","coordinates":[6.5518993,47.2120387]},"properties":{"access":"yes","capacity":"6","leisure":"picnic_table","tourism":"picnic_site"}},
{"type":"Feature","geometry":{"type":"Point","coordinates":[6.5520284,47.2120452]},"properties":{"information":"board","tourism":"information"}},
{"type":"Feature","geometry":{"type":"Point","coordinates":[6.5519581,47.2121571]},"properties":{"access":"yes","capacity":"6","leisure":"picnic_table","tourism":"picnic_site"}},
{"type":"Feature","geometry":{"type":"Point","coordinates":[6.5658896,47.0343829]},"properties":{"bench":"yes","leisure":"picnic_table","lit":"no"}},
{"type":"Feature","geometry":{"type":"Point","coordinates":[6.5652784,47.0321567]},"properties":{"ele":"860","name":"La roche aux corbeaux","tourism":"viewpoint"}},
{"type":"Feature","geometry":{"type":"Point","coordinates":[6.6265155,47.1190305]},"properties":{"historic":"wayside_cross"}},
{"type":"Feature","geometry":{"type":"Point","coordinates":[6.6361277,47.1186922]},"properties":{"historic":"wayside_cross"}},
{"type":"Feature","geometry":{"type":"Point","coordinates":[6.6390904,47.1202731]},"properties":{"historic":"wayside_cross"}},
{"type":"Feature","geometry":{"type":"Point","coordinates":[6.6154177,47.0590097]},"properties":{"contact:facebook":"https://www.facebook.com/clubfitnessmorteau","contact:instagram":"https://www.instagram.com/fitnessmorteau/","contact:youtube":"https://www.youtube.com/@fitnessmorteau","email":"contact@fitness-morteau.fr","leisure":"fitness_centre","mobile":"+33 7 49 61 64 10","name":"Fitness Morteau","old_name":"L'Orange Bleue","opening_hours":"Mo-Su 06:00-23:00","personal_trainer":"yes","phone":"+33 9 54 85 49 34","ref:FR:SIRET":"84372977300013","sauna":"yes","sport":"fitness","website":"https://fitness-morteau.fr/","wheelchair":"yes"}},
{"type":"Feature","geometry":{"type":"Point","coordinates":[6.4745041,47.1381172]},"properties":{"amenity":"school","capacity":"100","email":"ce.0250481m@ac-besancon.fr","entrance":"main","level":"0","phone":"+33 3 81 43 23 00","ref:FR:SIRET":"21250243900020","ref:UAI":"0250481M","school:FR":"primaire","start_date":"1965-07-02"}},
{"type":"Feature","geometry":{"type":"Point","coordinates":[6.4745689,47.1379729]},"properties":{"natural":"tree"}},
{"type":"Feature","geometry":{"type":"Point","coordinates":[6.4742343,47.1381823]},"properties":{"natural":"tree"}},
{"type":"Feature","geometry":{"type":"Point","coordinates":[6.474357,47.1380961]},"properties":{"natural":"tree"}},
{"type":"Feature","geometry":{"type":"Point","coordinates":[6.4743845,47.1379994]},"properties":{"natural":"tree"}},
{"type":"Feature","geometry":{"type":"Point","coordinates":[6.6057719,47.0550038]},"properties":{"contact:facebook":"https://www.facebook.com/profile.php?id=100086102934179;https://www.facebook.com/profile.php?id=100086938064136","contact:instagram":"https://www.instagram.com/lateliermorteau25/","email":"lateliermorteau@orange.fr","leisure":"fitness_centre","name":"L'atelier","phone":"+33 3 81 43 43 91","ref:FR:SIRET":"85273087800018","ref:vatin":"FR06852730878","sport":"fitness","website":"https://www.lateliermorteau.fr/"}},
{"type":"Feature","geometry":{"type":"Point","coordinates":[6.6050175,47.0550239]},"properties":{"board_type":"obituary","information":"board","tourism":"information"}},
{"type":"Feature","geometry":{"type":"Point","coordinates":[6.6014589,47.054297]},"properties":{"amenity":"clock","tourism":"artwork"}},
{"type":"Feature","geometry":{"type":"Point","coordinates":[6.6036804,47.0617404]},"properties":{"contact:facebook":"https://www.facebook.com/profile.php?id=100083584240927","contact:instagram":"https://www.instagram.com/escapemorteau/","email":"escapemorteau@gmail.com","leisure":"escape_game","max_age":"99","min_age":"12","mobile":"+33 6 37 74 05 40","name":"Escape Game Morteau","opening_hours":"Mo-Fr 14:00-21:00; Sa 14:00-23:00; Su 12:00-20:00","ref:FR:SIRET":"91986127800019","reservation":"required","website":"https://www.escape-game-morteau.com/","website:booking":"https://www.escape-game-morteau.com/book-online"}},
{"type":"Feature","geometry":{"type":"Point","coordinates":[6.4724091,47.1163788]},"properties":{"natural":"tree","source":"BDOrtho IGN - available 2023 at the latest"}},
{"type":"Feature","geometry":{"type":"Point","coordinates":[6.5720221,47.1546522]},"properties":{"tourism":"information"}},
{"type":"Feature","geometry":{"type":"Point","coordinates":[6.458909,47.0808466]},"properties":{"historic":"memorial"}},
{"type":"Feature","geometry":{"type":"Point","coordinates":[6.4585866,47.0810126]},"properties":{"tourism":"information"}},
{"type":"Feature","geometry":{"type":"Point","coordinates":[6.5861145,47.1708657]},"properties":{"artwork_type":"statue","tourism":"artwork"}},
{"type":"Feature","geometry":{"type":"Point","coordinates":[6.446427,47.2503327]},"properties":{"bench":"yes","check_date":"2023-08-13","leisure":"picnic_table","lit":"no","material":"wood"}},
{"type":"Feature","geometry":{"type":"Point","coordinates":[6.4461824,47.2502941]},"properties":{"bench":"yes","check_date":"2023-08-13","leisure":"picnic_table","lit":"no","material":"wood"}},
{"type":"Feature","geometry":{"type":"Point","coordinates":[6.524203,47.0944461]},"properties":{"natural":"sinkhole","sinkhole":"pit","source":"IGN - 2022-06"}},
{"type":"Feature","geometry":{"type":"Point","coordinates":[6.5625017,47.0907283]},"properties":{"natural":"sinkhole","sinkhole":"pit","source":"IGN - 2022-06"}},
{"type":"Feature","geometry":{"type":"Point","coordinates":[6.5627902,47.0493627]},"properties":{"name":"Mont Rognon","natural":"peak","source":"IGN - 2022-06"}},
{"type":"Feature","geometry":{"type":"Point","coordinates":[6.5205526,47.0523865]},"properties":{"natural":"saddle","source":"IGN - 2022-06"}},
{"type":"Feature","geometry":{"type":"Point","coordinates":[6.6372697,47.2188449]},"properties":{"historic":"memorial","memorial":"war_memorial","ref:FR:MemorialGenWeb":"46549"}},
{"type":"Feature","geometry":{"type":"Point","coordinates":[6.6287845,47.1701083]},"properties":{"historic":"memorial","memorial":"war_memorial","ref:FR:MemorialGenWeb":"60741"}},
{"type":"Feature","geometry":{"type":"Point","coordinates":[6.6114561,47.2584788]},"properties":{"historic":"memorial","memorial":"stele","ref:FR:MemorialGenWeb":"114797","source":"MémorialGenWeb"}},
{"type":"Feature","geometry":{"type":"Point","coordinates":[6.6074945,47.0441759]},"properties":{"historic":"memorial","source":"Ortho HR;extrapolation"}},
{"type":"Feature","geometry":{"type":"Point","coordinates":[6.4798354,47.0477084]},"properties":{"denomination":"catholic","historic":"wayside_cross","inscription":"Croix de mission","religion":"christian","start_date":"1688"}},
{"type":"Feature","geometry":{"type":"Point","coordinates":[6.4798455,47.0480072]},"properties":{"denomination":"catholic","historic":"wayside_cross","inscription":"Croix de mission","religion":"christian","start_date":"1843"}},
{"type":"Feature","geometry":{"type":"Point","coordinates":[6.4795203,47.0478811]},"properties":{"historic":"memorial","memorial":"war_memorial"}},
{"type":"Feature","geometry":{"type":"Point","coordinates":[6.4791019,47.047511]},"properties":{"historic":"memorial","inscription":"Jumelage Partenerschaft Gilley Clausen 1990 2000","memorial":"plaque"}},
{"type":"Feature","geometry":{"type":"Point","coordinates":[6.4805533,47.0486952]},"properties":{"denomination":"catholic","historic":"wayside_shrine","religion":"christian"}},
{"type":"Feature","geometry":{"type":"Point","coordinates":[6.5909695,47.0505757]},"properties":{"tourism":"picnic_site"}},
{"type":"Feature","geometry":{"type":"Point","coordinates":[6.5292005,47.1443713]},"properties":{"leisure":"track","name":"Départ du parcours de course d'orientation","sport":"running","website":"http://www.orchamps-vennes.com/fr/information/80353/parcours-orientation"}},
{"type":"Feature","geometry":{"type":"Point","coordinates":[6.6053858,47.1577595]},"properties":{"information":"map","tourism":"information"}},
{"type":"Feature","geometry":{"type":"Point","coordinates":[6.6053707,47.1576706]},"properties":{"information":"map","tourism":"information"}},
{"type":"Feature","geometry":{"type":"Point","coordinates":[6.6058596,47.1575054]},"properties":{"barrier":"entrance"}},
{"type":"Feature","geometry":{"type":"Point","coordinates":[6.6062946,47.1578795]},"properties":{"entrance":"yes"}},
{"type":"Feature","geometry":{"type":"Point","coordinates":[6.606697,47.15778]},"properties":{"entrance":"yes"}},
{"type":"Feature","geometry":{"type":"Point","coordinates":[6.6059429,47.1580441]},"properties":{"entrance":"yes"}},
{"type":"Feature","geometry":{"type":"Point","coordinates":[6.6059998,47.1577099]},"properties":{"entrance":"yes"}},
{"type":"Feature","geometry":{"type":"Point","coordinates":[6.6055512,47.1577366]},"properties":{"entrance":"yes"}},
{"type":"Feature","geometry":{"type":"Point","coordinates":[6.5983656,47.0522608]},"properties":{"natural":"tree"}},
{"type":"Feature","geometry":{"type":"Point","coordinates":[6.5984655,47.0522782]},"properties":{"natural":"tree"}},
{"type":"Feature","geometry":{"type":"Point","coordinates":[6.5982865,47.0522585]},"properties":{"natural":"tree"}},
{"type":"Feature","geometry":{"type":"Point","coordinates":[6.5980558,47.0527095]},"properties":{"natural":"tree"}},
{"type":"Feature","geometry":{"type":"Point","coordinates":[6.5981282,47.0530443]},"properties":{"natural":"tree"}},
{"type":"Feature","geometry":{"type":"Point","coordinates":[6.5984964,47.0528835]},"properties":{"natural":"tree"}},
{"type":"Feature","geometry":{"type":"Point","coordinates":[6.5983656,47.0525226]},"properties":{"natural":"tree"}},
{"type":"Feature","geometry":{"type":"Point","coordinates":[6.5983877,47.0526592]},"properties":{"natural":"tree"}},
{"type":"Feature","geometry":{"type":"Point","coordinates":[6.5985346,47.0529658]},"properties":{"natural":"tree"}},
{"type":"Feature","geometry":{"type":"Point","coordinates":[6.5984306,47.0532431]},"properties":{"natural":"tree"}},
{"type":"Feature","geometry":{"type":"Point","coordinates":[6.5985755,47.0532422]},"properties":{"natural":"tree"}},
{"type":"Feature","geometry":{"type":"Point","coordinates":[6.5986325,47.0531983]},"properties":{"natural":"tree"}},
{"type":"Feature","geometry":{"type":"Point","coordinates":[6.5985976,47.0530887]},"properties":{"natural":"tree"}},
{"type":"Feature","geometry":{"type":"Point","coordinates":[6.5985379,47.0531225]},"properties":{"natural":"tree"}},
{"type":"Feature","geometry":{"type":"Point","coordinates":[6.5984702,47.0531449]},"properties":{"natural":"tree"}},
{"type":"Feature","geometry":{"type":"Point","coordinates":[6.5984112,47.0531901]},"properties":{"natural":"tree"}},
{"type":"Feature","geometry":{"type":"Point","coordinates":[6.5985138,47.0532668]},"properties":{"natural":"tree"}},
{"type":"Feature","geometry":{"type":"Point","coordinates":[6.5987787,47.0532394]},"properties":{"natural":"tree"}},
{"type":"Feature","geometry":{"type":"Point","coordinates":[6.5988256,47.0532141]},"properties":{"natural":"tree"}},
{"type":"Feature","geometry":{"type":"Point","coordinates":[6.5988092,47.053246]},"properties":{"natural":"tree"}},
{"type":"Feature","geometry":{"type":"Point","coordinates":[6.5987649,47.0532785]},"properties":{"natural":"tree"}},
{"type":"Feature","geometry":{"type":"Point","coordinates":[6.5243988,47.1303213]},"properties":{"leaf_cycle":"deciduous","leaf_type":"broadleaved","natural":"tree"}},
{"type":"Feature","geometry":{"type":"Point","coordinates":[6.5242914,47.1303355]},"properties":{"leaf_cycle":"deciduous","leaf_type":"broadleaved","natural":"tree"}},
{"type":"Feature","geometry":{"type":"Point","coordinates":[6.5242481,47.130409]},"properties":{"leaf_cycle":"deciduous","leaf_type":"broadleaved","natural":"tree"}},
{"type":"Feature","geometry":{"type":"Point","coordinates":[6.524598,47.1304146]},"properties":{"leaf_cycle":"deciduous","leaf_type":"broadleaved","natural":"tree"}},
{"type":"Feature","geometry":{"type":"Point","coordinates":[6.5234149,47.1296416]},"properties":{"leaf_cycle":"deciduous","leaf_type":"broadleaved","natural":"tree"}},
{"type":"Feature","geometry":{"type":"Point","coordinates":[6.5233706,47.1296066]},"properties":{"leaf_cycle":"deciduous","leaf_type":"broadleaved","natural":"tree"}},
{"type":"Feature","geometry":{"type":"Point","coordinates":[6.5232313,47.1295004]},"properties":{"leaf_cycle":"deciduous","leaf_type":"broadleaved","natural":"tree"}},
{"type":"Feature","geometry":{"type":"Point","coordinates":[6.5232818,47.1295384]},"properties":{"leaf_cycle":"deciduous","leaf_type":"broadleaved","natural":"tree"}},
{"type":"Feature","geometry":{"type":"Point","coordinates":[6.5231825,47.1294593]},"properties":{"leaf_cycle":"deciduous","leaf_type":"broadleaved","natural":"tree"}},
{"type":"Feature","geometry":{"type":"Point","coordinates":[6.523328,47.1295722]},"properties":{"leaf_cycle":"deciduous","leaf_type":"broadleaved","natural":"tree"}},
{"type":"Feature","geometry":{"type":"Point","coordinates":[6.5234699,47.1296863]},"properties":{"leaf_cycle":"deciduous","leaf_type":"broadleaved","natural":"tree"}},
{"type":"Feature","geometry":{"type":"Point","coordinates":[6.5238525,47.1292612]},"properties":{"leaf_cycle":"deciduous","leaf_type":"broadleaved","natural":"tree"}},
{"type":"Feature","geometry":{"type":"Point","coordinates":[6.5237684,47.1291788]},"properties":{"leaf_cycle":"deciduous","leaf_type":"broadleaved","natural":"tree"}},
{"type":"Feature","geometry":{"type":"Point","coordinates":[6.52369,47.1291594]},"properties":{"leaf_cycle":"deciduous","leaf_type":"broadleaved","natural":"tree"}},
{"type":"Feature","geometry":{"type":"Point","coordinates":[6.5720893,47.1550586]},"properties":{"leaf_cycle":"deciduous","leaf_type":"broadleaved","natural":"tree"}},
{"type":"Feature","geometry":{"type":"Point","coordinates":[6.5720393,47.1548206]},"properties":{"leaf_cycle":"deciduous","leaf_type":"broadleaved","natural":"tree"}},
{"type":"Feature","geometry":{"type":"Point","coordinates":[6.6279535,47.1700346]},"properties":{"description":"Chêne","leaf_cycle":"deciduous","leaf_type":"broadleaved","natural":"tree"}},
{"type":"Feature","geometry":{"type":"Point","coordinates":[6.6282763,47.1699065]},"properties":{"description":"Chêne","leaf_cycle":"deciduous","leaf_type":"broadleaved","natural":"tree"}},
{"type":"Feature","geometry":{"type":"Point","coordinates":[6.6282546,47.1699669]},"properties":{"description":"Chêne","leaf_cycle":"deciduous","leaf_type":"broadleaved","natural":"tree"}},
{"type":"Feature","geometry":{"type":"Point","coordinates":[6.6283129,47.1697813]},"properties":{"description":"Chêne","leaf_cycle":"deciduous","leaf_type":"broadleaved","natural":"tree"}},
{"type":"Feature","geometry":{"type":"Point","coordinates":[6.628679,47.1699539]},"properties":{"description":"Chêne","leaf_cycle":"deciduous","leaf_type":"broadleaved","natural":"tree"}},
{"type":"Feature","geometry":{"type":"Point","coordinates":[6.6285522,47.1697659]},"properties":{"description":"Chêne","leaf_cycle":"deciduous","leaf_type":"broadleaved","natural":"tree"}},
{"type":"Feature","geometry":{"type":"Point","coordinates":[6.6455954,47.1917353]},"properties":{"check_date":"2022-06-06","fitness_station":"exercise_bike","leisure":"fitness_station","sport":"fitness"}},
{"type":"Feature","geometry":{"type":"Point","coordinates":[6.6447748,47.1918179]},"properties":{"leaf_cycle":"deciduous","leaf_type":"broadleaved","natural":"tree"}},
{"type":"Feature","geometry":{"type":"Point","coordinates":[6.6446941,47.1917436]},"properties":{"leaf_cycle":"deciduous","leaf_type":"broadleaved","natural":"tree"}},
{"type":"Feature","geometry":{"type":"Point","coordinates":[6.6454194,47.1921006]},"properties":{"leaf_cycle":"deciduous","leaf_type":"broadleaved","natural":"tree"}},
{"type":"Feature","geometry":{"type":"Point","coordinates":[6.6456458,47.1919745]},"properties":{"leaf_cycle":"deciduous","leaf_type":"broadleaved","natural":"tree"}},
{"type":"Feature","geometry":{"type":"Point","coordinates":[6.6403745,47.1942643]},"properties":{"leisure":"picnic_table"}},
{"type":"Feature","geometry":{"type":"Point","coordinates":[6.6060206,47.1578083]},"properties":{"covered":"no","leisure":"picnic_table"}},
{"type":"Feature","geometry":{"type":"Point","coordinates":[6.6060314,47.1578375]},"properties":{"covered":"no","leisure":"picnic_table"}},
{"type":"Feature","geometry":{"type":"Point","coordinates":[6.605747,47.1577134]},"properties":{"covered":"no","leisure":"picnic_table"}},
{"type":"Feature","geometry":{"type":"Point","coordinates":[6.6071552,47.157666]},"properties":{"board:title":"La vie de l'eau dans le Cirque de Consolation","board_type":"hydrology","information":"board","tourism":"information"}},
{"type":"Feature","geometry":{"type":"Point","coordinates":[6.6069876,47.1576423]},"properties":{"board:title":"La vie de l'eau dans le Cirque de Consolation","board_type":"hydrology","information":"board","tourism":"information"}},
{"type":"Feature","geometry":{"type":"Point","coordinates":[6.6063479,47.1574079]},"properties":{"board:title":"La vie de l'eau dans le Cirque de Consolation","board_type":"hydrology","information":"board","tourism":"information"}},
{"type":"Feature","geometry":{"type":"Point","coordinates":[6.6064337,47.1574426]},"properties":{"board:title":"La vie de l'eau dans le Cirque de Consolation","board_type":"hydrology","information":"board","tourism":"information"}},
{"type":"Feature","geometry":{"type":"Point","coordinates":[6.606541,47.1574937]},"properties":{"board:title":"La vie de l'eau dans le Cirque de Consolation","board_type":"hydrology","information":"board","tourism":"information"}},
{"type":"Feature","geometry":{"type":"Point","coordinates":[6.6066563,47.1575238]},"properties":{"board:title":"La vie de l'eau dans le Cirque de Consolation","board_type":"hydrology","information":"board","tourism":"information"}},
{"type":"Feature","geometry":{"type":"Point","coordinates":[6.6067488,47.157573]},"properties":{"board:title":"La vie de l'eau dans le Cirque de Consolation","board_type":"hydrology","information":"board","tourism":"information"}},
{"type":"Feature","geometry":{"type":"Point","coordinates":[6.6067502,47.1577098]},"properties":{"leaf_type":"broadleaved","natural":"tree"}},
{"type":"Feature","geometry":{"type":"Point","coordinates":[6.6069889,47.1578074]},"properties":{"leaf_type":"broadleaved","natural":"tree"}},
{"type":"Feature","geometry":{"type":"Point","coordinates":[6.6069232,47.1577353]},"properties":{"leaf_type":"broadleaved","natural":"tree"}},
{"type":"Feature","geometry":{"type":"Point","coordinates":[6.6066657,47.1576797]},"properties":{"leaf_type":"broadleaved","natural":"tree"}},
{"type":"Feature","geometry":{"type":"Point","coordinates":[6.6065584,47.157635]},"properties":{"leaf_type":"broadleaved","natural":"tree"}},
{"type":"Feature","geometry":{"type":"Point","coordinates":[6.6063894,47.1575557]},"properties":{"leaf_type":"broadleaved","natural":"tree"}},
{"type":"Feature","geometry":{"type":"Point","coordinates":[6.6062687,47.1574973]},"properties":{"leaf_type":"broadleaved","natural":"tree"}},
{"type":"Feature","geometry":{"type":"Point","coordinates":[6.6084789,47.1554181]},"properties":{"board_type":"history","information":"board","tourism":"information"}},
{"type":"Feature","geometry":{"type":"Point","coordinates":[6.6085821,47.1554172]},"properties":{"board_type":"history","information":"board","tourism":"information"}},
{"type":"Feature","geometry":{"type":"Point","coordinates":[6.6085419,47.1554089]},"properties":{"denomination":"catholic","historic":"wayside_shrine","natural":"cave_entrance","religion":"christian"}},
{"type":"Feature","geometry":{"type":"Point","coordinates":[6.6085862,47.1558777]},"properties":{"leisure":"picnic_table"}},
{"type":"Feature","geometry":{"type":"Point","coordinates":[6.6102478,47.1515503]},"properties":{"board:title":"Une vie dans les forets de Consolation","board_type":"wildlife","information":"board","tourism":"information"}},
{"type":"Feature","geometry":{"type":"Point","coordinates":[6.6101378,47.1509483]},"properties":{"artwork_type":"installation","note":"Poème inscrit sur un panneau « officiel » cloué à un tronc","support":"tree","tourism":"artwork"}},
{"type":"Feature","geometry":{"type":"Point","coordinates":[6.6100708,47.1508444]},"properties":{"board:title":"La grande cascade","board_type":"hydrology","information":"board","tourism":"information"}},
{"type":"Feature","geometry":{"type":"Point","coordinates":[6.6100359,47.1507459]},"properties":{"board:title":"La vie de l'eau dans le Cirque de Consolation","board_type":"hydrology","information":"board","tourism":"information"}},
{"type":"Feature","geometry":{"type":"Point","coordinates":[6.4360065,47.1355284]},"properties":{"leaf_cycle":"deciduous","leaf_type":"broadleaved","natural":"tree"}},
{"type":"Feature","geometry":{"type":"Point","coordinates":[6.4361641,47.1355598]},"properties":{"leaf_cycle":"deciduous","leaf_type":"broadleaved","natural":"tree"}},
{"type":"Feature","geometry":{"type":"Point","coordinates":[6.4358247,47.1354779]},"properties":{"leaf_cycle":"deciduous","leaf_type":"broadleaved","natural":"tree"}},
{"type":"Feature","geometry":{"type":"Point","coordinates":[6.435858,47.1354047]},"properties":{"leaf_cycle":"deciduous","leaf_type":"broadleaved","natural":"tree"}},
{"type":"Feature","geometry":{"type":"Point","coordinates":[6.4359239,47.1354197]},"properties":{"leaf_cycle":"deciduous","leaf_type":"broadleaved","natural":"tree"}},
{"type":"Feature","geometry":{"type":"Point","coordinates":[6.4360012,47.1354393]},"properties":{"leaf_cycle":"deciduous","leaf_type":"broadleaved","natural":"tree"}},
{"type":"Feature","geometry":{"type":"Point","coordinates":[6.4360663,47.1354547]},"properties":{"leaf_cycle":"deciduous","leaf_type":"broadleaved","natural":"tree"}},
{"type":"Feature","geometry":{"type":"Point","coordinates":[6.4361489,47.1354748]},"properties":{"leaf_cycle":"deciduous","leaf_type":"broadleaved","natural":"tree"}},
{"type":"Feature","geometry":{"type":"Point","coordinates":[6.4362178,47.1354908]},"properties":{"leaf_cycle":"deciduous","leaf_type":"broadleaved","natural":"tree"}},
{"type":"Feature","geometry":{"type":"Point","coordinates":[6.4362754,47.1355037]},"properties":{"leaf_cycle":"deciduous","leaf_type":"broadleaved","natural":"tree"}},
{"type":"Feature","geometry":{"type":"Point","coordinates":[6.4363375,47.1355191]},"properties":{"leaf_cycle":"deciduous","leaf_type":"broadleaved","natural":"tree"}},
{"type":"Feature","geometry":{"type":"Point","coordinates":[6.4356151,47.135362]},"properties":{"leaf_cycle":"deciduous","leaf_type":"broadleaved","natural":"tree"}},
{"type":"Feature","geometry":{"type":"Point","coordinates":[6.6070465,47.0438846]},"properties":{"natural":"shrub"}},
{"type":"Feature","geometry":{"type":"Point","coordinates":[6.6070911,47.0438518]},"properties":{"natural":"shrub"}},
{"type":"Feature","geometry":{"type":"Point","coordinates":[6.6069961,47.0435905]},"properties":{"natural":"shrub"}},
{"type":"Feature","geometry":{"type":"Point","coordinates":[6.6144857,47.1502549]},"properties":{"tourism":"viewpoint"}},
{"type":"Feature","geometry":{"type":"Point","coordinates":[6.435149,47.1327682]},"properties":{"natural":"tree"}},
{"type":"Feature","geometry":{"type":"Point","coordinates":[6.6410836,47.1137565]},"properties":{"leisure":"picnic_table","material":"wood"}},
{"type":"Feature","geometry":{"type":"Point","coordinates":[6.6257239,47.1195095]},"properties":{"leisure":"picnic_table","material":"wood"}},
{"type":"Feature","geometry":{"type":"Point","coordinates":[6.632823,47.1195178]},"properties":{"historic":"monument"}},
{"type":"Feature","geometry":{"type":"Point","coordinates":[6.6355638,47.1194713]},"properties":{"artwork_type":"statue","name":"Statue d'Étienne-Théodore Cuenot","tourism":"artwork"}},