{"type":"FeatureCollection","features":[
{"type":"Feature","geometry":{"type":"Point","coordinates":[5.3921755,43.2128054]},"properties":{"mountain_pass":"yes","name":"Pas du Bénitier","natural":"rock","safety_rope":"yes","sport":"climbing"}},
{"type":"Feature","geometry":{"type":"Point","coordinates":[5.3968338,43.2131909]},"properties":{"name":"Ilette","natural":"cliff","sport":"climbing"}},
{"type":"Feature","geometry":{"type":"Point","coordinates":[5.4086626,43.2165023]},"properties":{"comment":"< occitan Sormiu /sur’miw/","ele":"167","mountain_pass":"yes","name":"Col de Sormiou","name:oc":"Pas de Sormiu","natural":"saddle","source:name:oc":"ieo-bdtopoc","wikidata":"Q2982119","wikipedia":"fr:Col de Sormiou"}},
{"type":"Feature","geometry":{"type":"Point","coordinates":[5.4159193,43.2179047]},"properties":{"comment":"< occitan Bauma + dim. -eta; fr. Petit abri sous roche","ele":"166","fixme":"vérifier. Localisation du toponyme différente de IGN.","name":"Col des Baumettes","name:oc":"Pas dei Baumetas","natural":"saddle","source":"survey","source:name:oc":"ieo-bdtopoc"}},
{"type":"Feature","geometry":{"type":"Point","coordinates":[5.4231888,43.2191134]},"properties":{"comment":"Las Cortinas 1393","ele":"213","name":"Col des Escourtines","name:oc":"Pas dei Cortinas","natural":"saddle","source:name:oc":"ieo-bdtopoc"}},
{"type":"Feature","geometry":{"type":"Point","coordinates":[5.385646,43.214503]},"properties":{"name:oc":"Bauma dau Chinés","natural":"cave_entrance","source:name:oc":"ieo-bdtopoc"}},
{"type":"Feature","geometry":{"type":"Point","coordinates":[5.3872783,43.2158678]},"properties":{"ele":"200","mountain_pass":"yes","name":"Pas du Podestat","name:oc":"Pas dau Podestat","natural":"rock","note":"Un passage sans difficulté notable.","source":"http://calanco.fr/carte/fjords_en_vau.htm","source:name:oc":"ieo-bdtopoc"}},
{"type":"Feature","geometry":{"type":"Point","coordinates":[5.4239057,43.2089025]},"properties":{"geological":"calanque","name":"Calanque de Sormiou","name:fr":"Calanque de Sormiou","name:oc":"Calanca de Sormiu","natural":"bay","old_name":"Sormil","source:name:oc":"ieo-bdtopoc","tourism":"attraction","wikidata":"Q2269718","wikipedia":"fr:Calanque de Sormiou","wikipedia:en":"Calanque de Sormiou","wikipedia:nl":"Calanque de Sormiou"}},
{"type":"Feature","geometry":{"type":"Point","coordinates":[5.3728917,43.2097439]},"properties":{"name":"Marseilleveyre","name:fr":"Marseilleveyre","name:oc":"Marselha Vièlha","place":"isolated_dwelling","source:name:oc":"ieo-bdtopoc","tourism":"attraction"}},
{"type":"Feature","geometry":{"type":"Point","coordinates":[5.371949,43.2089237]},"properties":{"name":"Calanque de Marseilleveyre","name:oc":"Calanca de Marselha Vièlha","natural":"bay","source:name:oc":"ieo-bdtopoc"}},
{"type":"Feature","geometry":{"type":"Point","coordinates":[5.3858561,43.178811]},"properties":{"name":"Calanque du Monastèri","name:oc":"Calanca dau Monesteirau","natural":"bay","source:name:oc":"ieo-bdtopoc"}},
{"type":"Feature","geometry":{"type":"Point","coordinates":[5.3746219,43.1792415]},"properties":{"name":"Calanque de Fontagne","name:oc":"Calanca de la Fontana","natural":"bay","source:name:oc":"ieo-bdtopoc"}},
{"type":"Feature","geometry":{"type":"Point","coordinates":[5.3852848,43.1884225]},"properties":{"alt_name":"Petit port de Plane","comment":"Remplacé \"Calanque des Pouars\" Quel toponyme d'usage fréquent ?  La confusion est frequente entre de/dei, lei deux donnant DES en français.","loc_name":"Calanque du Pòrc/ des Pòrcs","name":"Calanque des Pouars","name:oc":"Calancas Dei Pòrcs","natural":"bay","source":"Albert","source:name:oc":"ieo-bdtopoc"}},
{"type":"Feature","geometry":{"type":"Point","coordinates":[5.392872,43.2158023]},"properties":{"tourism":"viewpoint"}},
{"type":"Feature","geometry":{"type":"Point","coordinates":[5.3920188,43.2167261]},"properties":{"mountain_pass":"yes","name":"Pas de la Melette","name:oc":"Pas de la Meleta","natural":"rock","source:name:oc":"ieo-bdtopoc","sport":"climbing"}},
{"type":"Feature","geometry":{"type":"Point","coordinates":[5.3979636,43.2125101]},"properties":{"name":"Anse de la Melette","name:oc":"Calanca de la Meleta","natural":"bay","source:name:oc":"ieo-bdtopoc"}},
{"type":"Feature","geometry":{"type":"Point","coordinates":[5.4044395,43.2167957]},"properties":{"ele":"244","mountain_pass":"yes","name":"Col de Cortiou","name:oc":"Pas de Cortiu","natural":"saddle","source:name:oc":"ieo-bdtopoc"}},
{"type":"Feature","geometry":{"type":"Point","coordinates":[5.3838476,43.2105681]},"properties":{"name":"Calanque de Podestat","name:oc":"Calanca dau Podestat","natural":"bay","source:name:oc":"ieo-bdtopoc"}},
{"type":"Feature","geometry":{"type":"Point","coordinates":[5.4114111,43.2097553]},"properties":{"alt_name":"Poupo de la Nau","name":"Pointe du Vaisseau","name:oc":"Poncha dau Vaissèu","natural":"cape","place":"locality","source:name:oc":"ieo-bdtopoc"}},
{"type":"Feature","geometry":{"type":"Point","coordinates":[5.3896978,43.2118659]},"properties":{"name":"Calanque de l'Escu","name:oc":"Calanca de l'Escut","natural":"bay","source:name:oc":"ieo-bdtopoc"}},
{"type":"Feature","geometry":{"type":"Point","coordinates":[5.4224136,43.2050868]},"properties":{"name":"Pointe de la Merveille","name:oc":"Poncha de la Meravelha","natural":"cape","source:name:oc":"ieo-bdtopoc"}},
{"type":"Feature","geometry":{"type":"Point","coordinates":[5.3797169,43.2100424]},"properties":{"name":"Calanque des Queyrons","name:fr":"Calanque des Queyrons","name:oc":"Calanca dei Cairons","natural":"bay","source:name:oc":"ieo-bdtopoc"}},
{"type":"Feature","geometry":{"type":"Point","coordinates":[5.4026608,43.2126618]},"properties":{"name":"Calanque de Cortiou","name:oc":"Calanca de Cortiu","natural":"bay","source:name:oc":"ieo-bdtopoc"}},
{"type":"Feature","geometry":{"type":"Point","coordinates":[5.3813406,43.1759658]},"properties":{"name":"Calanque de la Culate","name:oc":"Calanca de la Culata","natural":"bay","source:name:oc":"ieo-bdtopoc"}},
{"type":"Feature","geometry":{"type":"Point","coordinates":[5.3824321,43.1770409]},"properties":{"ele":"63","mountain_pass":"yes","name":"Col de la Culatte","name:oc":"Pas de la Culada","natural":"saddle","source:name:oc":"ieo-bdtopoc"}},
{"type":"Feature","geometry":{"type":"Point","coordinates":[5.372763,43.1777525]},"properties":{"name":"Calanque de Boulégeade","name:oc":"Calanca de la Bolegada","natural":"bay","source:name:oc":"ieo-bdtopoc"}},
{"type":"Feature","geometry":{"type":"Point","coordinates":[5.3985900000000008,43.1738442]},"properties":{"alt_name":"Pointe Caramassaigne","fixme":"Francisation toponyme attesté ?","loc_name":"Pointe de Calamassane","name":"Pointe Caramalsane","name:oc":"Poncha de Cala Maussana","natural":"cape","old_name":"Pointe de Cale Malssane","place":"locality","source:name:oc":"ieo-bdtopoc"}},
{"type":"Feature","geometry":{"type":"Point","coordinates":[5.3724503,43.179415]},"properties":{"name":"Pointe de Fontagne","name:oc":"Poncha de la Fontana","natural":"cape","source:name:oc":"ieo-bdtopoc"}},
{"type":"Feature","geometry":{"type":"Point","coordinates":[5.3728738,43.1772102]},"properties":{"fixme":"\"Pointe de la bouée\" à sourcer ","name":"Pointe de Boulégeade","name:oc":"Poncha de la Bolegada","natural":"cape","source:name:oc":"ieo-bdtopoc"}},
{"type":"Feature","geometry":{"type":"Point","coordinates":[5.3807378,43.1806281]},"properties":{"fixme":"\"Falaise rouge\" attesté ?","name":"Baou Rouge","name:oc":"Bauç Roge","natural":"cliff","source:name:oc":"ieo-bdtopoc"}},
{"type":"Feature","geometry":{"type":"Point","coordinates":[5.3946187,43.1696228]},"properties":{"description":"Les Empereurs (île de Riou)","ref":"MD08","source":"Décret n°2015-958 du 31 juillet 2015 définissant les lignes de base de la France métropolitaine","source:website":"http://www.legifrance.gouv.fr/affichTexte.do?cidTexte=JORFTEXT000030967027"}},
{"type":"Feature","geometry":{"type":"Point","coordinates":[5.4239945,43.2047838]},"properties":{"historic":"memorial","inscription":"Okapi que ton âme veille en toute sérénité sur les calanques et ses randonneurs - Jacques Crémieux 31/01/1924 15/06/1988","memorial":"plaque"}},
{"type":"Feature","geometry":{"type":"Point","coordinates":[5.4204372,43.2106792]},"properties":{"leisure":"sports_centre","name":"Centre UCPA Sormiou","name:oc":"Centre UCPA Sormiu","operator":"UCPA","source:name:oc":"ieo-bdtopoc","sport":"hiking;climbing;kayaking","wheelchair":"no"}},
{"type":"Feature","geometry":{"type":"Point","coordinates":[5.4234183,43.2060997]},"properties":{"description":"l’uelh d’ai « l'œil d'âne » en occitan","ele":"103","mountain_pass":"yes","name":"Col de l'Uelh d'Ai","name:oc":"Pas de l'Uelh d'Ai","natural":"saddle","source:name:oc":"ieo-bdtopoc"}},
{"type":"Feature","geometry":{"type":"Point","coordinates":[5.4084819,43.216417]},"properties":{"board_type":"history","check_date":"2023-08-20","information":"board","name":"La Grotte Cosquer","name:oc":"Bauma Cosquer","source:name:oc":"ieo-bdtopoc","tourism":"information"}},
{"type":"Feature","geometry":{"type":"Point","coordinates":[5.4213944,43.2070585]},"properties":{"natural":"saddle","note":"trou d'accès"}},
{"type":"Feature","geometry":{"type":"Point","coordinates":[5.4253578,43.2056803]},"properties":{"natural":"cave_entrance","note":"Abri sous roche"}},
{"type":"Feature","geometry":{"type":"Point","coordinates":[5.3964054,43.2187438]},"properties":{"ele":"396","name":"Signal Est de l'Homme Mort","name:oc":"Pic de l’Oume Mòrt Levantés","natural":"peak","source:name:oc":"ieo-bdtopoc","tourism":"viewpoint"}},
{"type":"Feature","geometry":{"type":"Point","coordinates":[5.4162368,43.2217286]},"properties":{"historic":"memorial","memorial":"war_memorial","name":"Monument aux morts"}},
{"type":"Feature","geometry":{"type":"Point","coordinates":[5.3857156,43.2102606]},"properties":{"name":"Calanque de la Piade","name:oc":"Calanca de la Piada","natural":"bay","source:name:oc":"ieo-bdtopoc"}},
{"type":"Feature","geometry":{"type":"Point","coordinates":[5.3871981,43.2103488]},"properties":{"name":"Anse du Livre","natural":"bay","note":"\"anse\" d'après topographie, faudrait source"}},
{"type":"Feature","geometry":{"type":"Point","coordinates":[5.399336,43.2131794]},"properties":{"mountain_pass":"yes","name":"(Pas)","natural":"rock","sport":"climbing"}},
{"type":"Feature","geometry":{"type":"Point","coordinates":[5.368153,43.2196795]},"properties":{"mountain_pass":"yes","name":"(Pas)","natural":"rock","sport":"climbing"}},
{"type":"Feature","geometry":{"type":"Point","coordinates":[5.3682773,43.2198507]},"properties":{"comment":"< occitan Monina; guenon","name":"Col de la Mounine","name:oc":"Pas de la Monina","natural":"saddle","source:name:oc":"ieo-bdtopoc"}},
{"type":"Feature","geometry":{"type":"Point","coordinates":[5.407844,43.2153955]},"properties":{"comment":"< occitan : pin, pinha, pinher;pin, pigne, petit pin","mountain_pass":"yes","name":"Col du Pignet","name:oc":"Pas dau Pinhet","natural":"saddle","source:name:oc":"ieo-bdtopoc"}},
{"type":"Feature","geometry":{"type":"Point","coordinates":[5.4119618,43.220014]},"properties":{"comment":"< oc.Balma del Lamp 1328","mountain_pass":"yes","name":"Col de Lum","name:oc":"Pas de Lamp","natural":"saddle","note":"localisation approximative (nombreux sentiers). Ancien \"col de l'Écureuil\" (1920) ?","source:name:oc":"ieo-bdtopoc"}},
{"type":"Feature","geometry":{"type":"Point","coordinates":[5.4182352,43.215071]},"properties":{"tourism":"viewpoint"}},
{"type":"Feature","geometry":{"type":"Point","coordinates":[5.3845403,43.2212571]},"properties":{"mountain_pass":"yes","name":"Les Trois Arches","natural":"rock"}},
{"type":"Feature","geometry":{"type":"Point","coordinates":[5.3805552,43.219981]},"properties":{"natural":"water","water":"pond"}},
{"type":"Feature","geometry":{"type":"Point","coordinates":[5.3782473,43.2214975]},"properties":{"natural":"water","water":"pond"}},
{"type":"Feature","geometry":{"type":"Point","coordinates":[5.3678706,43.216546]},"properties":{"description":"Grotte","natural":"cave_entrance"}},
{"type":"Feature","geometry":{"type":"Point","coordinates":[5.3680131,43.216758]},"properties":{"description":"Grotte","natural":"cave_entrance"}},
{"type":"Feature","geometry":{"type":"Point","coordinates":[5.4228389,43.2155751]},"properties":{"mountain_pass":"yes","name":"(Pas)","natural":"rock","note":"Aucune difficultée."}},
{"type":"Feature","geometry":{"type":"Point","coordinates":[5.4206663,43.2221023]},"properties":{"natural":"water","water":"pond"}},
{"type":"Feature","geometry":{"type":"Point","coordinates":[5.4229226,43.2225413]},"properties":{"ele":"198","mountain_pass":"yes","name":"Col de Morgiou","name:oc":"Pas de Morgiu","natural":"saddle","source:name:oc":"ieo-bdtopoc"}},
{"type":"Feature","geometry":{"type":"Point","coordinates":[5.4099129,43.2138382]},"properties":{"natural":"cave_entrance","note":"Abri sous roche","shelter_type":"rock_shelter"}},
{"type":"Feature","geometry":{"type":"Point","coordinates":[5.407275,43.2168681]},"properties":{"name":"Abri du Col de Sormiou","name:oc":"Sosta dau Pas de Sormiu","natural":"cave_entrance","source:name:oc":"ieo-bdtopoc"}},
{"type":"Feature","geometry":{"type":"Point","coordinates":[5.3895835,43.2121682]},"properties":{"natural":"cave_entrance"}},
{"type":"Feature","geometry":{"type":"Point","coordinates":[5.4224013,43.2070109]},"properties":{"information":"guidepost","name":"Marquage sur pierre","note":"Est > Bec / Nord > Col","tourism":"information"}},
{"type":"Feature","geometry":{"type":"Point","coordinates":[5.3857083,43.1738983]},"properties":{"alt_name":"Calanque des Anglais","fixme":"à vérifier/sourcer (alt_name)","name":"Calanque des Contrebandiers","natural":"bay","scuba_diving:depth":"25","scuba_diving:difficulty":"2","scuba_diving:maxdepth":"45","sport":"scuba_diving"}},
{"type":"Feature","geometry":{"type":"Point","coordinates":[5.3720228,43.2196212]},"properties":{"comment":"< occitan, it. cat. cast.: monina; fr. Gueunon","ele":"354","name":"Tête de la Mounine","name:oc":"Tèsta de la Monina","natural":"peak","source:name:oc":"ieo-bdtopoc"}},
{"type":"Feature","geometry":{"type":"Point","coordinates":[5.4213674,43.2118143]},"properties":{"name":"Dalle Tarzan","natural":"rock","sport":"climbing"}},
{"type":"Feature","geometry":{"type":"Point","coordinates":[5.4201087,43.2069326]},"properties":{"name":"Dièdre Guem","name:oc":"Plec Guem","natural":"cliff","source:name:oc":"ieo-bdtopoc","sport":"climbing"}},
{"type":"Feature","geometry":{"type":"Point","coordinates":[5.4216953,43.2058407]},"properties":{"height":"80","name":"Archipel","name:oc":"Archipèla","natural":"cliff","source:name:oc":"ieo-bdtopoc","sport":"climbing"}},
{"type":"Feature","geometry":{"type":"Point","coordinates":[5.4242443,43.2052716]},"properties":{"mountain_pass":"yes","name":"Pas de Louis David","natural":"rock","source":"http://calanco.fr/carte/fjords_sormiou.htm"}},
{"type":"Feature","geometry":{"type":"Point","coordinates":[5.4230825,43.2143017]},"properties":{"ele":"112","name":"Aiguille de Sormiou","name:oc":"Agulha de Sormiu","natural":"peak","old_name:oc":"Agulha de Sormil","source":"bing, visu","source:name:oc":"ieo-bdtopoc"}},
{"type":"Feature","geometry":{"type":"Point","coordinates":[5.4052777,43.2120227]},"properties":{"description":"Le \"rocher troué\" (baou trouca) presque séparé de la cote.","name":"Baou Trouca","name:oc":"Bauç Traucat","natural":"cliff","source":"http://calanco.fr/carte/marseilleveyre_plan.htm","source:name:oc":"ieo-bdtopoc"}},
{"type":"Feature","geometry":{"type":"Point","coordinates":[5.3886876,43.2153952]},"properties":{"description":"Baptisé ainsi autour de 1938, quand les familles Rouix et Chaps venaient scruter l'horizon avec leurs fils et fille respectifs, surnommés Titou et Ninou.","name":"Belvédère Titou-Ninou","tourism":"viewpoint"}},
{"type":"Feature","geometry":{"type":"Point","coordinates":[5.3700278,43.216214]},"properties":{"fixme":"localiser précisément","mountain_pass":"yes","name":"Col de la Galinette","name:oc":"Pas de la Galineta","natural":"saddle","source:name:oc":"ieo-bdtopoc"}},
{"type":"Feature","geometry":{"type":"Point","coordinates":[5.3747442,43.2210969]},"properties":{"ele":"346","name":"Pointe Callot","name:oc":"Poncha Calòt","natural":"peak","ref:camptocamp":"109052","source:name:oc":"ieo-bdtopoc","sport":"climbing"}},
{"type":"Feature","geometry":{"type":"Point","coordinates":[5.3927553,43.2158245]},"properties":{"name":"Tête de la Melette","name:oc":"Tèsta de la Meleta","natural":"peak","source":"http://www.naturamarseille.com/fr/poi/Tete%20de%20la%20Melette.php","source:name:oc":"ieo-bdtopoc"}},
{"type":"Feature","geometry":{"type":"Point","coordinates":[5.3929108,43.2160551]},"properties":{"ele":"356","name":"Aiguille de la Melette","name:oc":"Agulha de la Meleta","natural":"peak","source:name:oc":"ieo-bdtopoc"}},
{"type":"Feature","geometry":{"type":"Point","coordinates":[5.4245135,43.2098786]},"properties":{"alt_name":"Pointe de Blanc","name":"Pointe de la Buse","natural":"rock"}},
{"type":"Feature","geometry":{"type":"Point","coordinates":[5.3674327,43.2179197]},"properties":{"fixme":"à localiser/vérifier","name":"Baume supérieure de la Mounine","name:oc":"Bauma de la Monina Sobeirana","natural":"rock","source:name:oc":"ieo-bdtopoc"}},
{"type":"Feature","geometry":{"type":"Point","coordinates":[5.3729094,43.2086961]},"properties":{"historic":"ruins","name":"Ancienne batterie","name:oc":"Batariá Vièlha","note":"Vestige d'une autre batterie, datant d'avant 1812.","source:name:oc":"ieo-bdtopoc"}},
{"type":"Feature","geometry":{"type":"Point","coordinates":[5.4230473,43.2112004]},"properties":{"leisure":"marina","name":"Port de Sormiou","name:oc":"Pòrt de Sormiu","source:name:oc":"ieo-bdtopoc"}},
{"type":"Feature","geometry":{"type":"Point","coordinates":[5.3703679,43.2221727]},"properties":{"description":"Crash du Dakota","historic":"memorial","inscription":"Le 16 janvier 1946 ici périrent dans un accident d'aviation 23 soldats britanniques","memorial":"cross","source":"https://www.francebleu.fr/emissions/racontez-nous/provence/marseilleveyre-avec-les-calancoeurs","source2":"http://calancoeurs.clicforum.fr/t2919-crash-du-Dakota.htm"}},
{"type":"Feature","geometry":{"type":"Point","coordinates":[5.3676313,43.2117686]},"properties":{"description":"Une arche de pierre, invisible depuis les sentiers.","name":"Roche Percée de la Mounine","name:oc":"Ròca Traucada de La Monina","natural":"rock","note":"A localiser précisemment. Attention : confusion sur carte IGN avec le nom affichée au-dessus du plateau inférieur Mounine.","source:name:oc":"ieo-bdtopoc"}},
{"type":"Feature","geometry":{"type":"Point","coordinates":[5.3827067,43.2157395]},"properties":{"name":"Têtes de Malvallon","name:oc":"Tèsta de Mal Valon","natural":"peak","source:name:oc":"ieo-bdtopoc"}},
{"type":"Feature","geometry":{"type":"Point","coordinates":[5.3895547,43.2149432]},"properties":{"name":"La Bougie","name:oc":"La Candèla de la Meleta","natural":"peak","source:name:oc":"ieo-bdtopoc"}},
{"type":"Feature","geometry":{"type":"Point","coordinates":[5.3968969,43.217086]},"properties":{"name":"Arête de Dix Heures","name:oc":"Crestenc deis Auras","natural":"cliff","source:name:oc":"ieo-bdtopoc","sport":"climbing"}},
{"type":"Feature","geometry":{"type":"Point","coordinates":[5.4070089,43.2153336]},"properties":{"name":"La Parfumerie","name:oc":"La Prefumariá","natural":"cliff","source:name:oc":"ieo-bdtopoc","sport":"climbing"}},
{"type":"Feature","geometry":{"type":"Point","coordinates":[5.4247181,43.2057461]},"properties":{"name":"Aven de Sormiou","name:oc":"Avenc de Sormiu","natural":"cave_entrance","source:name:oc":"ieo-bdtopoc"}},
{"type":"Feature","geometry":{"type":"Point","coordinates":[5.3889732,43.2122504]},"properties":{"name":"Promontoire de l'Escu","name:oc":"Poncha de L’Escut","natural":"peak","source:name:oc":"ieo-bdtopoc"}},
{"type":"Feature","geometry":{"type":"Point","coordinates":[5.3896299,43.2121923]},"properties":{"fixme":"à localiser précisément","historic":"memorial","inscription":"En ce lieu le 28 juin 1981 Sylvain Menu 16 ans a perdu la vie en sauvant un enfant de la noyade","memorial":"plaque"}},
{"type":"Feature","geometry":{"type":"Point","coordinates":[5.3879298,43.214672]},"properties":{"name":"Aiguille Bompard","name:oc":"Agulha Bompard","natural":"peak","source":"Docteur Albert","source:name:oc":"ieo-bdtopoc"}},
{"type":"Feature","geometry":{"type":"Point","coordinates":[5.390389,43.2158856]},"properties":{"name":"Tour Carrée des Walkyries","natural":"peak","source":"Albert"}},
{"type":"Feature","geometry":{"type":"Point","coordinates":[5.3870113,43.2180539]},"properties":{"ele":"391","name":"Signal Sud de l'Homme Mort","name:oc":"Pic Miejornau de l’Oume Mòrt","natural":"peak","note":"approximativement \"Signal Sud de l'Homme Mort\" d'après Albert. A localiser et vérifier altitude","source:name:oc":"ieo-bdtopoc"}},
{"type":"Feature","geometry":{"type":"Point","coordinates":[5.395283,43.221679]},"properties":{"name":"Col des Trois Pics","name:oc":"Pas dei Tres Pics","natural":"saddle","note":"à situer","source:name:oc":"ieo-bdtopoc"}},
{"type":"Feature","geometry":{"type":"Point","coordinates":[5.3968046,43.2210329]},"properties":{"name":"Grand Chameau","natural":"peak","note":"A localiser, sommet de la colline surnommé \"Grand Chameau\""}},
{"type":"Feature","geometry":{"type":"Point","coordinates":[5.3994372,43.2200165]},"properties":{"name":"Grotte du Jas de Segond","natural":"cave_entrance"}},
{"type":"Feature","geometry":{"type":"Point","coordinates":[5.407971,43.2152426]},"properties":{"name":"Brêche du Pignet","name:oc":"Bèrca dau Pinhet","natural":"cave_entrance","note":"à localiser. Sur raccourci entre 64 contours et sentier de crète Sormiou. Est-ce la boite/fenêtre à côté du col pignet ?","source:name:oc":"ieo-bdtopoc"}},
{"type":"Feature","geometry":{"type":"Point","coordinates":[5.4217842,43.2087372]},"properties":{"name":"Anse du Petit Soldat","natural":"bay"}},
{"type":"Feature","geometry":{"type":"Point","coordinates":[5.3824844,43.1905911]},"properties":{"alt_name":"Pierre Trémouère","name":"Pierre Qui Trémolle","name:oc":"La Pèira Que Tremòla","natural":"rock","note":"traduction la pierre qui tremble","source:name:oc":"ieo-bdtopoc"}},
{"type":"Feature","geometry":{"type":"Point","coordinates":[5.3865992,43.1730414]},"properties":{"name":"Calanque du Cap Nègre","name:oc":"Calanca dau Cuou Negre","natural":"bay","source:name:oc":"ieo-bdtopoc"}},
{"type":"Feature","geometry":{"type":"Point","coordinates":[5.3864222,43.1726972]},"properties":{"name":"Cap Nègre","name:oc":"Lo Cuou Negre","natural":"cape","source:name:oc":"ieo-bdtopoc"}},
{"type":"Feature","geometry":{"type":"Point","coordinates":[5.3900573,43.172793]},"properties":{"name":"Le Gabian","name:oc":"Lo Gabian","natural":"cliff","source:name:oc":"ieo-bdtopoc"}},
{"type":"Feature","geometry":{"type":"Point","coordinates":[5.3952826,43.1732415]},"properties":{"name":"Le Gros Baou","name:oc":"Bauç Gròs","natural":"cliff","source:name:oc":"ieo-bdtopoc"}},
{"type":"Feature","geometry":{"type":"Point","coordinates":[5.3981874,43.1735075]},"properties":{"name":"Calanque de Calamassane","name:oc":"Cala Maussana","natural":"bay","source:name:oc":"ieo-bdtopoc"}},
{"type":"Feature","geometry":{"type":"Point","coordinates":[5.3978271,43.2155244]},"properties":{"name":"Le Nid d'Aigle - gauche","name:oc":"Lo Nitz de l’Agla Senequier","natural":"cliff","source:name:oc":"ieo-bdtopoc","sport":"climbing"}},
{"type":"Feature","geometry":{"type":"Point","coordinates":[5.3927485,43.176691]},"properties":{"fixme":"Francisation toponyme attesté ?","name":"La Campane","name:oc":"La Campana","natural":"bay","source:name:oc":"ieo-bdtopoc"}},
{"type":"Feature","geometry":{"type":"Point","coordinates":[5.386387,43.1791251]},"properties":{"name":"Pointe du Monastèri","name:oc":"Poncha dau Monesteirau","natural":"cape","source:name:oc":"ieo-bdtopoc"}},
{"type":"Feature","geometry":{"type":"Point","coordinates":[5.3842379,43.1788611]},"properties":{"name":"Calanque de l'Aiglon","natural":"bay"}},
{"type":"Feature","geometry":{"type":"Point","coordinates":[5.380743,43.1809304]},"properties":{"fixme":"Francisation fantaisiste du toponyme ?","name":"La Boucassière","name:oc":"La Bocassiera","natural":"cape","source:name:oc":"ieo-bdtopoc"}},
{"type":"Feature","geometry":{"type":"Point","coordinates":[5.378036,43.1757579]},"properties":{"description":"Le \"Museau de Chien\" en provençal (surtout vu du sud-ouest)","name":"Morre de Can","name:oc":"Morre de Can","natural":"cape","source:name:oc":"ieo-bdtopoc"}},
{"type":"Feature","geometry":{"type":"Point","coordinates":[5.3976544,43.2199218]},"properties":{"natural":"rock","note":"Toponyme \"L'Arche\" à localiser/identifier (source 1920)"}},
{"type":"Feature","geometry":{"type":"Point","coordinates":[5.4110786,43.2210311]},"properties":{"ele":"243","natural":"peak"}},
{"type":"Feature","geometry":{"type":"Point","coordinates":[5.3897588,43.1757448]},"properties":{"alt_name":"Tête de l’Âne","comment":"la graphie IOU note maladroitement en français les sons /iw/. La forme authentique pour noter ces sons est IU comme dans toutes les langues romanes. La deformation de la graphie entraîne une déformation du mot prononcé de plus en plus /Ri’u/","ele":"187","name":"Sommet de Riou","name:oc":"Cima de Riu","natural":"peak","source:name:oc":"ieo-bdtopoc"}},
{"type":"Feature","geometry":{"type":"Point","coordinates":[5.3886612,43.1867712]},"properties":{"ele":"20","name":"Sommet de l'Île Plane","name:oc":"Cima de l’Illa Plana","natural":"peak","source:name:oc":"ieo-bdtopoc"}},
{"type":"Feature","geometry":{"type":"Point","coordinates":[5.4013943,43.1760521]},"properties":{"ele":"49","name":"Le Grand Congloué","name:oc":"Cima de Concluá","natural":"peak","source:name:oc":"ieo-bdtopoc"}},
{"type":"Feature","geometry":{"type":"Point","coordinates":[5.3853525,43.1757416]},"properties":{"historic":"ruins","historic:civilization":"medieval","name":"Vigie de Riou"}},
{"type":"Feature","geometry":{"type":"Point","coordinates":[5.4087901,43.216521]},"properties":{"tourism":"viewpoint"}},
{"type":"Feature","geometry":{"type":"Point","coordinates":[5.3680842,43.2173475]},"properties":{"comment":"< occitan pas + monina /mu’ninO:;fr. Col+gueunon","mountain_pass":"yes","name":"Pas de la Mounine","name:oc":"Pas de la Monina","natural":"rock","source:name:oc":"ieo-bdtopoc","sport":"climbing"}},
{"type":"Feature","geometry":{"type":"Point","coordinates":[5.416895,43.221947]},"properties":{"description":"Voies faciles, approprié pour enfants et débutants","description:en":"Easy routes, well suited for children and beginners","name":"Site d'escalade","sport":"climbing"}},
{"type":"Feature","geometry":{"type":"Point","coordinates":[5.414025,43.209396]},"properties":{"name":"Le Vaisseau","name:oc":"Lo Vaissèu","natural":"cliff","source:name:oc":"ieo-bdtopoc","sport":"climbing"}},
{"type":"Feature","geometry":{"type":"Point","coordinates":[5.4177433,43.2075802]},"properties":{"comment":"< occitan v. Romp-re -e 3 pers. pst. ind. ; fr. Casser, rompre","name":"Lo Rompe Cuou","name:oc":"Lo Rompe-cuou","natural":"cliff","source:name:oc":"ieo-bdtopoc","sport":"climbing"}},
{"type":"Feature","geometry":{"type":"Point","coordinates":[5.4209434,43.2068114]},"properties":{"name":"L'Ouro","name:oc":"L’Ola","natural":"cliff","source:name:oc":"ieo-bdtopoc","sport":"climbing"}},
{"type":"Feature","geometry":{"type":"Point","coordinates":[5.4216962,43.2064836]},"properties":{"comment":"< occitan Conglosa - > congloá desplacament de la tonica","name":"Dalle du Conglué","name:oc":"Lausa de la Concluá","natural":"cliff","source:name:oc":"ieo-bdtopoc","sport":"climbing"}},
{"type":"Feature","geometry":{"type":"Point","coordinates":[5.4231379,43.2056722]},"properties":{"name":"L'Uelh d'Ai","name:oc":"L'Uelh d'Ai","natural":"cliff","source:name:oc":"ieo-bdtopoc","sport":"climbing"}},
{"type":"Feature","geometry":{"type":"Point","coordinates":[5.4244573,43.2047423]},"properties":{"name":"Ali Baba","natural":"cliff","sport":"climbing"}},
{"type":"Feature","geometry":{"type":"Point","coordinates":[5.4255195,43.2042907]},"properties":{"comment":"> occitan : tiranha;courant marin","name":"Tiragne gauche","name:oc":"La Tiranha Ponentesa","natural":"cliff","source:name:oc":"ieo-bdtopoc","sport":"climbing"}},
{"type":"Feature","geometry":{"type":"Point","coordinates":[5.4213643,43.2070074]},"properties":{"name":"L’Oasis","name:oc":"L’Oasís","natural":"cliff","source:name:oc":"ieo-bdtopoc","sport":"climbing"}},
{"type":"Feature","geometry":{"type":"Point","coordinates":[5.4217228,43.2072276]},"properties":{"comment":"< occitan ostau /us’taw/; fr. Maison","name":"Le Petit Saussois - L'Ostau","name:oc":"Lo Saussenet e l’Ostau","natural":"cliff","source:name:oc":"ieo-bdtopoc","sport":"climbing"}},
{"type":"Feature","geometry":{"type":"Point","coordinates":[5.4132971,43.2138762]},"properties":{"name":"La Pinède","name:oc":"La Pineda","natural":"cliff","source:name:oc":"ieo-bdtopoc","sport":"climbing"}},
{"type":"Feature","geometry":{"type":"Point","coordinates":[5.4175637,43.21448]},"properties":{"name":"Le Pouce gauche","name:oc":"Lo Poce Senequier","natural":"cliff","source:name:oc":"ieo-bdtopoc","sport":"climbing"}},
{"type":"Feature","geometry":{"type":"Point","coordinates":[5.417663,43.2141776]},"properties":{"name":"Le Pouce droit","name:oc":"Lo Poce Drechurier","natural":"cliff","source:name:oc":"ieo-bdtopoc","sport":"climbing"}},
{"type":"Feature","geometry":{"type":"Point","coordinates":[5.4180464,43.2143321]},"properties":{"name":"Le Majeur","name:oc":"Lo Major","natural":"cliff","source:name:oc":"ieo-bdtopoc","sport":"climbing"}},
{"type":"Feature","geometry":{"type":"Point","coordinates":[5.4232624,43.2142501]},"properties":{"comment":"< occitan Sormiu /sur’miw/","name":"Aiguille de Sormiou","name:oc":"Agulha de Sormiu","natural":"cliff","source:name:oc":"ieo-bdtopoc","sport":"climbing"}},
{"type":"Feature","geometry":{"type":"Point","coordinates":[5.4255031,43.2150019]},"properties":{"comment":"< occitan Bauç /baw/;fr. Falaise","name":"Baou Rond - secteur de gauche","name:oc":"Bauç Redon - Senèstra","natural":"cliff","source:name:oc":"ieo-bdtopoc","sport":"climbing"}},
{"type":"Feature","geometry":{"type":"Point","coordinates":[5.4072812,43.2152512]},"properties":{"name":"Parfumerie - secteur de droite","name:oc":"La Prefumariá Drechiera","natural":"cliff","source:name:oc":"ieo-bdtopoc","sport":"climbing"}},
{"type":"Feature","geometry":{"type":"Point","coordinates":[5.4089592,43.2169149]},"properties":{"name":"Col de Sormiou - face nord","name:oc":"Pas de Sormiu Ubac","natural":"cliff","source:name:oc":"ieo-bdtopoc","sport":"climbing"}},
{"type":"Feature","geometry":{"type":"Point","coordinates":[5.4086951,43.2161859]},"properties":{"name":"Col de Sormiou - face sud est","name:oc":"Pas de Sormiu Adrech","natural":"cliff","source:name:oc":"ieo-bdtopoc","sport":"climbing"}},
{"type":"Feature","geometry":{"type":"Point","coordinates":[5.4137181,43.2169416]},"properties":{"name":"Les Mamouchons","name:oc":"Lei Pòrcs Singlar","natural":"cliff","source:name:oc":"ieo-bdtopoc","sport":"climbing"}},
{"type":"Feature","geometry":{"type":"Point","coordinates":[5.4018183,43.2170225]},"properties":{"name":"Le Petit Cirque","name:oc":"Lo Circon","natural":"cliff","source:name:oc":"ieo-bdtopoc","sport":"climbing"}},
{"type":"Feature","geometry":{"type":"Point","coordinates":[5.39872,43.2149113]},"properties":{"name":"Le Nid d'Aigle - droite","name:oc":"Lo Nitz de l’Agla Drechier","natural":"cliff","source:name:oc":"ieo-bdtopoc","sport":"climbing"}},
{"type":"Feature","geometry":{"type":"Point","coordinates":[5.3973679,43.2177173]},"properties":{"name":"Cirque de Coulon","name:oc":"Circ dau Colon","natural":"cliff","source:name:oc":"ieo-bdtopoc","sport":"climbing"}},
{"type":"Feature","geometry":{"type":"Point","coordinates":[5.3930504,43.2130695]},"properties":{"name":"Les Bois","name:oc":"Lei Bòscs","natural":"cliff","source:name:oc":"ieo-bdtopoc","sport":"climbing"}},
{"type":"Feature","geometry":{"type":"Point","coordinates":[5.3929479,43.2153627]},"properties":{"name":"Tête de la Melette - face sud","name:oc":"Tèsta de la Meleta - Adrech","natural":"cliff","source:name:oc":"ieo-bdtopoc","sport":"climbing"}},
{"type":"Feature","geometry":{"type":"Point","coordinates":[5.3930631,43.2133751]},"properties":{"name":"Aubade gauche","name:oc":"Aubada Senequiera","natural":"cliff","source:name:oc":"ieo-bdtopoc","sport":"climbing"}},
{"type":"Feature","geometry":{"type":"Point","coordinates":[5.3937926,43.2133711]},"properties":{"name":"Aubade droite","name:oc":"Aubada Drechuriera","natural":"cliff","source:name:oc":"ieo-bdtopoc","sport":"climbing"}},
{"type":"Feature","geometry":{"type":"Point","coordinates":[5.3922906,43.2180282]},"properties":{"name":"Les hauts des Walkyries","natural":"cliff","sport":"climbing"}},
{"type":"Feature","geometry":{"type":"Point","coordinates":[5.3910941,43.2124647]},"properties":{"name":"Palangrotte","name:oc":"Palangròta","natural":"cliff","source:name:oc":"ieo-bdtopoc","sport":"climbing"}},
{"type":"Feature","geometry":{"type":"Point","coordinates":[5.3904157,43.2124042]},"properties":{"name":"Secteur La Chtouille","name:oc":"Sector de la Castapiana","natural":"cliff","source:name:oc":"ieo-bdtopoc","sport":"climbing"}},
{"type":"Feature","geometry":{"type":"Point","coordinates":[5.3903381,43.2126161]},"properties":{"name":"Le Pilier de l'Escu","name:oc":"Lo Pilar de l’Escut","natural":"cliff","source:name:oc":"ieo-bdtopoc","sport":"climbing"}},
{"type":"Feature","geometry":{"type":"Point","coordinates":[5.3901934,43.2126951]},"properties":{"name":"Leche Cul","name:oc":"Sucra Balòta","natural":"cliff","source:name:oc":"ieo-bdtopoc","sport":"climbing"}},
{"type":"Feature","geometry":{"type":"Point","coordinates":[5.3899185,43.2127146]},"properties":{"name":"Corniche des Pecheurs - droite","name:oc":"Cengle dei Pescadors Drechier","natural":"cliff","source:name:oc":"ieo-bdtopoc","sport":"climbing"}},
{"type":"Feature","geometry":{"type":"Point","coordinates":[5.3895905,43.2122684]},"properties":{"name":"Corniche des Pecheurs - gauche","name:oc":"Cengle dei Pescadors Senequier","natural":"cliff","source:name:oc":"ieo-bdtopoc","sport":"climbing"}},
{"type":"Feature","geometry":{"type":"Point","coordinates":[5.3899175,43.212232]},"properties":{"name":"Secteur des Toits","name:oc":"Sector dei Teulissas","natural":"cliff","source:name:oc":"ieo-bdtopoc","sport":"climbing"}},
{"type":"Feature","geometry":{"type":"Point","coordinates":[5.3897954,43.2151115]},"properties":{"name":"Le Cirque","name:oc":"Lo Circ","natural":"cliff","source:name:oc":"ieo-bdtopoc","sport":"climbing"}},
{"type":"Feature","geometry":{"type":"Point","coordinates":[5.3891994,43.2150116]},"properties":{"name":"Le Mur","name:oc":"La Paret","natural":"cliff","source:name:oc":"ieo-bdtopoc","sport":"climbing"}},
{"type":"Feature","geometry":{"type":"Point","coordinates":[5.3874068,43.2153716]},"properties":{"name":"La Lèbre","name:oc":"La Lèbre","natural":"cliff","source:name:oc":"ieo-bdtopoc","sport":"climbing"}},
{"type":"Feature","geometry":{"type":"Point","coordinates":[5.3751864,43.2209785]},"properties":{"name":"Pointe Callot","name:oc":"Poncha Calòt","natural":"cliff","source:name:oc":"ieo-bdtopoc","sport":"climbing"}},
{"type":"Feature","geometry":{"type":"Point","coordinates":[5.3768753,43.2194055]},"properties":{"name":"Le Balcon","name:oc":"Lo Bescaume","natural":"cliff","source:name:oc":"ieo-bdtopoc","sport":"climbing"}},
{"type":"Feature","geometry":{"type":"Point","coordinates":[5.376504,43.218875]},"properties":{"name":"Dalle du Méandre","name:oc":"Lausa dau Contorn","natural":"cliff","source:name:oc":"ieo-bdtopoc","sport":"climbing"}},
{"type":"Feature","geometry":{"type":"Point","coordinates":[5.3767832,43.2184863]},"properties":{"name":"Le Méandre","name:oc":"Lo Contorn","natural":"cliff","source:name:oc":"ieo-bdtopoc","sport":"climbing"}},
{"type":"Feature","geometry":{"type":"Point","coordinates":[5.3761152,43.2181957]},"properties":{"name":"Le Porche - Cigaloun","name:oc":"Lo Pòrge e Cigalon","natural":"cliff","source:name:oc":"ieo-bdtopoc","sport":"climbing"}},
{"type":"Feature","geometry":{"type":"Point","coordinates":[5.3754822,43.2178398]},"properties":{"name":"Le Porche - L'eau des Collines","name:oc":"Lo Pòrge e L’Aiga dei Còlas","natural":"cliff","source:name:oc":"ieo-bdtopoc","sport":"climbing"}},
{"type":"Feature","geometry":{"type":"Point","coordinates":[5.3730591,43.2195734]},"properties":{"name":"Face Sud Est","name:oc":"Miegjorn Levantau de Marselha Veire","natural":"cliff","source:name:oc":"ieo-bdtopoc","sport":"climbing"}},
{"type":"Feature","geometry":{"type":"Point","coordinates":[5.3712543,43.2184896]},"properties":{"name":"Tora Bora","natural":"cliff","sport":"climbing"}},
{"type":"Feature","geometry":{"type":"Point","coordinates":[5.3701002,43.2207587]},"properties":{"name":"Col de la Mounine","name:oc":"Pas de la Monina","natural":"cliff","source:name:oc":"ieo-bdtopoc","sport":"climbing"}},
{"type":"Feature","geometry":{"type":"Point","coordinates":[5.3673087,43.2183921]},"properties":{"comment":"< bauma : abri sous roche+ monina : guenon","name":"Baume de la Mounine","name:oc":"Bauma de la Monina","natural":"cliff","source:name:oc":"ieo-bdtopoc","sport":"climbing"}},
{"type":"Feature","geometry":{"type":"Point","coordinates":[5.3695393,43.2180332]},"properties":{"name":"Face Ouest","name:oc":"Ponent de Marselha Vièlha","natural":"cliff","source:name:oc":"ieo-bdtopoc","sport":"climbing"}},
{"type":"Feature","geometry":{"type":"Point","coordinates":[5.3700414,43.2178221]},"properties":{"name":"La Galinette droite","name:oc":"La Galineta Drechiera","natural":"cliff","source:name:oc":"ieo-bdtopoc","sport":"climbing"}},
{"type":"Feature","geometry":{"type":"Point","coordinates":[5.3696165,43.2174421]},"properties":{"name":"La Galinette gauche","name:oc":"La Galineta Senequiera","natural":"cliff","source:name:oc":"ieo-bdtopoc","sport":"climbing"}},
{"type":"Feature","geometry":{"type":"Point","coordinates":[5.3697324,43.2161755]},"properties":{"name":"Col de la Galinette","name:oc":"Pas de la Galineta","natural":"cliff","source:name:oc":"ieo-bdtopoc","sport":"climbing"}},
{"type":"Feature","geometry":{"type":"Point","coordinates":[5.3707173,43.2147047]},"properties":{"name":"Les Pintades droite","name:oc":"Lei Pintadas Drechieras","natural":"cliff","source:name:oc":"ieo-bdtopoc","sport":"climbing"}},
{"type":"Feature","geometry":{"type":"Point","coordinates":[5.3710649,43.2142473]},"properties":{"name":"Les Pintades gauche","name:oc":"Lei Pintadas Senequieras","natural":"cliff","source:name:oc":"ieo-bdtopoc","sport":"climbing"}},
{"type":"Feature","geometry":{"type":"Point","coordinates":[5.3713739,43.2135506]},"properties":{"name":"Les Cailles","name:oc":"Lei Calhas","natural":"cliff","source:name:oc":"ieo-bdtopoc","sport":"climbing"}},
{"type":"Feature","geometry":{"type":"Point","coordinates":[5.4211729,43.2170439]},"properties":{"name":"Les Escourtines","name:oc":"Las Cortinas","natural":"cliff","source:name:oc":"ieo-bdtopoc","sport":"climbing"}},
{"type":"Feature","geometry":{"type":"Point","coordinates":[5.3613834,43.2186589]},"properties":{"natural":"cliff"}},
{"type":"Feature","geometry":{"type":"Point","coordinates":[5.3662679,43.2226001]},"properties":{"name":"Les Oreilles de Lapin","name:oc":"Leis Aurelhas de Coniu","natural":"cliff","source:name:oc":"ieo-bdtopoc","sport":"climbing"}},
{"type":"Feature","geometry":{"type":"Point","coordinates":[5.4215779,43.2077203]},"properties":{"natural":"rock","source":"BDOrtho IGN - available 2020 at the latest"}},
{"type":"Feature","geometry":{"type":"Point","coordinates":[5.3810494,43.2210535]},"properties":{"natural":"cave_entrance"}},
{"type":"Feature","geometry":{"type":"Point","coordinates":[5.3809052,43.2209407]},"properties":{"name":"Grotte de l'Olivier","natural":"cave_entrance","ref":"60"}},
{"type":"Feature","geometry":{"type":"Point","coordinates":[5.3838989,43.2211141]},"properties":{"natural":"cave_entrance"}},
{"type":"Feature","geometry":{"type":"Point","coordinates":[5.3845228,43.2207752]},"properties":{"name":"Grotte n° 1 de Malvallon Central","natural":"cave_entrance","ref":"51"}},
{"type":"Feature","geometry":{"type":"Point","coordinates":[5.3714807,43.1938553]},"properties":{"name":"Pointe de la Cride","name:oc":"Poncha de la Crida","natural":"cape","source":"IGN - 2021-12","source:name:oc":"ieo-bdtopoc"}},
{"type":"Feature","geometry":{"type":"Point","coordinates":[5.3742744,43.177209]},"properties":{"ele":"22","name":"Tête de Fontagne","name:oc":"Tèsta de la Fontana","natural":"peak","source":"IGN - 2021-12","source:name:oc":"ieo-bdtopoc"}},
{"type":"Feature","geometry":{"type":"Point","coordinates":[5.3817131,43.1769853]},"properties":{"ele":"50","name":"L'Aiguille","name:oc":"L’Agulha","natural":"peak","source":"IGN - 2021-12","source:name:oc":"ieo-bdtopoc"}},
{"type":"Feature","geometry":{"type":"Point","coordinates":[5.3971461,43.2167648]},"properties":{"name:oc":"Bauma deis Auras","natural":"cave_entrance","source":"IGN - 2021-12","source:name:oc":"ieo-bdtopoc"}},
{"type":"Feature","geometry":{"type":"Point","coordinates":[5.4176144,43.2154215]},"properties":{"tourism":"viewpoint"}},
{"type":"Feature","geometry":{"type":"Point","coordinates":[5.425747,43.2060174]},"properties":{"natural":"cave_entrance","note":"Abri sous roche"}},
{"type":"Feature","geometry":{"type":"Point","coordinates":[5.4209219,43.2071395]},"properties":{"natural":"saddle"}},
{"type":"Feature","geometry":{"type":"Point","coordinates":[5.4231524,43.2159936]},"properties":{"mountain_pass":"yes","name":"(Pas)","natural":"rock","note":"Pas en 4 inf de 2.5m de haut.\nPeu compliqué en monté.\nDélicat en descente.\nExposé."}},
{"type":"Feature","geometry":{"type":"Point","coordinates":[5.3842819,43.2109147]},"properties":{"natural":"rock"}},
{"type":"Feature","geometry":{"type":"Point","coordinates":[5.3881592,43.211346]},"properties":{"mountain_pass":"yes","name":"Pas du Pêcheur","natural":"rock","note":"Pas très patiné. Modéré en monté, délicat en descente.","sport":"climbing"}},
{"type":"Feature","geometry":{"type":"Point","coordinates":[5.3687221,43.2184643]},"properties":{"name":"Col de Saint-Michel","name:oc":"Pas de Sant Miqueu","natural":"saddle","source:name:oc":"ieo-bdtopoc"}},
{"type":"Feature","geometry":{"type":"Point","coordinates":[5.3691292,43.2195044]},"properties":{"natural":"rock"}},
{"type":"Feature","geometry":{"type":"Point","coordinates":[5.3704399,43.2129103]},"properties":{"name":"Sommet du plateau de la Mounine","name:oc":"Cima dau Plan de la Monina","natural":"peak","source:name:oc":"ieo-bdtopoc"}},
{"type":"Feature","geometry":{"type":"Point","coordinates":[5.4238983,43.2058268]},"properties":{"name":"(Pas d'escalade)","natural":"rock","sport":"climbing"}},
{"type":"Feature","geometry":{"type":"Point","coordinates":[5.4189725,43.2195845]},"properties":{"historic":"monument","inscription":"En defendant la Forêt Provençale, Jean-Pierre MALAVASI et Michel ALVAREL, du Bataillon des Marins-Pompiers de la Ville de Marseille, ont peri lors de l'Incendie des Calanques, le 18 Août 1979. Souvenez-vous.","name":"Monument à Jean-Pierre Malavasi et Michel Alvarel"}},
{"type":"Feature","geometry":{"type":"Point","coordinates":[5.3780166,43.2147746]},"properties":{"fixme":"A placer précisément","name":"Arches des Cailles","name:oc":"Arcada dei Calhas","natural":"rock","source:name:oc":"ieo-bdtopoc"}},
{"type":"Feature","geometry":{"type":"Point","coordinates":[5.4199568,43.20672]},"properties":{"description":"R3. Rappel vers les voies : Dark side of the moule, Etron fou, On est toujours trop bon avec les femmes.","name":"Rappel Dark side of the moule/Etron fou/On est toujours trop bon avec les femmes","natural":"cliff","sport":"climbing"}},
{"type":"Feature","geometry":{"type":"Point","coordinates":[5.4139626,43.218496]},"properties":{"mountain_pass":"yes","name":"Col des Baumettes","name:oc":"Pas dei Baumetas","natural":"saddle","source:name:oc":"ieo-bdtopoc"}},
{"type":"Feature","geometry":{"type":"Point","coordinates":[5.3884912,43.2110221]},"properties":{"name":"Calanque du Grand Livre","natural":"bay"}},
{"type":"Feature","geometry":{"type":"Point","coordinates":[5.368688,43.2074874]},"properties":{"name":"Le Théâtre","natural":"cape"}},
{"type":"Feature","geometry":{"type":"Point","coordinates":[5.4233403,43.2105932]},"properties":{"name":"La Cabussaïre","natural":"bay"}},
{"type":"Feature","geometry":{"type":"Point","coordinates":[5.3831444,43.2105919]},"properties":{"natural":"cave_entrance"}},
{"type":"Feature","geometry":{"type":"Point","coordinates":[5.4252254,43.2178124]},"properties":{"direction":"45","tourism":"viewpoint"}},
{"type":"Feature","geometry":{"type":"Point","coordinates":[5.4057783,43.2182554]},"properties":{"name":"Grotte 300","natural":"cave_entrance","ref":"300"}},
{"type":"Feature","geometry":{"type":"Point","coordinates":[5.4015593,43.2158288]},"properties":{"name":"Baume n° 9 de Cortiou","name:oc":"Bauma 9 de Cortiu","natural":"cave_entrance","source:name:oc":"ieo-bdtopoc"}},
{"type":"Feature","geometry":{"type":"Point","coordinates":[5.3922915,43.2147743]},"properties":{"name":"Grotte du Hibou","name:oc":"Bauma de la Machòta","natural":"cave_entrance","source:name:oc":"ieo-bdtopoc"}},
{"type":"Feature","geometry":{"type":"Point","coordinates":[5.38647,43.2150635]},"properties":{"name":"Grotte Mireille","name:oc":"Bauma Mirèlha","natural":"cave_entrance","source:name:oc":"ieo-bdtopoc"}},
{"type":"Feature","geometry":{"type":"Point","coordinates":[5.3833163,43.2128332]},"properties":{"name":"Grotte de Podestat","name:oc":"Bauma dau Podestat","natural":"cave_entrance","source:name:oc":"ieo-bdtopoc"}},
{"type":"Feature","geometry":{"type":"Point","coordinates":[5.380278,43.2102208]},"properties":{"name":"Grotte marine des Queyrons","natural":"cave_entrance"}},
{"type":"Feature","geometry":{"type":"Point","coordinates":[5.3708699,43.214999]},"properties":{"name":"Haute grotte du Plan des Cailles","name:oc":"Bauma Sobeirana dau Plan de Calha","natural":"cave_entrance","source:name:oc":"ieo-bdtopoc"}},
{"type":"Feature","geometry":{"type":"Point","coordinates":[5.3737439,43.214969]},"properties":{"name":"Basse grotte du plan des Cailles","natural":"cave_entrance"}},
{"type":"Feature","geometry":{"type":"Point","coordinates":[5.3678862,43.2147331]},"properties":{"name":"Grotte de la Mounine n° 1","natural":"cave_entrance"}},
{"type":"Feature","geometry":{"type":"Point","coordinates":[5.3681718,43.214475]},"properties":{"name":"Grotte de la Mounine n° 2","natural":"cave_entrance"}},
{"type":"Feature","geometry":{"type":"Point","coordinates":[5.3681813,43.2144709]},"properties":{"name":"Grotte de la Mounine n° 3","natural":"cave_entrance"}},
{"type":"Feature","geometry":{"type":"Point","coordinates":[5.3677042,43.2139817]},"properties":{"name":"Grotte de la Mounine n° 4 Nord","natural":"cave_entrance"}},
{"type":"Feature","geometry":{"type":"Point","coordinates":[5.3676935,43.2139685]},"properties":{"name":"Grotte de la Mounine n° 4 Sud","natural":"cave_entrance"}},
{"type":"Feature","geometry":{"type":"Point","coordinates":[5.3686504,43.2143178]},"properties":{"name":"Grotte de la Mounine n° 7","natural":"cave_entrance"}},
{"type":"Feature","geometry":{"type":"Point","coordinates":[5.3684675,43.216863]},"properties":{"name":"Baume du Pas de la Mounine","name:oc":"Bauma dau Pas de la Monina","natural":"cave_entrance","ref":"121","source:name:oc":"ieo-bdtopoc"}},
{"type":"Feature","geometry":{"type":"Point","coordinates":[5.3691142,43.216736]},"properties":{"name":"Gouffre du Col de la Galinette","name:oc":"Avenc dau Pas de la Galineta","natural":"cave_entrance","source:name:oc":"ieo-bdtopoc"}},
{"type":"Feature","geometry":{"type":"Point","coordinates":[5.4143495,43.2150124]},"properties":{"intermittent":"yes","natural":"spring"}},
{"type":"Feature","geometry":{"type":"Point","coordinates":[5.3819719,43.2104163]},"properties":{"information":"map","map_size":"region","map_type":"topo","tourism":"information"}},
{"type":"Feature","geometry":{"type":"Point","coordinates":[5.4042342,43.2167282]},"properties":{"information":"map","map_size":"region","map_type":"scheme","tourism":"information"}},
{"type":"Feature","geometry":{"type":"Point","coordinates":[5.4219615,43.2171824]},"properties":{"tourism":"viewpoint"}},
{"type":"Feature","geometry":{"type":"Point","coordinates":[5.4225167,43.2171735]},"properties":{"tourism":"viewpoint"}},
{"type":"Feature","geometry":{"type":"Point","coordinates":[5.4212451,43.2060964]},"properties":{"height":"130","name":"La penthère rose","natural":"cliff","sport":"climbing"}},
{"type":"Feature","geometry":{"type":"LineString","coordinates":[[5.4206268,43.2081622],[5.4204036,43.2082748],[5.4203006,43.2083624],[5.4201461,43.2084],[5.4200431,43.2085001],[5.41982,43.2085626],[5.4195968,43.2085126]]},"properties":{"name":"L'Espigaw","name:oc":"L'Espigau","natural":"cliff","source:name:oc":"ieo-bdtopoc","sport":"climbing"}},
{"type":"Feature","geometry":{"type":"LineString","coordinates":[[5.4255363,43.2041145],[5.4257251,43.2040332],[5.4258281,43.2040519],[5.426077,43.2039769],[5.4262058,43.2039894],[5.4263088,43.2039518]]},"properties":{"created_by":"Potlatch 0.10e","natural":"cliff","sport":"climbing"}},
{"type":"Feature","geometry":{"type":"LineString","coordinates":[[5.3534052,43.2119702],[5.3547635,43.2119138],[5.3552318,43.2122564],[5.3562521,43.2138707],[5.3554945,43.2156617],[5.3554781,43.215788],[5.3542595,43.2173688],[5.3567862,43.2174754],[5.3582385,43.2182955],[5.3580638,43.2192996],[5.3590569,43.2204451],[5.3604779,43.2211784],[5.361321,43.2202027],[5.3613305,43.2188346],[5.3613834,43.2186589],[5.3617458,43.217455],[5.3628453,43.2182569],[5.3628649,43.2182941],[5.3634375,43.219381],[5.3646119,43.2194828],[5.3666805,43.2200517],[5.3676942,43.2203758],[5.3678971,43.2200496],[5.3671621,43.2193855],[5.3661347,43.2185945],[5.3649785,43.2181152],[5.3631716,43.2175041],[5.363521,43.2171769],[5.3635476,43.2171242],[5.3636921,43.2168386],[5.3638073,43.2164461],[5.3638048,43.2163388],[5.3639416,43.2160625],[5.3639503,43.2158006],[5.3637644,43.215644],[5.3636185,43.2154291],[5.3634,43.215158],[5.3628208,43.2149115],[5.3622886,43.2147474],[5.3617471,43.2147193],[5.3610091,43.2146755],[5.360271,43.2147879],[5.3605548,43.2146066],[5.3607359,43.214398],[5.3605386,43.2142322],[5.3604187,43.2141163],[5.3601331,43.2138152],[5.3594539,43.2131029],[5.3593404,43.2130301],[5.3584458,43.2131817],[5.3578235,43.2131933],[5.3585881,43.2128984],[5.3586481,43.2124896],[5.3582076,43.2120925],[5.3577912,43.2116984],[5.357121,43.2112061],[5.3561664,43.2108539],[5.3555721,43.2109053],[5.3543262,43.210884],[5.3534294,43.2108496],[5.3532126,43.2110154],[5.3534052,43.2119702]]},"properties":{"CLC:code":"323","CLC:id":"FR-268019","CLC:year":"2006","natural":"scrub","source":"Union européenne - SOeS, CORINE Land Cover, 2006."}},
{"type":"Feature","geometry":{"type":"LineString","coordinates":[[5.3964263,43.2196852],[5.3978309,43.218574],[5.3975434,43.2177494],[5.3974235,43.2176943],[5.3959594,43.2170212],[5.3946384,43.2166429],[5.3935574,43.2161982],[5.393653,43.2149457],[5.3923699,43.21528],[5.3906399,43.2148538],[5.3894398,43.2136976],[5.3905326,43.2128348],[5.391342,43.2125625],[5.3900994,43.212435],[5.3899707,43.2123412],[5.3909161,43.2123861],[5.3917895,43.212401],[5.3923843,43.2124393],[5.3927007,43.2124824],[5.3931153,43.2127379],[5.3935539,43.2128177],[5.3948728,43.2125472],[5.3946301,43.2123464],[5.3942679,43.2125297],[5.3938672,43.212596],[5.393717,43.2125969],[5.393384,43.212569],[5.3932613,43.2125321],[5.3932522,43.2124755],[5.3931606,43.2124181],[5.3930879,43.2123475],[5.3925862,43.212311],[5.3924332,43.2122757],[5.3920951,43.2122836],[5.3919396,43.2122497],[5.3918669,43.2122557],[5.3918157,43.2122755],[5.3916695,43.2122329],[5.391558,43.2122609],[5.391538,43.2122446],[5.3914096,43.2122155],[5.3912239,43.2122331],[5.391141,43.2122302],[5.3910521,43.2122429],[5.3909542,43.2122389],[5.3909004,43.2122273],[5.3908601,43.2122015],[5.39084,43.2121075],[5.3906229,43.2120995],[5.3905394,43.2121101],[5.3904579,43.2121673],[5.3904073,43.2121738],[5.3903141,43.2121384],[5.3901442,43.2121714],[5.3901044,43.2121646],[5.3900457,43.2121033],[5.3899699,43.2120633],[5.3899324,43.2120538],[5.3898652,43.2120837],[5.3897435,43.2121069],[5.3896707,43.2120901],[5.3896607,43.212128],[5.3895748,43.2121219],[5.3895556,43.2121263],[5.3894554,43.2121491],[5.3894425,43.2120447],[5.3893775,43.2119258],[5.3893716,43.2118954],[5.3894152,43.2117204],[5.3893847,43.2116415],[5.3893904,43.2116212],[5.3894277,43.2115883],[5.3894478,43.2115484],[5.3894789,43.2114144],[5.3894731,43.2113953],[5.3894562,43.2113862],[5.3893742,43.2114023],[5.3893488,43.2113983],[5.3892967,43.2113686],[5.3892092,43.2112423],[5.3891535,43.2112263],[5.389053,43.2112466],[5.3889975,43.2112366],[5.3888594,43.2111892],[5.3887663,43.2111784],[5.3885714,43.2112615],[5.3884996,43.211267],[5.3884046,43.2112294],[5.3883583,43.2111816],[5.3882868,43.2111307],[5.3882672,43.2110683],[5.3882268,43.2110105],[5.3882476,43.2109426],[5.3882217,43.2108626],[5.3882316,43.2108459],[5.3882861,43.2108291],[5.3882592,43.2107211],[5.3882271,43.2106938],[5.3881312,43.2106837],[5.3880408,43.2106428],[5.3880152,43.2106414],[5.387959,43.2106685],[5.3879317,43.2106329],[5.3879221,43.2105525],[5.3879022,43.2105361],[5.3878158,43.2105154],[5.3877797,43.2104764],[5.3877186,43.2104469],[5.3876665,43.2103989],[5.3874887,43.2103709],[5.3874429,43.2103893],[5.3872651,43.2105564],[5.3872086,43.2106676],[5.3871785,43.2106553],[5.3871319,43.2105675],[5.3870914,43.2105295],[5.3870068,43.2104702],[5.3868836,43.210405],[5.386727,43.2103645],[5.3865954,43.2103187],[5.3865235,43.2103366],[5.3864548,43.2103272],[5.3861323,43.210231],[5.3860755,43.2101844],[5.3859437,43.2102092],[5.3858953,43.2102417],[5.3858375,43.210362],[5.3858464,43.2104178],[5.3858185,43.210467],[5.3857892,43.2104895],[5.3856968,43.2105239],[5.3856392,43.2104951],[5.3856114,43.210462],[5.3856198,43.2103958],[5.3855628,43.2102952],[5.385522,43.2102476],[5.3854197,43.2101604],[5.3853296,43.2100501],[5.3852461,43.2100219],[5.3851259,43.2100011],[5.3850805,43.2100071],[5.3850022,43.2099881],[5.3848071,43.2099856],[5.3846708,43.2099533],[5.3846289,43.2099628],[5.384566,43.2099511],[5.3844109,43.2098744],[5.384403,43.2098398],[5.3843876,43.20983],[5.3842823,43.2098134],[5.384181,43.2098585],[5.3841064,43.2098684],[5.3838915,43.2098463],[5.3838465,43.2098658],[5.3838672,43.2099269],[5.3839052,43.2099361],[5.3839699,43.2100294],[5.3840461,43.2100684],[5.3840194,43.2101109],[5.3840814,43.2102353],[5.3840184,43.2102366],[5.3840513,43.2103079],[5.3841121,43.210364],[5.3843011,43.2104834],[5.3844093,43.21059],[5.3844448,43.2106465],[5.3844496,43.2106745],[5.384427,43.2107864],[5.3844527,43.2108213],[5.3843373,43.2108188],[5.3843894,43.2108854],[5.3843911,43.2109355],[5.3844667,43.2109876],[5.3844467,43.21108],[5.3845709,43.2111684],[5.3845944,43.2109591],[5.3852103,43.2121531],[5.3850269,43.2132879],[5.3842593,43.2141425],[5.3832351,43.2147662],[5.381589,43.214397],[5.3800209,43.2139649],[5.379203,43.21387],[5.3785221,43.2148402],[5.3790375,43.2153606],[5.3806649,43.215374],[5.3818428,43.2161139],[5.3834789,43.2163058],[5.3845904,43.2159236],[5.3855556,43.2155928],[5.3857775,43.2151695],[5.3854113,43.2144077],[5.3858014,43.2140988],[5.3868104,43.2147243],[5.3871862,43.2156656],[5.3884851,43.2156287],[5.390384,43.2161694],[5.3907566,43.2170512],[5.3895982,43.2182137],[5.39077,43.2188346],[5.3928712,43.2185961],[5.3941117,43.2189778],[5.3952852,43.2181115],[5.3964263,43.2196852]]},"properties":{"CLC:code":"332","CLC:id":"FR-268023","CLC:year":"2006","natural":"bare_rock","source":"Union européenne - SOeS, CORINE Land Cover, 2006."}},
{"type":"Feature","geometry":{"type":"LineString","coordinates":[[5.4247555,43.2065994],[5.4248659,43.2067929],[5.4249017,43.2067835],[5.4249109,43.2067449],[5.4249546,43.206713],[5.4249884,43.2066091],[5.4250932,43.2064488],[5.4251155,43.2063831],[5.4251522,43.2063481],[5.4252118,43.2063405],[5.4253047,43.2063196],[5.4253546,43.2062488],[5.4254426,43.2062701],[5.4255988,43.2062008],[5.4256308,43.2062033],[5.4256706,43.2062264],[5.4257058,43.2062411],[5.4257453,43.2062503],[5.4258018,43.20623],[5.4258769,43.2062175],[5.4259958,43.2062127],[5.4261969,43.2062751],[5.4262478,43.2062739],[5.426602,43.2061806],[5.4266461,43.2061276],[5.4266691,43.2060177],[5.426653,43.2059718],[5.4266319,43.2059393],[5.426563,43.2059379],[5.4264347,43.2059388],[5.426413,43.2059949],[5.4263578,43.2060002],[5.4262899000000008,43.2059114],[5.4262436,43.2059036],[5.4262262,43.2058708],[5.4262498,43.2058119],[5.4261848,43.2057359],[5.4261582,43.2057201],[5.4260485,43.2057149],[5.4260143,43.2057301],[5.4259841,43.2057315],[5.4259747,43.2057096],[5.4258916,43.2057144],[5.4258802,43.205711],[5.4258507,43.2057188],[5.4258104,43.2057164],[5.4257786,43.2057179],[5.4257528,43.205732],[5.4257263,43.2057337],[5.4257249,43.2057262],[5.4257437,43.2057147],[5.4257467,43.205677],[5.4257627,43.20567],[5.4257749,43.2056577],[5.4257902,43.2056491],[5.425816,43.2056217],[5.425816,43.2056114],[5.4258285,43.2055982],[5.4258133,43.2055662],[5.4258016,43.2055534],[5.4258057,43.2055463],[5.4258203,43.2055505],[5.4258259,43.2055507],[5.4258185,43.2055409],[5.425819,43.2055374],[5.4258029,43.2055288],[5.4258017,43.2055143],[5.4258244,43.2055246],[5.4258373,43.2055246],[5.4258435,43.205526],[5.4258502,43.2055224],[5.4258475,43.2055101],[5.4258327,43.205505],[5.4258294,43.2054956],[5.4258202,43.205493],[5.4258193,43.2054901],[5.4258366,43.2054906],[5.4258435,43.2054867],[5.4258507,43.2054807],[5.4258416,43.2054774],[5.4258413,43.2054727],[5.4258163,43.2054591],[5.4258012,43.2054591],[5.4257833,43.205442],[5.4257534,43.2054072],[5.4257471,43.205395],[5.4257524,43.2053887],[5.425731,43.2053701],[5.425731,43.2053425],[5.425742,43.2053229],[5.4257595,43.2053381],[5.4257925,43.2053345],[5.4258262,43.2053127],[5.4258408,43.2053191],[5.4258574,43.2053058],[5.4258782,43.2053024],[5.4259794,43.2053361],[5.426029,43.2053215],[5.4260676,43.2053139],[5.4261226,43.2052968],[5.4261393,43.2052826],[5.4261434,43.2052675],[5.4261762,43.2052455],[5.4261883,43.2052291],[5.4262128,43.2052176],[5.4262312,43.2052034],[5.426306,43.2051724],[5.426314,43.2051641],[5.4263157,43.205144],[5.4263211,43.2051326],[5.4263308,43.2051274],[5.4263496,43.2051299],[5.4263657,43.2051218],[5.4263697,43.205112],[5.4263851,43.2050998],[5.4263841,43.2050856],[5.4263958,43.2050732],[5.4264126,43.2050666],[5.426428,43.2050487],[5.4264404,43.2050258],[5.4264387,43.2050016],[5.4264703,43.2049959],[5.4264877,43.2050187],[5.4265125,43.2050187],[5.4265286,43.2050241],[5.4265762,43.2050089],[5.4265913,43.205017],[5.4266024,43.2050128],[5.4266248,43.2050182],[5.4266335,43.2050148],[5.4266416,43.2049991],[5.426663,43.2049947],[5.4266684,43.2049771],[5.4267046,43.20496],[5.4267623,43.2049461],[5.4267854,43.2049366],[5.4267935,43.2049261],[5.4268258,43.204907],[5.426819,43.2048848],[5.4268015,43.2048564],[5.4268226,43.2048329],[5.42683,43.204829],[5.4268399,43.2047994],[5.4269114,43.2047124],[5.4269861,43.2046552],[5.427046,43.2046406],[5.4270634,43.2046162],[5.4271228,43.2045882],[5.4271611,43.2045477],[5.4271584,43.2045356],[5.4271368,43.2045382],[5.4270811,43.2045192],[5.4270282,43.2044954],[5.4270037,43.2044918],[5.426946,43.2045082],[5.4269169,43.2044974],[5.4269152,43.2044832],[5.4269303,43.2044735],[5.4269792,43.2044036],[5.427,43.2043948],[5.4270275,43.2043605],[5.4269873,43.2043522],[5.4269182,43.2043674],[5.4269287,43.2043109],[5.4269344,43.2042276],[5.4269442,43.204171],[5.4270225,43.204032],[5.4271289,43.203893],[5.4271438,43.2038563],[5.4271951,43.2037924],[5.4272119,43.2037652],[5.4272287,43.203755],[5.4272735,43.2036972],[5.4273307,43.2036684],[5.4274138,43.2036208],[5.4274286,43.2036075],[5.4274303,43.2035848],[5.4274559,43.2035745],[5.427459,43.2035593],[5.4274537,43.2035489],[5.4274529,43.2035215],[5.4274343,43.2035129],[5.4274283,43.2035164],[5.4274236,43.2035344],[5.4274204,43.2035232],[5.4274118,43.2035193],[5.4273828,43.20352],[5.4273606,43.2035112],[5.4273019,43.2035309],[5.4272823,43.2035527],[5.4272459,43.2035561],[5.4272188,43.2035498],[5.4271093,43.2035959],[5.4271,43.2036204],[5.4270795,43.2036145],[5.4270478,43.2036149],[5.426977,43.203651],[5.4269685,43.2036629],[5.4269699,43.2036754],[5.4269354,43.203672],[5.4269116,43.2036775],[5.4268333,43.2037156],[5.4267793,43.2037232],[5.4267133,43.2037514],[5.4266706,43.2037806],[5.426666,43.203795],[5.4266518,43.2037931],[5.4266264,43.203808],[5.4266051,43.2038264],[5.4265492,43.2038275],[5.4265328,43.2038371],[5.4265206,43.2038378],[5.426512,43.2038306],[5.4264783,43.2038329],[5.426447,43.2038182],[5.4263323,43.2038323],[5.4262713,43.2038481],[5.4262215,43.2038784],[5.426174,43.2038621],[5.4261107,43.2038698],[5.4260862,43.2038792],[5.4260395,43.2038742],[5.4258971,43.2039226],[5.4258356,43.2039492],[5.4258255,43.2039409],[5.4258165,43.2039292],[5.4257565,43.2039243],[5.4257129,43.2039343],[5.4256948,43.2039531],[5.4256519,43.2039475],[5.4256167,43.2040076],[5.4256022,43.204003],[5.4255939,43.2039969],[5.4255757,43.2040045],[5.4255543,43.204013],[5.4255369,43.2040125],[5.4254996,43.204036],[5.4254785,43.204034],[5.425455,43.2040201],[5.425448,43.2039993],[5.4254658,43.2039739],[5.4254581,43.2039659],[5.4254396,43.2039663],[5.4254423,43.2039561],[5.4254433,43.2039527],[5.4254369,43.203935799999999],[5.4254255,43.2039314],[5.4253947,43.2039395],[5.4253863,43.2039612],[5.4253682,43.2039617],[5.4253605,43.2039864],[5.4253531,43.2039962],[5.4253434,43.2039783],[5.4253397,43.2039534],[5.4253256,43.2039451],[5.4252777,43.2039395],[5.4252281,43.2039451],[5.4251992,43.2039715],[5.4251815,43.2039729],[5.4251805,43.2039602],[5.4251617,43.2039549],[5.4251543,43.2039463],[5.4251325,43.2039448],[5.4251282,43.2039509],[5.425103,43.2039627],[5.4250916,43.2039502],[5.4250205,43.2039519],[5.4249729,43.203971],[5.4249541,43.2039783],[5.4249384,43.2039962],[5.4249132,43.2039962],[5.424864,43.2040191],[5.4248573,43.204046],[5.4248619,43.2040807],[5.4248673,43.2041069],[5.4248442,43.2041061],[5.4247941,43.2041341],[5.4247858,43.2041462],[5.4246735,43.2042186],[5.4246354,43.2042491],[5.4245834,43.2043304],[5.4244502,43.2044463],[5.4243987,43.2045208],[5.424317,43.2045776],[5.4241706,43.204595],[5.4241196,43.2045833],[5.4239929,43.204575],[5.4238503,43.2046363],[5.4238036,43.2046826],[5.4237934,43.2047475],[5.4238135,43.204791],[5.4238055,43.2049308],[5.4239037,43.2050203],[5.4239144,43.2050927],[5.4238826,43.205145],[5.4238084,43.2052057],[5.423807,43.2051826],[5.4237727,43.2051581],[5.423729,43.2051775],[5.4236657,43.2052436],[5.4236947,43.2052809],[5.4236746,43.2053004],[5.4235106,43.2053804],[5.4234638,43.2053871],[5.4233144,43.2054037],[5.4233036,43.2054131],[5.4232332,43.2054339],[5.4231926,43.2054292],[5.4231836,43.2054239],[5.4231591,43.2054266],[5.4231121,43.205417],[5.4230887,43.205417],[5.4230746,43.205409],[5.4230337,43.2054021],[5.4229894,43.2053872],[5.4229827,43.2053811],[5.4229603,43.205374],[5.4229435,43.2053647],[5.4229043,43.2053479],[5.422858,43.205322],[5.42285,43.2053198],[5.422844,43.2053082],[5.4228121,43.2052922],[5.4227705,43.2052969],[5.4227435,43.2053176],[5.4227626,43.2053744],[5.4227346,43.2053403],[5.4227006,43.2052934],[5.4226483,43.2052569],[5.4226,43.205213],[5.4225636,43.2052073],[5.4224981,43.2051581],[5.4225027,43.2051286],[5.422428,43.2050108],[5.4224071,43.2050196],[5.4224114,43.2050413],[5.4223741,43.2050354],[5.4222696,43.2050899],[5.4222921,43.2050952],[5.422243,43.2051206],[5.4222696,43.2051823],[5.4222504,43.2051784],[5.4221493,43.2051962],[5.422023,43.2052867],[5.42202,43.2053302],[5.4219601,43.2053893],[5.4218673,43.2054251],[5.4218503,43.2054516],[5.4218594,43.2054624],[5.4217082,43.2055378],[5.4215485,43.2056673],[5.4214837,43.2056818],[5.4214337,43.2057116],[5.4213996,43.2056934],[5.4213177,43.2057439],[5.4213132,43.2057655],[5.421121,43.2058624],[5.4210119,43.2059859],[5.4208743,43.2060588],[5.4206458,43.2060853],[5.4203491,43.2062784],[5.4201652,43.2064178],[5.4198955,43.2064615],[5.4198558,43.2064624],[5.4198057,43.2064383],[5.4196943,43.2064997],[5.4195954,43.2065021],[5.4195647,43.2065353],[5.4195124,43.2065436],[5.419434,43.2065394],[5.4193351,43.2065651],[5.4192191,43.2066339],[5.41916,43.2066215],[5.4190657,43.2066687],[5.4190145,43.2067225],[5.4189281,43.2067284],[5.4188883,43.2067623],[5.4188633,43.206735],[5.4188212,43.2067333],[5.4187951,43.2067582],[5.4187361,43.2067587],[5.418678,43.2067458],[5.4186609,43.2067267],[5.4186348,43.2067134],[5.4186007,43.2067358],[5.4186132,43.2067574],[5.4186087,43.2067624],[5.4185757,43.2067516],[5.4185451,43.2067896],[5.4185157,43.2068854],[5.4184373,43.2069405],[5.4184205,43.2070201],[5.4182666,43.2070395],[5.418219,43.2070884],[5.4181524,43.2070854],[5.4180944,43.207217],[5.4180035,43.2073343],[5.4177726,43.2074699],[5.4177635,43.2075195],[5.4176242,43.2075546],[5.417564,43.2074393],[5.4173905,43.2074883],[5.4172128,43.2074903],[5.4168557,43.2073383],[5.416153,43.2074638],[5.4160983,43.207499],[5.4160083,43.2074896],[5.4158972,43.2075383],[5.4157405,43.207524],[5.4155641,43.207574],[5.4154839,43.2075406],[5.4151247,43.2077127],[5.4151093,43.2077994],[5.4148661,43.2078376],[5.4147874,43.2077913],[5.4145831,43.2078484],[5.4145915,43.2078892],[5.4145075,43.2079382],[5.4140866,43.2081272],[5.4137876,43.2083217],[5.4134316,43.20847],[5.4118261,43.2091438],[5.4116052,43.2093959],[5.4112382,43.2096924],[5.4112524,43.2098479],[5.4112239,43.2099031],[5.4113751,43.2100095],[5.4115107,43.2101307],[5.4115778,43.2102907],[5.4114923,43.2103278],[5.4111336,43.210267],[5.4110277,43.2102172],[5.4109377,43.2102417],[5.4106937,43.2101986],[5.410613,43.2102035],[5.4103942,43.2103089],[5.4102463,43.2104121],[5.4101659,43.2104144],[5.4100322,43.2105641],[5.4099781,43.2105861],[5.4097254,43.210415],[5.409571,43.2104425],[5.4095132,43.2105222],[5.4095807,43.2107097],[5.4094399,43.2109065],[5.4091048,43.2108972],[5.4089536,43.2109146],[5.4088476,43.2111207],[5.4088733,43.2114409],[5.4086579,43.2116002],[5.4087845,43.2118565],[5.4087058,43.2120876],[5.4085172,43.2122076],[5.4083659,43.2119792],[5.4080284,43.2120022],[5.4079995,43.2121305],[5.4067706,43.2119505],[5.4064736,43.21197],[5.4059034,43.211894],[5.4055504,43.2120559],[5.4054424,43.2119986],[5.4052495,43.2120689],[5.4052431,43.2121252],[5.4053878,43.2121228],[5.4054682,43.2121908],[5.4054297,43.2128412],[5.4048057,43.2126564],[5.404425,43.2125503],[5.4043759,43.2127046],[5.4045416,43.213036],[5.4045312,43.2133006],[5.4042291,43.2133295],[5.4040444,43.2131867],[5.4036133,43.2131663],[5.4030983,43.2130603],[5.4027568,43.2132643],[5.4028352,43.2134519],[5.4025325,43.2134984],[5.4025067,43.2135933],[5.4026314,43.2136668],[5.4027016,43.213878],[5.4025284,43.2140216],[5.4023765,43.2139976],[5.4022499,43.214043],[5.4020598,43.2139085],[5.4018219,43.2136613],[5.4016744,43.2135762],[5.4016129,43.2134797],[5.4015807,43.2133414],[5.4014312,43.2132032],[5.4013462,43.2130603],[5.4013588,43.2130192],[5.4013942,43.2128821],[5.4012254,43.2128528],[5.4012286,43.2129705],[5.4009739,43.2131086],[5.4008227,43.2132247],[5.400776,43.2132062],[5.4005728,43.2135594],[5.4014383,43.2145463],[5.402663,43.2146305],[5.4027854,43.2153991],[5.4043568,43.2158904],[5.4055553,43.2154988],[5.4085379,43.2153519],[5.4094496,43.2153279],[5.40974,43.2146654],[5.4098015,43.2143074],[5.4091893,43.213492],[5.4088189,43.2128598],[5.4096236,43.212628],[5.4108896,43.2118372],[5.41134,43.2117689],[5.4118026,43.2116988],[5.4128052,43.2115469],[5.4134954,43.2108372],[5.4143732,43.2100717],[5.4158643,43.2090781],[5.4162295,43.2091055],[5.4181507,43.2092497],[5.4186215,43.2089002],[5.4193039,43.2087416],[5.4199864,43.2085829],[5.4210051,43.2080584],[5.4219646,43.2071131],[5.4228817,43.2064973],[5.4238629,43.2059033],[5.4248237,43.2063223],[5.4247555,43.2065994]]},"properties":{"CLC:code":"332","CLC:id":"FR-268041","CLC:year":"2006","natural":"bare_rock","source":"Union européenne - SOeS, CORINE Land Cover, 2006."}},
{"type":"Feature","geometry":{"type":"LineString","coordinates":[[5.381652,43.2097738],[5.381644,43.2097296],[5.3816434,43.2096805],[5.3816533,43.2096666],[5.3817127,43.2096852],[5.3818264,43.2097437],[5.3818556,43.2097603],[5.381893,43.2097254],[5.3819635,43.2096434],[5.3821181,43.2096359],[5.3821087,43.2095927],[5.3822028,43.2095758]]},"properties":{"natural":"coastline","source":"cadastre-dgi-fr source : Direction Générale des Impôts - Cadastre. Mise à jour : 2010"}},
{"type":"Feature","geometry":{"type":"LineString","coordinates":[[5.3805943,43.1808336],[5.3807156,43.180758],[5.3807847,43.180788],[5.3807204,43.1808496],[5.3806196,43.1808596],[5.3805943,43.1808336]]},"properties":{"natural":"coastline","place":"islet","political_division":"canton","source":"Inventaire National du Patrimoine Naturel 2010"}},
{"type":"Feature","geometry":{"type":"LineString","coordinates":[[5.3700499,43.1766468],[5.3701219,43.1765995],[5.3702716,43.1765551],[5.3704593,43.1764839],[5.3706006,43.1764407],[5.3707077,43.1765232],[5.3706717,43.1765881],[5.3705817,43.1766432],[5.3705038,43.1767679],[5.3704698,43.1768431],[5.3703899,43.1769288],[5.3702873,43.177013],[5.3702118,43.1769946],[5.3701463,43.1769017],[5.3700463,43.17682],[5.3700786,43.1767377],[5.3700499,43.1766468]]},"properties":{"alt_name":"LÉmaillade","name":"Moyade","name:oc":"Illon de la Molhada","natural":"coastline","old_name":"Mogliade","place":"islet","political_division":"canton","source":"Inventaire National du Patrimoine Naturel 2010","source:name:oc":"ieo-bdtopoc","wikidata":"Q21099785"}},
{"type":"Feature","geometry":{"type":"LineString","coordinates":[[5.3894191,43.1846693],[5.389432,43.1846907],[5.389433,43.1847176],[5.3894145,43.184733],[5.3893679,43.184755],[5.3893585,43.1847494],[5.3893448,43.1847665],[5.3892707,43.1847914],[5.3892496,43.1847851],[5.3892399,43.1847711],[5.3892419,43.1847658],[5.3892026,43.1847672],[5.3891805,43.1847707],[5.3891788,43.1847804],[5.3891581,43.184779],[5.3891507,43.184767],[5.3891507,43.1847606],[5.3891748,43.1847548],[5.3891597,43.184744],[5.3891658,43.1847345],[5.3891762,43.1847384],[5.3891802,43.1847355],[5.3891658,43.1847156],[5.3891765,43.1847083],[5.3891832,43.1847071],[5.3892094,43.1847054],[5.3892342,43.1847264],[5.3892657,43.1847147],[5.3892741,43.1847213],[5.3892757,43.1847186],[5.3892734,43.1847132],[5.3892788,43.1847017],[5.3892908,43.1846939],[5.3893047,43.1846965],[5.3893052,43.1847032],[5.389316,43.1847054],[5.3893172,43.1846962],[5.3893247,43.1847029],[5.3893301,43.1846988],[5.389327,43.1846907],[5.3893264,43.1846846],[5.3893341,43.1846868],[5.3893378,43.1846956],[5.3893572,43.1846778],[5.3893653,43.1846782],[5.3893582,43.1846682],[5.3893589,43.1846511],[5.3893808,43.184645],[5.3893928,43.1846576],[5.3894191,43.1846693]]},"properties":{"name":"Estèu de Joseph","name:oc":"Estèu de Josèp","natural":"coastline","note":"Toponyme d'après Albert","place":"islet","political_division":"canton","source":"Inventaire National du Patrimoine Naturel 2010","source:name:oc":"ieo-bdtopoc"}},
{"type":"Feature","geometry":{"type":"LineString","coordinates":[[5.3929957,43.1726962],[5.3930973,43.1727326],[5.3931083,43.172764],[5.3931368,43.1727737],[5.3931348,43.1727873],[5.3931297,43.1727929],[5.3931162,43.172794],[5.393114,43.1727997],[5.3931014,43.1728076],[5.3930799,43.1728107],[5.3930734,43.1728091],[5.3930669,43.1728005],[5.393056,43.1728028],[5.3930382,43.1728013],[5.392981,43.172766],[5.3929957,43.1726962]]},"properties":{"name":"Impérial de Terre","natural":"coastline","place":"islet","reg_name":"La Galoche","source":"Inventaire National du Patrimoine Naturel 2010"}},
{"type":"Feature","geometry":{"type":"LineString","coordinates":[[5.3946187,43.1696228],[5.3946542,43.1696314],[5.3946767,43.1696466],[5.3946921,43.16965],[5.394702,43.1696489],[5.3947256,43.1696524],[5.3947448,43.1696576],[5.3947662,43.1696643],[5.3947743,43.169662],[5.3948016,43.1696682],[5.3948101,43.169671],[5.3948214,43.1696731],[5.3948303,43.1696779],[5.3948422,43.1696753],[5.3948499,43.1696757],[5.3948566,43.1696736],[5.3949317,43.1696804],[5.3949417,43.1696898],[5.3949444,43.1696967],[5.394954,43.1697022],[5.3949619,43.1697121],[5.3949776,43.1697174],[5.3949823,43.1697235],[5.3949885,43.1697249],[5.3949979,43.1697334],[5.3949987,43.1697397],[5.3949949,43.169749],[5.3949867,43.1697548],[5.3949836,43.1697631],[5.3949759,43.1697641],[5.3949739,43.16977],[5.3949667,43.1697757],[5.3949602,43.1697836],[5.3949533,43.1697864],[5.3949597,43.1697929],[5.3949697,43.1697991],[5.3949709,43.1698044],[5.3949761,43.1698106],[5.3949613,43.1698263],[5.3949486,43.1698307],[5.3949268,43.1698348],[5.3949248,43.1698473],[5.3949076,43.1698571],[5.3948919,43.1698578],[5.3948681,43.1698529],[5.3948396,43.1698647],[5.3948084,43.169854],[5.3947847,43.1698334],[5.3947552,43.1698251],[5.394727,43.1698182],[5.3947002,43.1698207],[5.3946878,43.1698348],[5.3946881,43.1698502],[5.394678,43.1698828],[5.3946858,43.1698935],[5.394679,43.1698984],[5.394664,43.1698943],[5.3946412,43.1698811],[5.394621,43.1698718],[5.3945895,43.1698703],[5.394552,43.169863],[5.3945554,43.1698713],[5.3945618,43.1699044],[5.3945523,43.1699124],[5.3945354,43.1699321],[5.3945496,43.1699468],[5.3945741,43.1699615],[5.3945758,43.1699691],[5.3945868,43.1699762],[5.3945843,43.1700074],[5.394553,43.1700282],[5.3945211,43.1700508],[5.3945184,43.1700578],[5.394507,43.1700662],[5.3944708,43.1700627],[5.3944266,43.1700495],[5.3944229,43.170064],[5.3944145,43.1700779],[5.3943817,43.1700808],[5.3943488,43.1700671],[5.3943243,43.1700484],[5.3942941,43.1700527],[5.394264,43.1700503],[5.394216,43.1700261],[5.3941838,43.1700009],[5.394164,43.1699816],[5.3940946,43.1699484],[5.3940796,43.1699373],[5.3940601,43.169918],[5.3940363,43.1699004],[5.3940202,43.169882],[5.3940078,43.1698666],[5.3940115,43.169852],[5.3940082,43.169839],[5.3940283,43.1698248],[5.3940504,43.169795],[5.3940725,43.1697974],[5.3940933,43.1697963],[5.3941315,43.1697854],[5.3941376,43.1697864],[5.3941501,43.1697779],[5.3941785,43.169761],[5.3942033,43.169759],[5.3942241,43.1697446],[5.3942539,43.1697389],[5.3942858,43.1697427],[5.3943082,43.1697515],[5.3943434,43.169762],[5.39438,43.1697696],[5.3943884,43.169748],[5.3943879,43.1697171],[5.3944008,43.1697094],[5.3944165,43.1697072],[5.3944252,43.1696991],[5.3944417,43.1696952],[5.3944447,43.1696864],[5.3944514,43.1696779],[5.3944742,43.1696629],[5.3944916,43.1696524],[5.3945749,43.1696398],[5.3946187,43.1696228]]},"properties":{"alt_name":"Impérial du large","alt_name:oc":"L’Imperiau de Fòra","name":"Grand Impérial","natural":"coastline","old_name":"Grand Imperiau","place":"islet","source":"Inventaire National du Patrimoine Naturel 2010","source:name:oc":"ieo-bdtopoc"}},
{"type":"Feature","geometry":{"type":"LineString","coordinates":[[5.3685251,43.1778952],[5.3686248,43.1778625],[5.3687341,43.177881],[5.368778,43.1779117],[5.3688039,43.1779491],[5.3687173,43.1779618],[5.3686494,43.1780359],[5.3686035,43.1780464],[5.3685447,43.1779986],[5.3685251,43.1778952]]},"properties":{"alt_name":"L'Émailladon","name":"Moyadon","name:oc":"Illon de Molhadon","natural":"coastline","place":"islet","source":"Inventaire National du Patrimoine Naturel 2010","source:name:oc":"ieo-bdtopoc"}},
{"type":"Feature","geometry":{"type":"LineString","coordinates":[[5.4026481,43.1762164],[5.4026907,43.1762641],[5.4026771,43.1763124],[5.4024479,43.1764399],[5.4024573,43.1765007],[5.4024201,43.1765365],[5.4024573,43.1766152],[5.4024517,43.1767041],[5.4023577,43.1767467],[5.4023032,43.1767176],[5.4020259,43.1765586],[5.4017266,43.1765672],[5.4014327,43.1764557],[5.4013574,43.1763913],[5.4013013,43.1764518],[5.4012192,43.1764766],[5.4011645,43.1764616],[5.4011192,43.1765989],[5.4009315,43.1765981],[5.4007573,43.176535],[5.4007614,43.1764214],[5.4005529,43.1762807],[5.4006604,43.1761638],[5.4005355,43.1761301],[5.4004318,43.1760554],[5.4003585,43.1760655],[5.40027,43.1760205],[5.4002646,43.1759912],[5.4001361,43.1759337],[5.4000017,43.1759257],[5.3999173,43.1759863],[5.3998596,43.1759374],[5.3998715,43.1758733],[5.3999825,43.1758387],[5.4000608,43.1758621],[5.4001408,43.1758137],[5.4002065,43.1757315],[5.4003486,43.1756351],[5.4002458,43.175462],[5.4002151,43.1753225],[5.4002579,43.1753124],[5.400341,43.1753261],[5.400337,43.1752743],[5.4004903,43.1751722],[5.4006803,43.175199],[5.4007849,43.1752391],[5.4008586,43.1752314],[5.4009583,43.1752562],[5.4010022,43.175286],[5.401065,43.1752555],[5.4012026,43.1752768],[5.4012731,43.1753516],[5.4013538,43.17538],[5.4014218,43.1754345],[5.4013856,43.1755082],[5.4015917,43.1756764],[5.4019117,43.1758364],[5.4019504,43.1758294],[5.4021816,43.1758943],[5.4023964,43.1759825],[5.4024594,43.1760915],[5.4026008,43.1762298],[5.4026481,43.1762164]]},"properties":{"name":"Grand Congloué","name:oc":"Concluá Gròssa","natural":"coastline","old_name":"Grand Conclu","place":"islet","source":"Inventaire National du Patrimoine Naturel 2010","source:name:oc":"ieo-bdtopoc"}},
{"type":"Feature","geometry":{"type":"LineString","coordinates":[[5.3938081,43.1715749],[5.3937614,43.1715788],[5.3937299,43.1716008],[5.3936608,43.1715866],[5.3936152,43.1715494],[5.3936186,43.1715196],[5.3936112,43.1715098],[5.3936347,43.1714898],[5.3936581,43.1714878],[5.3936863,43.1714966],[5.3937051,43.1714815],[5.3937446,43.1714859],[5.3937413,43.171458],[5.3937587,43.1714374],[5.3938057,43.1714257],[5.3938264,43.171411],[5.3938626,43.1714546],[5.3938915,43.1714839],[5.3939612,43.1715069],[5.3939673,43.1715181],[5.3939981,43.1715245],[5.3940041,43.1715607],[5.394031,43.1715807],[5.394035,43.1716052],[5.3940162,43.1716267],[5.393978,43.1716155],[5.3939572,43.1716057],[5.3939264,43.1715983],[5.393923,43.1715827],[5.3938377,43.171561],[5.3938081,43.1715749]]},"properties":{"name":"Impérial du Milieu","name:oc":"L’Imperiau dau Mitan","natural":"coastline","old_name":"Imperial du Mitan","place":"islet","source":"Inventaire National du Patrimoine Naturel 2010","source:name:oc":"ieo-bdtopoc"}},
{"type":"Feature","geometry":{"type":"LineString","coordinates":[[5.380157,43.1805246],[5.3801971,43.1804833],[5.3802604,43.1805083],[5.380337,43.1805463],[5.3801147,43.1805484],[5.380157,43.1805246]]},"properties":{"natural":"coastline","place":"islet","political_division":"canton","source":"Inventaire National du Patrimoine Naturel 2010"}},
{"type":"Feature","geometry":{"type":"LineString","coordinates":[[5.3793599,43.1801176],[5.379293,43.1800773],[5.3790897,43.1800387],[5.3789145,43.1800272],[5.3788388,43.1799799],[5.3787945,43.1798328],[5.378629,43.179819],[5.3784722,43.1798605],[5.3783136,43.1798423],[5.3781815,43.1797935],[5.3780089,43.1798036],[5.3779001,43.1797964],[5.3777944,43.1797139],[5.3777937,43.1795933],[5.3777469,43.1794546],[5.3776435,43.1793895],[5.3775991,43.179295],[5.3775892,43.1795342],[5.3775023,43.1795944],[5.3773512,43.1796378],[5.3772535,43.1796529],[5.3770866,43.1795577],[5.3768928,43.1796467],[5.3768199,43.1795993],[5.376669,43.17962],[5.376569,43.179593],[5.376067,43.1796031],[5.3759168,43.1797206],[5.3758398,43.1796981],[5.3757727,43.1796001],[5.3755569,43.1795994],[5.3754713,43.1795437],[5.3751372,43.1795604],[5.374875,43.1795172],[5.3748886,43.1793774],[5.375077,43.1792719],[5.375098,43.1791392],[5.3749512,43.1790827],[5.3750965,43.1790042],[5.3749119,43.1789872],[5.3749221,43.1789313],[5.3750647,43.1789041],[5.3751148,43.1788269],[5.374999,43.1788259],[5.3750238,43.1787559],[5.3748927,43.1786951],[5.3749363,43.1786101],[5.374885,43.1785902],[5.3749335,43.1784614],[5.3750678,43.1783176],[5.3750495,43.1782684],[5.3748984,43.1783469],[5.3746524,43.1785903],[5.3745208,43.1786569],[5.3745176,43.1787506],[5.3744545,43.1788161],[5.3744573,43.1788968],[5.374347,43.1789904],[5.3743272,43.1790703],[5.3741428,43.1792022],[5.3740106,43.1792853],[5.373845,43.1793466],[5.3736151,43.1793923],[5.3734651,43.1795109],[5.3733617,43.1795198],[5.3733305,43.1795834],[5.3728708,43.1796855],[5.3727513,43.1796685],[5.3726389,43.1797238],[5.3724247,43.1797344],[5.372349,43.1796865],[5.3722253,43.1797005],[5.3722068,43.179663],[5.3720295,43.1796473],[5.3719601,43.1795946],[5.3718762,43.1795692],[5.3718421,43.1794948],[5.3717198,43.1794471],[5.371838,43.1793787],[5.3720584,43.179288],[5.3722065,43.1792127],[5.3722839,43.1791065],[5.3723918,43.1790426],[5.3723892,43.1789943],[5.3723481,43.1789625],[5.3723039,43.1788756],[5.372526,43.1787838],[5.3725743,43.1787232],[5.3726454,43.1786968],[5.3726109,43.1786576],[5.3726818,43.1785101],[5.3728365,43.178481],[5.3729041,43.1784297],[5.3728953,43.1783691],[5.3727964,43.1783081],[5.3728701,43.1782122],[5.3730074,43.1782001],[5.3730677,43.1780882],[5.3731995,43.1780883],[5.3731654,43.1780176],[5.3732791,43.1779328],[5.3731399,43.1778564],[5.3731174,43.1778035],[5.3731161,43.1777259],[5.3731909,43.177642],[5.3733842,43.1775786],[5.3734539,43.1775385],[5.3735428,43.1774629],[5.3734139,43.1774469],[5.3732278,43.1774687],[5.3730756,43.1774379],[5.3730177,43.1773551],[5.3728317,43.1773779],[5.3726657,43.1774075],[5.3724537,43.1774814],[5.3723976,43.1773933],[5.3723859,43.1773575],[5.3725408,43.1772532],[5.3725886,43.1771458],[5.3728223,43.1770125],[5.372947,43.1769482],[5.3732023,43.1769863],[5.3733145,43.1769512],[5.3734048,43.1769558],[5.3735145,43.1770341],[5.3736813,43.1770201],[5.3738209,43.1769461],[5.373976,43.1768428],[5.3740975,43.1767456],[5.3743388,43.1767831],[5.3745652,43.176753],[5.374695,43.176839],[5.3749207,43.1769284],[5.3751303,43.1769266],[5.3752658,43.1769866],[5.3753457,43.1770595],[5.3753915,43.1770212],[5.3754189,43.1769534],[5.3756262,43.1769084],[5.375666,43.1767559],[5.375884,43.1768053],[5.3758894,43.1767743],[5.3758397,43.1767128],[5.3758965,43.1766154],[5.3760292,43.1765426],[5.3762324,43.1763927],[5.376269,43.1762866],[5.3763692,43.1762384],[5.376566,43.1762328],[5.3766686,43.1761784],[5.376725,43.1762264],[5.376863,43.1761371],[5.376988,43.1761095],[5.3770790999999999,43.1760287],[5.3772282,43.1759884],[5.3773587,43.1758931],[5.3774545,43.175845],[5.3775035,43.1757793],[5.3776169,43.1757441],[5.3776853,43.175801],[5.3777463,43.1757988],[5.3779817,43.175722],[5.3781156,43.1757254],[5.3781691,43.1757537],[5.3781816,43.1758028],[5.3782851,43.1759235],[5.3784427,43.1758696],[5.3785288,43.1758744],[5.3786848,43.1759493],[5.3787426,43.1760053],[5.3790513,43.1759873],[5.3791768,43.1759642],[5.3795187,43.1759885],[5.3800431,43.175951],[5.3801378,43.175905],[5.3805245,43.1758714],[5.3807815,43.17586],[5.3809498,43.1759562],[5.3811134,43.1759876],[5.3812253,43.1760544],[5.3813875,43.176088],[5.3815332,43.1762342],[5.3815918,43.1762511],[5.3815923,43.17618],[5.3815482,43.1760659],[5.3814595,43.175986],[5.3814909,43.1759408],[5.3815002,43.1757438],[5.3814501,43.1756752],[5.3814202,43.1754824],[5.3814682,43.175379],[5.3814505,43.1752569],[5.3815373,43.1752215],[5.3816896,43.1752265],[5.3817763,43.1752168],[5.3817053,43.1751508],[5.3816189,43.1750873],[5.3815004,43.1750825],[5.3814172,43.1749925],[5.381387,43.1749545],[5.3813373,43.1749376],[5.3813701,43.1747287],[5.3815178,43.1747213],[5.3815905,43.1747524],[5.3816343,43.1748254],[5.3817277,43.1748322],[5.3817921,43.1748674],[5.381843,43.1748264],[5.3819947,43.1747946],[5.3821956,43.1747928],[5.3822051,43.1748293],[5.3824136,43.1748421],[5.3825484,43.1748997],[5.3826468,43.1748746],[5.3828831,43.1749227],[5.3829559,43.1748783],[5.383168,43.1748694],[5.3833208,43.1748229],[5.3834872,43.1748039],[5.3835856,43.1747982],[5.3836964,43.1747784],[5.3837072,43.1747325],[5.3837782,43.174708],[5.3838211,43.1747295],[5.3838252,43.1747745],[5.3839423,43.174711],[5.3841963,43.1745888],[5.3842839,43.1745837],[5.3843089,43.1745077],[5.3844248,43.1744639],[5.3846413,43.1744855],[5.3850134,43.1745329],[5.3850317,43.1744945],[5.3849588,43.1743647],[5.3850804,43.1743432],[5.3851824,43.1743911],[5.3853396,43.1743424],[5.3855747,43.1743312],[5.3855605,43.1743028],[5.3854074,43.1742151],[5.3854463,43.174167],[5.3856298,43.1741236],[5.3855369,43.1739815],[5.3857922,43.1739738],[5.3859066,43.1740332],[5.3859818,43.1740153],[5.3860608,43.1740704],[5.3861225,43.1739933],[5.3863234,43.1740123],[5.3864413,43.1740048],[5.3865071,43.173972],[5.3861863,43.1739214],[5.3860651,43.1739176],[5.3860072,43.1738873],[5.38592,43.1738352],[5.3857522,43.1738565],[5.3855628,43.1737887],[5.385614,43.1736914],[5.385584,43.1736573],[5.3855212,43.1736405],[5.3853577,43.1736493],[5.3850986,43.1737143],[5.3847884,43.1737036],[5.3847539,43.1736633],[5.3847586,43.1736189],[5.3848755,43.1735672],[5.3850835,43.1735345],[5.3852156,43.1734782],[5.3852775,43.1734239],[5.3854334,43.1733601],[5.385333,43.1732612],[5.3855691,43.173191],[5.3857809,43.173151],[5.3858427,43.1731204],[5.3858768,43.1730474],[5.3858851,43.1729657],[5.3857653,43.1728473],[5.385943,43.1727838],[5.3860964,43.1727836],[5.3862574,43.1727252],[5.3863475,43.1727008],[5.3863485,43.1726571],[5.3864172,43.1726128],[5.3865073,43.1726373],[5.3865406,43.1726846],[5.3865466,43.1727504],[5.3864099,43.172893],[5.3863857,43.1730572],[5.3863391,43.1730718],[5.3863967,43.1731295],[5.3865252,43.1731354],[5.3866556,43.1731569],[5.3867132,43.1731422],[5.3867468,43.1731676],[5.3868702,43.1731715],[5.3869315,43.1731547],[5.3871008,43.1732087],[5.3872054,43.1732195],[5.3872416,43.1731713],[5.3873942,43.1730249],[5.3875159,43.1730187],[5.3875903,43.1731021],[5.387692,43.1730926],[5.387754,43.1730133],[5.388206,43.1729791],[5.388445,43.1729975],[5.3885915,43.1729765],[5.3888873,43.1728351],[5.3892249,43.1727513],[5.3896364,43.1727355],[5.3898498,43.1727134],[5.3901947,43.1727754],[5.3903603,43.1728835],[5.3904724,43.1728742],[5.3909585,43.1729447],[5.3911711,43.1729593],[5.3913065,43.1729211],[5.3915238,43.1729202],[5.3916914,43.1728687],[5.391779,43.1728461],[5.3919038,43.1728546],[5.3920585,43.1728775],[5.3923718,43.1728544],[5.3924889,43.1728068],[5.3925438,43.1728599],[5.392546,43.1729546],[5.3926879,43.173002],[5.3929795,43.1730081],[5.393358,43.1730314],[5.3935078,43.1730301],[5.3936937,43.1730943],[5.3941614,43.1732061],[5.3942972,43.1732508],[5.3947263,43.1731899],[5.3950334,43.1731738],[5.3953532,43.1731172],[5.3955069,43.1731686],[5.3957506,43.1732387],[5.396225,43.1732086],[5.3966186,43.1732116],[5.3966857,43.1732351],[5.3969476,43.1731753],[5.3971074,43.1731089],[5.3971551,43.1731402],[5.3972476,43.1730966],[5.3973647,43.1730522],[5.3977059,43.1730292],[5.3977998,43.1729913],[5.3978646,43.1730095],[5.3981077,43.1731016],[5.3981424,43.1731577],[5.3981291,43.1732011],[5.3980573,43.1732092],[5.3980104,43.1732764],[5.3978551,43.1734234],[5.3981087,43.1734961],[5.3981154,43.1735728],[5.3980223,43.1737769],[5.3980278,43.1738254],[5.398115,43.1738287],[5.3981941,43.1738909],[5.3983081,43.1738459],[5.3984312,43.1738376],[5.3985933,43.1737395],[5.3986749,43.1737631],[5.3986347,43.1738734],[5.3984205,43.1741026],[5.3981675,43.1743525],[5.3980435,43.1743744],[5.3979706,43.1743755],[5.3977608,43.1745411],[5.3976072,43.1745868],[5.3974705,43.174806],[5.3972424,43.175067],[5.3971227,43.1750756],[5.3969326,43.1752176],[5.3969179,43.1752792],[5.3967328,43.1754011],[5.3966336,43.1755658],[5.3965099,43.1756886],[5.3963375,43.1758895],[5.3959937,43.1760248],[5.3953796,43.1761839],[5.3951369,43.1762249],[5.3950376,43.1762054],[5.3950057,43.1763049],[5.394794,43.1763162],[5.3946614,43.1763772],[5.3945025,43.1763795],[5.394518,43.1764547],[5.3943991,43.1765582],[5.3941628,43.1766573],[5.3940415,43.1767034],[5.393645,43.1767111],[5.3934236,43.1766494],[5.3932643,43.1766972],[5.392997,43.1767264],[5.3928419,43.1767226],[5.3927264,43.1766411],[5.3926969,43.176688],[5.3927224,43.1767487],[5.3926402,43.1767675],[5.3924066,43.176769],[5.3922775,43.1766964],[5.3922056,43.1766715],[5.392072,43.176602],[5.3919866,43.176643],[5.3920022,43.1767298],[5.3920857,43.176819],[5.3920856,43.1768861],[5.3919666,43.1769523],[5.3917791,43.1769846],[5.3916108,43.176992],[5.3914188,43.1769002],[5.3912995,43.1769384],[5.3913554,43.1770212],[5.3912472,43.1770323],[5.3910351,43.1771269],[5.3909213,43.1771927],[5.3908127,43.1772865],[5.3908434,43.177325],[5.390812,43.1773539],[5.3907563,43.1773423],[5.3906477,43.1773941],[5.390641,43.1774303],[5.3906047,43.1774457],[5.3905257,43.1774352],[5.390482,43.1775016],[5.3901769,43.177679],[5.3900581,43.1776994],[5.3899464,43.1777557],[5.3896207,43.1777692],[5.3893647,43.1778516],[5.389202,43.1778635],[5.3891039,43.1779229],[5.3888144,43.1779322],[5.3886063,43.1780164],[5.3882291,43.1781239],[5.3880641,43.1780865],[5.3879186,43.1781709],[5.3878562,43.1782812],[5.3877771,43.178286],[5.3877694,43.1783973],[5.3877033,43.1783858],[5.3876122,43.1784608],[5.3874587,43.1785126],[5.3872828,43.1785392],[5.3872307,43.1785654],[5.3871725,43.1787422],[5.3869942,43.1788842],[5.3868115,43.178942],[5.3866756,43.1791137],[5.38639,43.1792006],[5.3862782,43.1791626],[5.3862794,43.1791069],[5.3862062,43.178973],[5.3862469,43.178839],[5.3861901,43.1786696],[5.3862073,43.1784801],[5.386414,43.1783645],[5.3863707,43.1783452],[5.3862508,43.1783671],[5.3859946,43.1784295],[5.3858694,43.1784807],[5.3857658,43.1786276],[5.3855859,43.1786585],[5.3854192,43.1787796],[5.3853006,43.1788788],[5.3852166,43.1788884],[5.3851022,43.1788545],[5.3849637,43.1787379],[5.3849681,43.1786338],[5.38493,43.1785535],[5.3847349,43.1787228],[5.3846075,43.1786821],[5.3843184,43.178646],[5.3839327,43.1785921],[5.3838448,43.1786819],[5.3837864,43.178792],[5.3838918,43.1789095],[5.3839808,43.1789956],[5.3841572,43.1790843],[5.3842879,43.1791867],[5.3843719,43.17931],[5.3844626,43.1793971],[5.3844994,43.1794942],[5.3844157,43.1795261],[5.3842698,43.179551],[5.384126,43.1795034],[5.3841197,43.1794149],[5.3840036,43.1793204],[5.3838805,43.1792435],[5.3839085,43.1791691],[5.3838532,43.1791206],[5.3837598,43.1790958],[5.3835467,43.179098],[5.3834789,43.1791921],[5.3834226,43.1792998],[5.3833447,43.17937],[5.383237,43.1793834],[5.3830772,43.1794219],[5.3828109,43.1794639],[5.3826174,43.1795502],[5.3824983,43.1795475],[5.3822111,43.1795189],[5.3822017,43.1796095],[5.3820984,43.1797834],[5.3818648,43.1796894],[5.3819607,43.1795299],[5.3817299,43.1796608],[5.381665,43.1796744],[5.3815362,43.1797188],[5.3816025,43.1797873],[5.3814209,43.1798997],[5.3816473,43.179952],[5.381748,43.1800787],[5.3816907,43.1801401],[5.3815074,43.1801875],[5.3813567,43.1802114],[5.3812333,43.1802736],[5.3811567,43.1802892],[5.3810916,43.1803631],[5.3812417,43.180432],[5.3812358,43.1804816],[5.3810289,43.1806142],[5.3808566,43.1807623],[5.3807583,43.1807136],[5.3805402,43.1807949],[5.3804475,43.1806433],[5.3805335,43.1805901],[5.3805549,43.1804875],[5.3803566,43.1804852],[5.3803573,43.1803759],[5.3802048,43.1802821],[5.3801419,43.1802654],[5.3798574,43.1801835],[5.3798611,43.1801668],[5.3798866,43.1800518],[5.3797564,43.1801078],[5.3796077,43.1801724],[5.3795092,43.1801598],[5.3793599,43.1801176]]},"properties":{"name":"Riou","name:oc":"Riu","natural":"coastline","place":"island","political_division":"canton","source":"Inventaire National du Patrimoine Naturel 2010","source:name:oc":"ieo-bdtopoc","wikidata":"Q3593407","wikipedia":"fr:Île de Riou"}},
{"type":"Feature","geometry":{"type":"LineString","coordinates":[[5.380191,43.1807667],[5.3802842,43.1807188],[5.380372,43.1807564],[5.3803858,43.1808045],[5.380293,43.1808854],[5.3802019,43.1808663],[5.380191,43.1807667]]},"properties":{"natural":"coastline","place":"islet","source":"Inventaire National du Patrimoine Naturel 2010"}},
{"type":"Feature","geometry":{"type":"LineString","coordinates":[[5.382468,43.1904968],[5.3823394,43.1903962],[5.3822389,43.1904125],[5.3820938,43.1905165],[5.3819753,43.1905116],[5.3819331,43.1904335],[5.3820025,43.1903347],[5.382111,43.1902843],[5.3820849,43.190216],[5.3818934,43.190242],[5.3817054,43.190201],[5.3814021,43.1902168],[5.3813307,43.1901447],[5.3812915,43.1899346],[5.3812661,43.189721],[5.3813749,43.1896757],[5.3815419,43.1895865],[5.3815611,43.1894974],[5.3814788,43.1895121],[5.3813389,43.1895552],[5.3813648,43.1894844],[5.3815637,43.1893325],[5.3816871,43.1892981],[5.3818324,43.189329],[5.381812,43.1892636],[5.3816113,43.1892219],[5.3817131,43.1890697],[5.3819616,43.1889514],[5.3820192,43.1888694],[5.3823582,43.188731],[5.3825779,43.1886259],[5.3828107,43.1885832],[5.3829782,43.1885548],[5.3831885,43.1885911],[5.3832297,43.1885456],[5.3831625,43.1882076],[5.3831615,43.1880562],[5.383245,43.1878519],[5.3833653,43.18773],[5.3834897,43.1877131],[5.3835519,43.1876114],[5.3834579,43.1875656],[5.3835589,43.1874247],[5.3837398,43.1873588],[5.3839499,43.1872056],[5.384162,43.1871439],[5.3842748,43.1870943],[5.3845398,43.187126],[5.384586,43.1872277],[5.3846493,43.1872001],[5.3847228,43.1870724],[5.3850323,43.1870162],[5.3851485,43.1868707],[5.3852637,43.1868129],[5.3853701,43.1867223],[5.3855301,43.1867672],[5.3856828,43.1867258],[5.3859542,43.1867201],[5.3862104,43.1866397],[5.3863351,43.1864971],[5.3865184,43.1863951],[5.3866375,43.1862001],[5.3867733,43.1861859],[5.3868326,43.186108],[5.3870204,43.1860666],[5.3870398,43.1859538],[5.3873977,43.1859601],[5.3874532,43.1858915],[5.3876847,43.1859035],[5.3876627,43.1857816],[5.3880841,43.1857634],[5.3881348,43.1856579],[5.3883513,43.1855735],[5.3885116,43.1855432],[5.3885765,43.1854651],[5.3886792,43.1854117],[5.3887918,43.1854384],[5.3890035,43.1853417],[5.3891921,43.1853683],[5.3892798,43.1854544],[5.3892856,43.1855634],[5.3894769,43.1856939],[5.3896676,43.185706],[5.3897441,43.1857945],[5.3900078,43.1857499],[5.3902528,43.1858563],[5.390427,43.1858503],[5.3905352,43.1859523],[5.3905414,43.1860417],[5.3905034,43.1861232],[5.3903214,43.1861417],[5.3902875,43.1862982],[5.3904292,43.1862097],[5.3905475,43.1861569],[5.3906855,43.1861056],[5.390852,43.1860865],[5.3909318,43.1860244],[5.3911348,43.186029],[5.3911941,43.186087],[5.391584,43.1861388],[5.3916325,43.1862559],[5.3915729,43.1863801],[5.3911623,43.1865484],[5.3909312,43.1865694],[5.3906331,43.1866036],[5.390539,43.1866331],[5.3901992,43.18665],[5.3900589,43.1867116],[5.3897366,43.1867404],[5.3895003,43.1869037],[5.3893557,43.187017],[5.3895069,43.187161],[5.3894211,43.187215],[5.3893258,43.1871703],[5.3891941,43.1871555],[5.3888655,43.187171],[5.3886699,43.187226],[5.3883934,43.1872421],[5.3883194,43.1873318],[5.3880691,43.1874697],[5.3877473,43.187482],[5.3876889,43.1876289],[5.3873196,43.1878845],[5.387289,43.1881048],[5.3871974,43.1881816],[5.3870635,43.1883914],[5.3868857,43.1884099],[5.3867287,43.18837],[5.3865707,43.1882849],[5.3863284,43.1882245],[5.3863095,43.1881261],[5.3860241,43.1881218],[5.385826,43.1881139],[5.3857495,43.1881996],[5.3855972,43.1881877],[5.3854993,43.1881094],[5.3852273,43.1882017],[5.3851073,43.1881925],[5.385077,43.1881512],[5.3849948,43.1881422],[5.3849188,43.1882154],[5.3848569,43.1881241],[5.3848006,43.1881241],[5.3847425,43.1880492],[5.3845434,43.1881865],[5.3844676,43.1881157],[5.3843781,43.188099],[5.384322,43.1882443],[5.3844325,43.1884085],[5.3843579,43.1885069],[5.3843473,43.1886052],[5.384447,43.1887182],[5.3844558,43.1887971],[5.3846162,43.1888606],[5.3848021,43.1888873],[5.3849762,43.1889864],[5.3850471,43.1888551],[5.3852175,43.1888386],[5.3852759,43.1888774],[5.3852325,43.1889406],[5.3852972,43.1889672],[5.3853438,43.1890524],[5.3853225,43.1891751],[5.3851827,43.1892432],[5.3850776,43.1892222],[5.3850733,43.1894047],[5.3848671,43.1894683],[5.3850069,43.1895259],[5.3849434,43.1895761],[5.3849431,43.1896767],[5.3847813,43.1897439],[5.3846361,43.1898189],[5.3845443,43.1898777],[5.3841858,43.1899386],[5.3840986,43.1898557],[5.3839828,43.1900584],[5.3838134,43.1901372],[5.3835965,43.1901892],[5.3833684,43.190366],[5.3831997,43.1903451],[5.3830732,43.1903777],[5.3828323,43.1903857],[5.3825654,43.1904968],[5.382468,43.1904968]]},"properties":{"alt_name":"Île Calsereigne","name":"Île Plane","name:oc":"Illa de Cala Serena","natural":"coastline","note":"the alt_name could also be written \"Calseraigne\" (althought it means \"calanque sereine\")","place":"islet","political_division":"canton","source":"Inventaire National du Patrimoine Naturel 2010","source:name:oc":"ieo-bdtopoc","wikidata":"Q3593035","wikipedia":"fr:Île Calseraigne"}},
{"type":"Feature","geometry":{"type":"LineString","coordinates":[[5.396449,43.1786846],[5.3964751,43.1786914],[5.3965435,43.1787012],[5.3965529,43.1787178],[5.3966783,43.1787218],[5.3967346,43.1787266],[5.3967568,43.1787511],[5.3967474,43.1787702],[5.396689,43.1787765],[5.396677,43.1787971],[5.3966106,43.178824],[5.3965583,43.1788552],[5.3965268,43.1788953],[5.3964905,43.1789574],[5.3964845,43.1789912],[5.3964698,43.1790137],[5.396459,43.179042],[5.3964329,43.1790709],[5.3963672,43.1791046],[5.3963216,43.179109],[5.3961935,43.1791442],[5.3960896,43.1791633],[5.3959823,43.1791716],[5.3959005,43.1791614],[5.3958495,43.1791706],[5.3957536,43.1791956],[5.3957409,43.1792034],[5.3956731,43.1792083],[5.395535,43.1792239],[5.3954782,43.179206],[5.3953687,43.1791389],[5.3953754,43.1791139],[5.3954706,43.1790484],[5.3955249,43.1790279],[5.3955819,43.1790156],[5.3956242,43.1790205],[5.3956597,43.1790147],[5.3957777,43.1790098],[5.395704,43.1789736],[5.3956953,43.178957],[5.3956663,43.1789374],[5.3956725,43.1788645],[5.3956617,43.1788337],[5.3956718,43.1788284],[5.395712,43.1788293],[5.3957362,43.178824],[5.3957429,43.1788064],[5.3957777,43.1787819],[5.3958374,43.178757],[5.3958944,43.1787526],[5.3959085,43.1787452],[5.3959293,43.1787413],[5.395938,43.1787462],[5.3959648,43.1787379],[5.3959689,43.178731],[5.3960091,43.1787222],[5.3960292,43.1787286],[5.3960768,43.1787169],[5.3961251,43.1787193],[5.3961461,43.1787247],[5.3963498,43.178685],[5.396449,43.1786846]]},"properties":{"name":"Petit Congloué","name:oc":"Concluá Pichona","natural":"coastline","old_name":"Petit Conclu","place":"islet","source":"Inventaire National du Patrimoine Naturel 2010","source:name:oc":"ieo-bdtopoc","wikidata":"Q21099804"}},