{"type":"FeatureCollection","features":[
{"type":"Feature","geometry":{"type":"Point","coordinates":[-0.050621,43.0968661]},"properties":{"source":"cadastre-dgi-fr source : Direction Générale des Impôts - Cadastre ; mise à jour : 2009"}},
{"type":"Feature","geometry":{"type":"Point","coordinates":[-0.0527687,43.0952148]},"properties":{"source":"cadastre-dgi-fr source : Direction Générale des Impôts - Cadastre. Mise à jour : 2009"}},
{"type":"Feature","geometry":{"type":"Point","coordinates":[-0.0530667,43.0941456]},"properties":{"source":"cadastre-dgi-fr source : Direction Générale des Impôts - Cadastre. Mise à jour : 2009"}},
{"type":"Feature","geometry":{"type":"Point","coordinates":[-0.0539574,43.0890986]},"properties":{"source":"cadastre-dgi-fr source : Direction Générale des Impôts - Cadastre. Mise à jour : 2009"}},
{"type":"Feature","geometry":{"type":"Point","coordinates":[-0.049611,43.0809985]},"properties":{"source":"cadastre-dgi-fr source : Direction Générale des Impôts - Cadastre. Mise à jour : 2009"}},
{"type":"Feature","geometry":{"type":"Point","coordinates":[-0.0506553,43.0963468]},"properties":{"source":"cadastre-dgi-fr source : Direction Générale des Impôts - Cadastre. Mise à jour : 2009"}},
{"type":"Feature","geometry":{"type":"Point","coordinates":[-0.0553401,43.0973014]},"properties":{"information":"office","internet_access":"wlan","internet_access:fee":"no","level":"0","name":"Centre d'information","opening_hours":"09:00-12:00, 13:30-17:30","tourism":"information","wheelchair":"yes"}},
{"type":"Feature","geometry":{"type":"Point","coordinates":[-0.0571649,43.098151]},"properties":{"information":"map","tourism":"information"}},
{"type":"Feature","geometry":{"type":"Point","coordinates":[-0.0554996,43.0976932]},"properties":{"historic":"memorial","memorial":"statue","name":"Vierge Couronnée","name:hu":"Megkoronázott Szűz Mária","source":"cadastre-dgi-fr source : Direction Générale des Impôts - Cadastre. Mise à jour : 2009"}},
{"type":"Feature","geometry":{"type":"Point","coordinates":[-0.0504975,43.0963093]},"properties":{"source":"cadastre-dgi-fr source : Direction Générale des Impôts - Cadastre ; mise à jour : 2009"}},
{"type":"Feature","geometry":{"type":"Point","coordinates":[-0.0515952,43.0981562]},"properties":{"check_date":"2021-07-02","information":"map","tourism":"information"}},
{"type":"Feature","geometry":{"type":"Point","coordinates":[-0.0557843,43.0994304]},"properties":{"check_date":"2024-07-12","information":"office","name":"Accueil Notre-Dame","source":"cadastre-dgi-fr source : Direction Générale des Impôts - Cadastre ; mise à jour : 2009","tourism":"information"}},
{"type":"Feature","geometry":{"type":"Point","coordinates":[-0.0503393,43.0978751]},"properties":{"amenity":"restaurant","name":"Hôtel Marquette","tourism":"hotel"}},
{"type":"Feature","geometry":{"type":"Point","coordinates":[-0.0525203,43.0979945]},"properties":{"historic":"wayside_cross","name":"Croix des Bretons","name:hu":"Breton kereszt"}},
{"type":"Feature","geometry":{"type":"Point","coordinates":[-0.0416237,43.069404]},"properties":{"source":"cadastre-dgi-fr source : Direction Générale des Impôts - Cadastre ; mise à jour : 2009"}},
{"type":"Feature","geometry":{"type":"Point","coordinates":[-0.0406911,43.0684394]},"properties":{"source":"cadastre-dgi-fr source : Direction Générale des Impôts - Cadastre ; mise à jour : 2009"}},
{"type":"Feature","geometry":{"type":"Point","coordinates":[-0.0408999,43.0688041]},"properties":{"source":"cadastre-dgi-fr source : Direction Générale des Impôts - Cadastre ; mise à jour : 2009"}},
{"type":"Feature","geometry":{"type":"Point","coordinates":[-0.0417072,43.0702663]},"properties":{"source":"cadastre-dgi-fr source : Direction Générale des Impôts - Cadastre ; mise à jour : 2009"}},
{"type":"Feature","geometry":{"type":"Point","coordinates":[-0.0406407,43.0722221]},"properties":{"source":"cadastre-dgi-fr source : Direction Générale des Impôts - Cadastre ; mise à jour : 2009"}},
{"type":"Feature","geometry":{"type":"Point","coordinates":[-0.0409169,43.0718674]},"properties":{"source":"cadastre-dgi-fr source : Direction Générale des Impôts - Cadastre ; mise à jour : 2009"}},
{"type":"Feature","geometry":{"type":"Point","coordinates":[-0.0447897,43.0840702]},"properties":{"source":"cadastre-dgi-fr source : Direction Générale des Impôts - Cadastre ; mise à jour : 2009"}},
{"type":"Feature","geometry":{"type":"Point","coordinates":[-0.0310102,43.0800593]},"properties":{"ele":"950","name":"Pic du Grand Jer","natural":"peak","source":"cadastre-dgi-fr source : Direction Générale des Impôts - Cadastre ; mise à jour : 2009"}},
{"type":"Feature","geometry":{"type":"Point","coordinates":[-0.0329331,43.0804447]},"properties":{"source":"cadastre-dgi-fr source : Direction Générale des Impôts - Cadastre ; mise à jour : 2009"}},
{"type":"Feature","geometry":{"type":"Point","coordinates":[-0.0328912,43.080512]},"properties":{"source":"cadastre-dgi-fr source : Direction Générale des Impôts - Cadastre ; mise à jour : 2009"}},
{"type":"Feature","geometry":{"type":"Point","coordinates":[-0.0327503,43.0804652]},"properties":{"source":"cadastre-dgi-fr source : Direction Générale des Impôts - Cadastre ; mise à jour : 2009"}},
{"type":"Feature","geometry":{"type":"Point","coordinates":[-0.0327254,43.0805051]},"properties":{"source":"cadastre-dgi-fr source : Direction Générale des Impôts - Cadastre ; mise à jour : 2009"}},
{"type":"Feature","geometry":{"type":"Point","coordinates":[-0.032622,43.0804707]},"properties":{"source":"cadastre-dgi-fr source : Direction Générale des Impôts - Cadastre ; mise à jour : 2009"}},
{"type":"Feature","geometry":{"type":"Point","coordinates":[-0.0327097,43.08033]},"properties":{"source":"cadastre-dgi-fr source : Direction Générale des Impôts - Cadastre ; mise à jour : 2009"}},
{"type":"Feature","geometry":{"type":"Point","coordinates":[-0.0328181,43.0803661]},"properties":{"source":"cadastre-dgi-fr source : Direction Générale des Impôts - Cadastre ; mise à jour : 2009"}},
{"type":"Feature","geometry":{"type":"Point","coordinates":[-0.0327972,43.0803995]},"properties":{"source":"cadastre-dgi-fr source : Direction Générale des Impôts - Cadastre ; mise à jour : 2009"}},
{"type":"Feature","geometry":{"type":"Point","coordinates":[-0.0680737,43.0859906]},"properties":{"ele":"792","name":"Béout","natural":"peak"}},
{"type":"Feature","geometry":{"type":"Point","coordinates":[-0.0605708,43.0830866]},"properties":{"ele":"719","natural":"peak"}},
{"type":"Feature","geometry":{"type":"Point","coordinates":[-0.0603423,43.0960527]},"properties":{"name":"Espélugues","natural":"cave_entrance"}},
{"type":"Feature","geometry":{"type":"Point","coordinates":[-0.0779542,43.0586301]},"properties":{"ele":"1128","name":"Mail d'Arréou","natural":"peak"}},
{"type":"Feature","geometry":{"type":"Point","coordinates":[-0.0333303,43.0900792]},"properties":{"ele":"709","name":"Petit Jer","natural":"peak"}},
{"type":"Feature","geometry":{"type":"Point","coordinates":[-0.0694036,43.0920882]},"properties":{"ele":"631","name":"Turoum Esplat","natural":"peak"}},
{"type":"Feature","geometry":{"type":"Point","coordinates":[-0.0765557,43.0939611]},"properties":{"name":"Grottes du Roy","natural":"cave_entrance","source":"Synclinal65 (French cave database by CDSC65)"}},
{"type":"Feature","geometry":{"type":"Point","coordinates":[-0.0672976,43.0963172]},"properties":{"name":"Grotte du Loup","natural":"cave_entrance","source":"Synclinal65 (French cave database by CDSC65)"}},
{"type":"Feature","geometry":{"type":"Point","coordinates":[-0.0324713,43.0802552]},"properties":{"name":"Grotte du Pic de Jer (entrée)","natural":"cave_entrance","source":"Synclinal65 (French cave database by CDSC65)"}},
{"type":"Feature","geometry":{"type":"Point","coordinates":[-0.0601535,43.0971557]},"properties":{"natural":"tree","source":"cadastre-dgi-fr source : Direction Générale des Impôts - Cadastre. Mise à jour : 2010"}},
{"type":"Feature","geometry":{"type":"Point","coordinates":[-0.0532534,43.1001659]},"properties":{"historic":"wayside_cross","source":"cadastre-dgi-fr source : Direction Générale des Impôts - Cadastre. Mise à jour : 2010"}},
{"type":"Feature","geometry":{"type":"Point","coordinates":[-0.0319365,43.0784197]},"properties":{"name":"Grotte du Pic de Ger (sortie)","natural":"cave_entrance","wheelchair":"limited"}},
{"type":"Feature","geometry":{"type":"Point","coordinates":[-0.0488606,43.0982444]},"properties":{"contact:website":"https://www.lourdes-infotourisme.com/web/FR/75-la-maison-natale.php","name":"Moulin de Boly","name:hu":"Boly malom","opening_hours":"15:00-17:00","source":"cadastre-dgi-fr source : Direction Générale des Impôts - Cadastre. Mise à jour : 2010","tourism":"museum"}},
{"type":"Feature","geometry":{"type":"Point","coordinates":[-0.0467977,43.0931842]},"properties":{"addr:city":"LOURDES","addr:postcode":"65100","addr:street":"Place Champ Commun","information":"office","name":"Office du Tourisme","source":"cadastre-dgi-fr source : Direction Générale des Impôts - Cadastre. Mise à jour : 2010","tourism":"information"}},
{"type":"Feature","geometry":{"type":"Point","coordinates":[-0.0559209,43.0953909]},"properties":{"addr:housenumber":"16","addr:street":"Avenue Monseigneur Schoeffer","source":"cadastre-dgi-fr source : Direction Générale des Finances Publiques - Cadastre. Mise à jour : 2017"}},
{"type":"Feature","geometry":{"type":"Point","coordinates":[-0.0780199,43.0711408]},"properties":{"historic":"wayside_cross"}},
{"type":"Feature","geometry":{"type":"Point","coordinates":[-0.0796995,43.0577945]},"properties":{"ele":"1088","mountain_pass":"yes","name":"Col d'Oustu","natural":"saddle"}},
{"type":"Feature","geometry":{"type":"Point","coordinates":[-0.0774195,43.080416]},"properties":{"name":"Perte de Trame-Bernède","natural":"cave_entrance"}},
{"type":"Feature","geometry":{"type":"Point","coordinates":[-0.0595867,43.0927874]},"properties":{"name":"Village des Jeunes","tourism":"hostel"}},
{"type":"Feature","geometry":{"type":"Point","coordinates":[-0.0734605,43.0873467]},"properties":{"historic":"wayside_cross","name":"Croix de Puyo"}},
{"type":"Feature","geometry":{"type":"Point","coordinates":[-0.04782,43.0963476]},"properties":{"addr:housenumber":"11"}},
{"type":"Feature","geometry":{"type":"Point","coordinates":[-0.0491933,43.0918939]},"properties":{"access":"no","name":"Grottes des Sarrazins","natural":"cave_entrance"}},
{"type":"Feature","geometry":{"type":"Point","coordinates":[-0.0330436,43.0522164]},"properties":{"name":"Tute du Loup","natural":"cave_entrance"}},
{"type":"Feature","geometry":{"type":"Point","coordinates":[-0.0777648,43.0762259]},"properties":{"historic":"wayside_cross","name":"Croix de Lane"}},
{"type":"Feature","geometry":{"type":"Point","coordinates":[-0.0809774,43.0751442]},"properties":{"historic":"wayside_cross","name":"Croix du Clot"}},
{"type":"Feature","geometry":{"type":"Point","coordinates":[-0.0811877,43.0760294]},"properties":{"historic":"memorial","name":"Monument aux morts"}},
{"type":"Feature","geometry":{"type":"Point","coordinates":[-0.0628848,43.0820974]},"properties":{"access":"no","fee":"no","name":"Entrée du gouffre du Béout","natural":"cave_entrance"}},
{"type":"Feature","geometry":{"type":"Point","coordinates":[-0.0477534,43.0628688]},"properties":{"denomination":"catholic","historic":"wayside_cross","religion":"christian","source":"cadastre raster"}},
{"type":"Feature","geometry":{"type":"Point","coordinates":[-0.075913,43.0696966]},"properties":{"historic":"memorial","memorial":"war_memorial","name":"Monument aux Morts","source":"cadastre_raster"}},
{"type":"Feature","geometry":{"type":"Point","coordinates":[-0.0668924,43.0693564]},"properties":{"denomination":"catholic","historic":"wayside_cross","religion":"christian","source":"cadastre-dgi-fr source : Direction Générale des Impôts - Cadastre. Mise à jour : 2012"}},
{"type":"Feature","geometry":{"type":"Point","coordinates":[-0.0564937,43.0971416]},"properties":{"colour":"white","historic":"memorial","material":"stone","memorial":"statue","name":"Saint Joachim","name:hu":"Szent Joachim"}},
{"type":"Feature","geometry":{"type":"Point","coordinates":[-0.0568672,43.0972109]},"properties":{"colour":"white","historic":"memorial","material":"stone","memorial":"statue","name":"Saint Bernard","name:hu":"Clairvaux-i Szent Bernát"}},
{"type":"Feature","geometry":{"type":"Point","coordinates":[-0.0561772,43.0972422]},"properties":{"colour":"white","historic":"memorial","material":"stone","memorial":"statue","name":"Saint Vincent de Paul","name:hu":"Páli Szent Vince"}},
{"type":"Feature","geometry":{"type":"Point","coordinates":[-0.0559838,43.0974432]},"properties":{"colour":"white","historic":"memorial","material":"stone","memorial":"statue","name":"Saint Rémi","name:hu":"Szent Remigius"}},
{"type":"Feature","geometry":{"type":"Point","coordinates":[-0.057003,43.0978836]},"properties":{"colour":"white","historic":"memorial","material":"stone","memorial":"statue","name":"Saint Hyacinthe","name:hu":"Lengyelországi Szent Jácint"}},
{"type":"Feature","geometry":{"type":"Point","coordinates":[-0.0563161,43.0979911]},"properties":{"colour":"white","historic":"memorial","material":"stone","memorial":"statue","name":"Saint Louis-Marie Grignion de Montfort","name:hu":"Grignion Szent Lajos"}},
{"type":"Feature","geometry":{"type":"Point","coordinates":[-0.0520281,43.0981654]},"properties":{"camera:mount":"pole","camera:type":"fixed","man_made":"surveillance","surveillance":"public","surveillance:type":"camera","surveillance:zone":"town"}},
{"type":"Feature","geometry":{"type":"Point","coordinates":[-0.0428961,43.052269]},"properties":{"denomination":"catholic","historic":"wayside_cross","religion":"christian"}},
{"type":"Feature","geometry":{"type":"Point","coordinates":[-0.0808071,43.0518552]},"properties":{"ele":"1349","name":"Pic du Pibeste","natural":"peak"}},
{"type":"Feature","geometry":{"type":"Point","coordinates":[-0.0611599,43.0956442]},"properties":{"name":"Spuguettes de Milhas","natural":"cave_entrance"}},
{"type":"Feature","geometry":{"type":"Point","coordinates":[-0.055057,43.0982259]},"properties":{"colour":"white","historic":"memorial","material":"stone","memorial":"statue","name":"Sainte-Bernadette","name:hr":"Sveta Bernardica","name:hu":"Szent Bernadett","wheelchair":"yes"}},
{"type":"Feature","geometry":{"type":"Point","coordinates":[-0.0808701,43.0968877]},"properties":{"tourism":"picnic_site"}},
{"type":"Feature","geometry":{"type":"Point","coordinates":[-0.0383283,43.0495277]},"properties":{"description":"Petite chute d'eau","natural":"spring","waterway":"waterfall"}},
{"type":"Feature","geometry":{"type":"Point","coordinates":[-0.059594,43.0976509]},"properties":{"natural":"tree"}},
{"type":"Feature","geometry":{"type":"Point","coordinates":[-0.0594775,43.0976568]},"properties":{"natural":"tree"}},
{"type":"Feature","geometry":{"type":"Point","coordinates":[-0.0593109,43.0976932]},"properties":{"natural":"tree"}},
{"type":"Feature","geometry":{"type":"Point","coordinates":[-0.0593969,43.0976576]},"properties":{"natural":"tree"}},
{"type":"Feature","geometry":{"type":"Point","coordinates":[-0.0592378,43.0976512]},"properties":{"natural":"tree"}},
{"type":"Feature","geometry":{"type":"Point","coordinates":[-0.0589653,43.0976755]},"properties":{"natural":"tree"}},
{"type":"Feature","geometry":{"type":"Point","coordinates":[-0.0589262,43.0976728]},"properties":{"natural":"tree"}},
{"type":"Feature","geometry":{"type":"Point","coordinates":[-0.0466334,43.0931824]},"properties":{"historic":"memorial","name":"Monument Maréchal Foch"}},
{"type":"Feature","geometry":{"type":"Point","coordinates":[-0.0464089,43.0963122]},"properties":{"historic":"memorial","memorial":"war_memorial","name":"Monument aux Morts"}},
{"type":"Feature","geometry":{"type":"Point","coordinates":[-0.0239426,43.0927485]},"properties":{"historic":"wayside_cross"}},
{"type":"Feature","geometry":{"type":"Point","coordinates":[-0.0630136,43.0828745]},"properties":{"name":"Gouffre du Béout","natural":"cave_entrance"}},
{"type":"Feature","geometry":{"type":"Point","coordinates":[-0.0385122,43.0535918]},"properties":{"name":"Panaroma sur la Vallée du Gave de Pau","tourism":"viewpoint"}},
{"type":"Feature","geometry":{"type":"Point","coordinates":[-0.0384371,43.0536476]},"properties":{"denomination":"catholic","historic":"wayside_shrine","name":"Notre Dame de la Baraillette - Statue de la Vierge","religion":"christian"}},
{"type":"Feature","geometry":{"type":"Point","coordinates":[-0.0796165,43.0751261]},"properties":{"name":"Gite rural du Montaigu","tourism":"guest_house"}},
{"type":"Feature","geometry":{"type":"Point","coordinates":[-0.0674148,43.096359]},"properties":{"name":"Spuguettes du Loup","natural":"cave_entrance","source":"Synclinal65 (French cave database by CDSC65)"}},
{"type":"Feature","geometry":{"type":"Point","coordinates":[-0.0554208,43.0926152]},"properties":{"entrance":"yes"}},
{"type":"Feature","geometry":{"type":"Point","coordinates":[-0.0542614,43.0938177]},"properties":{"entrance":"yes"}},
{"type":"Feature","geometry":{"type":"Point","coordinates":[-0.0544194,43.0963957]},"properties":{"entrance":"yes"}},
{"type":"Feature","geometry":{"type":"Point","coordinates":[-0.0540381,43.0964161]},"properties":{"entrance":"yes"}},
{"type":"Feature","geometry":{"type":"Point","coordinates":[-0.0566618,43.0980255]},"properties":{"colour":"white","historic":"memorial","material":"stone","memorial":"statue","name":"Sainte Anne","name:hu":"Szent Anna"}},
{"type":"Feature","geometry":{"type":"Point","coordinates":[-0.0605099,43.0953376]},"properties":{"historic":"memorial","memorial":"statue","name":"Station:14","name:hu":"XIV. stáció"}},
{"type":"Feature","geometry":{"type":"Point","coordinates":[-0.0597477,43.0955946]},"properties":{"historic":"memorial","memorial":"statue","name":"Station:12","name:hu":"XII. stáció"}},
{"type":"Feature","geometry":{"type":"Point","coordinates":[-0.0600089,43.0957921]},"properties":{"historic":"memorial","memorial":"statue","name":"Station:13","name:hu":"XIII. stáció"}},
{"type":"Feature","geometry":{"type":"Point","coordinates":[-0.0384044,43.0615472]},"properties":{"historic":"memorial","memorial":"war_memorial"}},
{"type":"Feature","geometry":{"type":"Point","coordinates":[-0.0467007,43.0628183]},"properties":{"denomination":"catholic","historic":"wayside_cross","religion":"christian"}},
{"type":"Feature","geometry":{"type":"Point","coordinates":[-0.0671249,43.0707196]},"properties":{"natural":"tree"}},
{"type":"Feature","geometry":{"type":"Point","coordinates":[-0.0668854,43.0708071]},"properties":{"natural":"tree"}},
{"type":"Feature","geometry":{"type":"Point","coordinates":[-0.0671841,43.0708071]},"properties":{"natural":"tree"}},
{"type":"Feature","geometry":{"type":"Point","coordinates":[-0.0775055,43.0716422]},"properties":{"denomination":"catholic","historic":"wayside_cross","religion":"christian"}},
{"type":"Feature","geometry":{"type":"Point","coordinates":[-0.0519902,43.0919298]},"properties":{"denomination":"catholic","historic":"memorial","memorial":"statue","name":"Coeur Sacre","religion":"christian"}},
{"type":"Feature","geometry":{"type":"Point","coordinates":[-0.0555584,43.0969976]},"properties":{"natural":"tree"}},
{"type":"Feature","geometry":{"type":"Point","coordinates":[-0.0566235,43.0972449]},"properties":{"leaf_type":"broadleaved","natural":"tree"}},
{"type":"Feature","geometry":{"type":"Point","coordinates":[-0.0565366,43.0972445]},"properties":{"leaf_type":"broadleaved","natural":"tree"}},
{"type":"Feature","geometry":{"type":"Point","coordinates":[-0.0567309,43.0972512]},"properties":{"leaf_type":"broadleaved","natural":"tree"}},
{"type":"Feature","geometry":{"type":"Point","coordinates":[-0.056415,43.0972633]},"properties":{"leaf_type":"broadleaved","natural":"tree"}},
{"type":"Feature","geometry":{"type":"Point","coordinates":[-0.0556315,43.0972744]},"properties":{"natural":"tree"}},
{"type":"Feature","geometry":{"type":"Point","coordinates":[-0.0566396,43.0972948]},"properties":{"leaf_type":"broadleaved","natural":"tree"}},
{"type":"Feature","geometry":{"type":"Point","coordinates":[-0.0565089,43.0973002]},"properties":{"leaf_type":"broadleaved","natural":"tree"}},
{"type":"Feature","geometry":{"type":"Point","coordinates":[-0.0567691,43.0973002]},"properties":{"leaf_type":"broadleaved","natural":"tree"}},
{"type":"Feature","geometry":{"type":"Point","coordinates":[-0.0556006,43.0973287]},"properties":{"natural":"tree"}},
{"type":"Feature","geometry":{"type":"Point","coordinates":[-0.056692,43.0973407]},"properties":{"leaf_type":"broadleaved","natural":"tree"}},
{"type":"Feature","geometry":{"type":"Point","coordinates":[-0.0563374,43.097352]},"properties":{"leaf_type":"broadleaved","natural":"tree"}},
{"type":"Feature","geometry":{"type":"Point","coordinates":[-0.0561759,43.0973655]},"properties":{"leaf_type":"broadleaved","natural":"tree"}},
{"type":"Feature","geometry":{"type":"Point","coordinates":[-0.0566185,43.0973534]},"properties":{"leaf_type":"broadleaved","natural":"tree"}},
{"type":"Feature","geometry":{"type":"Point","coordinates":[-0.0565597,43.0973696]},"properties":{"leaf_type":"broadleaved","natural":"tree"}},
{"type":"Feature","geometry":{"type":"Point","coordinates":[-0.0564311,43.0973854]},"properties":{"leaf_type":"broadleaved","natural":"tree"}},
{"type":"Feature","geometry":{"type":"Point","coordinates":[-0.0554922,43.0974163]},"properties":{"natural":"tree"}},
{"type":"Feature","geometry":{"type":"Point","coordinates":[-0.0554272,43.0974814]},"properties":{"natural":"tree"}},
{"type":"Feature","geometry":{"type":"Point","coordinates":[-0.0553621,43.0975271]},"properties":{"natural":"tree"}},
{"type":"Feature","geometry":{"type":"Point","coordinates":[-0.056769,43.0978247]},"properties":{"leaf_type":"broadleaved","natural":"tree"}},
{"type":"Feature","geometry":{"type":"Point","coordinates":[-0.0568733,43.0978276]},"properties":{"leaf_type":"broadleaved","natural":"tree"}},
{"type":"Feature","geometry":{"type":"Point","coordinates":[-0.056586,43.0978295]},"properties":{"leaf_type":"broadleaved","natural":"tree"}},
{"type":"Feature","geometry":{"type":"Point","coordinates":[-0.05621,43.0978492]},"properties":{"leaf_type":"broadleaved","natural":"tree"}},
{"type":"Feature","geometry":{"type":"Point","coordinates":[-0.0563946,43.0978477]},"properties":{"leaf_type":"broadleaved","natural":"tree"}},
{"type":"Feature","geometry":{"type":"Point","coordinates":[-0.0563029,43.0978647]},"properties":{"leaf_type":"broadleaved","natural":"tree"}},
{"type":"Feature","geometry":{"type":"Point","coordinates":[-0.0568776,43.0978843]},"properties":{"leaf_type":"broadleaved","natural":"tree"}},
{"type":"Feature","geometry":{"type":"Point","coordinates":[-0.0566418,43.0979079]},"properties":{"leaf_type":"broadleaved","natural":"tree"}},
{"type":"Feature","geometry":{"type":"Point","coordinates":[-0.056531,43.0979099]},"properties":{"leaf_type":"broadleaved","natural":"tree"}},
{"type":"Feature","geometry":{"type":"Point","coordinates":[-0.0568001,43.0979191]},"properties":{"leaf_type":"broadleaved","natural":"tree"}},
{"type":"Feature","geometry":{"type":"Point","coordinates":[-0.0562705,43.097939]},"properties":{"leaf_type":"broadleaved","natural":"tree"}},
{"type":"Feature","geometry":{"type":"Point","coordinates":[-0.056355,43.0979668]},"properties":{"leaf_type":"broadleaved","natural":"tree"}},
{"type":"Feature","geometry":{"type":"Point","coordinates":[-0.0568308,43.0979775]},"properties":{"leaf_type":"broadleaved","natural":"tree"}},
{"type":"Feature","geometry":{"type":"Point","coordinates":[-0.0564895,43.098]},"properties":{"leaf_type":"broadleaved","natural":"tree"}},
{"type":"Feature","geometry":{"type":"Point","coordinates":[-0.0566761,43.0980037]},"properties":{"leaf_type":"broadleaved","natural":"tree"}},
{"type":"Feature","geometry":{"type":"Point","coordinates":[-0.0560438,43.0943018]},"properties":{"check_date":"2024-07-12","name":"Hôtel Acadia","stars":"3","tourism":"hotel"}},
{"type":"Feature","geometry":{"type":"Point","coordinates":[-0.0565946,43.094931]},"properties":{"name":"Hôtel Albion","tourism":"hotel"}},
{"type":"Feature","geometry":{"type":"Point","coordinates":[-0.0565927,43.0945928]},"properties":{"name":"Hôtel America","stars":"3","tourism":"hotel"}},
{"type":"Feature","geometry":{"type":"Point","coordinates":[-0.0549948,43.0940035]},"properties":{"name":"Hôtel Aneto","stars":"3","tourism":"hotel"}},
{"type":"Feature","geometry":{"type":"Point","coordinates":[-0.0557737,43.093935]},"properties":{"name":"Hôtel Christ Roi","stars":"3","tourism":"hotel"}},
{"type":"Feature","geometry":{"type":"Point","coordinates":[-0.0551488,43.094078]},"properties":{"name":"Hôtel Concorde","stars":"2","tourism":"hotel"}},
{"type":"Feature","geometry":{"type":"Point","coordinates":[-0.0553917,43.0943787]},"properties":{"name":"Hôtel Corona","stars":"3","tourism":"hotel"}},
{"type":"Feature","geometry":{"type":"Point","coordinates":[-0.0555091,43.0945152]},"properties":{"name":"Hôtel Florida","stars":"3","toilets:wheelchair":"yes","tourism":"hotel","wheelchair":"yes"}},
{"type":"Feature","geometry":{"type":"Point","coordinates":[-0.0546906,43.0934918]},"properties":{"name":"Hôtel Gloria","source":"cadastre-dgi-fr source : Direction Générale des Impôts - Cadastre. Mise à jour : 2010","tourism":"hotel"}},
{"type":"Feature","geometry":{"type":"Point","coordinates":[-0.0559271,43.0942281]},"properties":{"check_date":"2024-07-12","name":"Hôtel Mirasol","stars":"3","tourism":"hotel"}},
{"type":"Feature","geometry":{"type":"Point","coordinates":[-0.0556071,43.0943133]},"properties":{"check_date":"2024-07-12","name":"Hôtel Myosotis","stars":"3","tourism":"hotel"}},
{"type":"Feature","geometry":{"type":"Point","coordinates":[-0.0563622,43.0947429]},"properties":{"name":"Hôtel Roc de Massabielle","stars":"3","tourism":"hotel"}},
{"type":"Feature","geometry":{"type":"Point","coordinates":[-0.0553425,43.0936714]},"properties":{"name":"Hôtel Saint-Lazare","tourism":"hotel"}},
{"type":"Feature","geometry":{"type":"Point","coordinates":[-0.0553792,43.0956032]},"properties":{"internet_access":"wlan","name":"Hôtel Sainte-Rose","stars":"3","tourism":"hotel","wheelchair":"yes"}},
{"type":"Feature","geometry":{"type":"Point","coordinates":[-0.0552786,43.0941363]},"properties":{"name":"Hôtel du Calvaire","stars":"2","tourism":"hotel"}},
{"type":"Feature","geometry":{"type":"Point","coordinates":[-0.0554601,43.0941011]},"properties":{"name":"Hôtel du Luxembourg","stars":"2","tourism":"hotel"}},
{"type":"Feature","geometry":{"type":"Point","coordinates":[-0.0521988,43.0950334]},"properties":{"name":"Antipodes & Residences Le St. Jean","stars":"3","tourism":"hotel"}},
{"type":"Feature","geometry":{"type":"Point","coordinates":[-0.0550439,43.0942052]},"properties":{"name":"Hôtel Angélic","stars":"3","tourism":"hotel"}},
{"type":"Feature","geometry":{"type":"Point","coordinates":[-0.0546267,43.0948378]},"properties":{"name":"Hôtel Ariane","stars":"3","tourism":"hotel"}},
{"type":"Feature","geometry":{"type":"Point","coordinates":[-0.0514933,43.0955536]},"properties":{"check_date":"2024-07-29","name":"Hôtel Astoria Vatican","stars":"3","tourism":"hotel"}},
{"type":"Feature","geometry":{"type":"Point","coordinates":[-0.0509608,43.0949178]},"properties":{"email":"contact@atriumlourdes.com","internet_access":"wlan","internet_access:fee":"customers","name":"Hôtel Atrium Mondial","phone":"+33 5 62 94 27 28","rooms":"46","stars":"3","tourism":"hotel","website":"https://www.hotel-lourdes-atrium.com"}},
{"type":"Feature","geometry":{"type":"Point","coordinates":[-0.0540317,43.0948083]},"properties":{"name":"Hôtel Central","stars":"2","tourism":"hotel"}},
{"type":"Feature","geometry":{"type":"Point","coordinates":[-0.0542426,43.0910115]},"properties":{"name":"Hôtel Esplanade Eden","stars":"3","tourism":"hotel"}},
{"type":"Feature","geometry":{"type":"Point","coordinates":[-0.0507335,43.0955509]},"properties":{"name":"Hôtel Le Régent","stars":"2","tourism":"hotel"}},
{"type":"Feature","geometry":{"type":"Point","coordinates":[-0.0506179,43.0955295]},"properties":{"check_date":"2024-07-29","name":"Hôtel Mariale","stars":"2","tourism":"hotel"}},
{"type":"Feature","geometry":{"type":"Point","coordinates":[-0.0500316,43.0974879]},"properties":{"name":"Hôtel Montfort","stars":"2","tourism":"hotel"}},
{"type":"Feature","geometry":{"type":"Point","coordinates":[-0.054437,43.0947962]},"properties":{"addr:housenumber":"1","addr:street":"Rue Saint-Félix","contact:phone":"+33 5 62 94 02 17","name":"Hôtel National","stars":"3","tourism":"hotel"}},
{"type":"Feature","geometry":{"type":"Point","coordinates":[-0.0508159,43.0951627]},"properties":{"name":"Hôtel Notre-Dame de Fourvière","stars":"1","tourism":"hotel"}},
{"type":"Feature","geometry":{"type":"Point","coordinates":[-0.0556858,43.092443]},"properties":{"name":"Hôtel Notre-Dame de la Sarte","stars":"3","tourism":"hotel"}},
{"type":"Feature","geometry":{"type":"Point","coordinates":[-0.0532507,43.0921007]},"properties":{"name":"Hôtel Le Petit Languedoc","stars":"2","tourism":"hotel"}},
{"type":"Feature","geometry":{"type":"Point","coordinates":[-0.0547909,43.0934154]},"properties":{"name":"Hôtel Peyramale","stars":"3","tourism":"hotel"}},
{"type":"Feature","geometry":{"type":"Point","coordinates":[-0.0541899,43.0948468]},"properties":{"name":"Hôtel Printania","stars":"3","tourism":"hotel"}},
{"type":"Feature","geometry":{"type":"Point","coordinates":[-0.0537038,43.0900303]},"properties":{"check_date":"2024-07-12","name":"Hôtel Saint-Contard","stars":"2","tourism":"hotel"}},
{"type":"Feature","geometry":{"type":"Point","coordinates":[-0.0543562,43.095378]},"properties":{"name":"Hôtel Sainte-Agnès","stars":"2","tourism":"hotel"}},
{"type":"Feature","geometry":{"type":"Point","coordinates":[-0.0502399,43.0973951]},"properties":{"name":"Hôtel Sainte-Marie","stars":"2","tourism":"hotel"}},
{"type":"Feature","geometry":{"type":"Point","coordinates":[-0.0514634,43.095164]},"properties":{"name":"Hôtel Sainte-Élisabeth","stars":"2","tourism":"hotel"}},
{"type":"Feature","geometry":{"type":"Point","coordinates":[-0.0529169,43.0958356]},"properties":{"name":"Hôtel Solitude","operator":"Vinuales","stars":"4","tourism":"hotel"}},
{"type":"Feature","geometry":{"type":"Point","coordinates":[-0.0549129,43.0950367]},"properties":{"name":"Hôtel Stella","stars":"3","tourism":"hotel"}},
{"type":"Feature","geometry":{"type":"Point","coordinates":[-0.0504554,43.0954677]},"properties":{"check_date":"2024-07-12","name":"Hôtel Vesuvio","stars":"4","tourism":"hotel"}},
{"type":"Feature","geometry":{"type":"Point","coordinates":[-0.0497504,43.0954919]},"properties":{"alt_name":"Hôtel de la Grotte","check_date":"2024-07-12","name":"Grand Hôtel Belfry","stars":"4","tourism":"hotel"}},
{"type":"Feature","geometry":{"type":"Point","coordinates":[-0.0513253,43.0955863]},"properties":{"name":"Hôtel des Arts","stars":"2","tourism":"hotel"}},
{"type":"Feature","geometry":{"type":"Point","coordinates":[-0.0536136,43.0914795]},"properties":{"name":"Hôtel des Pays-Bas","stars":"3","tourism":"hotel"}},
{"type":"Feature","geometry":{"type":"Point","coordinates":[-0.0545702,43.0935715]},"properties":{"name":"Hôtel du Gave","stars":"3","tourism":"hotel"}},
{"type":"Feature","geometry":{"type":"Point","coordinates":[-0.0519496,43.0953151]},"properties":{"check_date":"2024-07-12","name":"Hôtel du Louvre-Vincenette","stars":"3","tourism":"hotel"}},
{"type":"Feature","geometry":{"type":"Point","coordinates":[-0.0541223,43.0959842]},"properties":{"name":"Hôtel du Rocher","stars":"2","tourism":"hotel"}},
{"type":"Feature","geometry":{"type":"Point","coordinates":[-0.0560609,43.0922974]},"properties":{"name":"Hôtel les Rosiers","stars":"3","tourism":"hotel"}},
{"type":"Feature","geometry":{"type":"Point","coordinates":[-0.0513535,43.0946727]},"properties":{"name":"Hôtel Saint-Avit","tourism":"hotel"}},
{"type":"Feature","geometry":{"type":"Point","coordinates":[-0.0545251,43.0914812]},"properties":{"check_date":"2024-07-12","name":"Lorda Appart'Hôtel","tourism":"hotel"}},
{"type":"Feature","geometry":{"type":"Point","coordinates":[-0.0521637,43.0948345]},"properties":{"brand":"Mercure","brand:wikidata":"Q1709809","brand:wikipedia":"fr:Mercure (hôtels)","check_date":"2024-07-12","name":"Mercure Hôtel Impérial","stars":"3","tourism":"hotel"}},
{"type":"Feature","geometry":{"type":"Point","coordinates":[-0.0511722,43.0955925]},"properties":{"addr:city":"Lourdes","addr:housenumber":"87","addr:postcode":"65100","addr:street":"Rue de la Grotte","contact:phone":"+33 5 62 94 33 74","contact:website":"https://www.musee-de-cire-lourdes.com/","fee":"yes","fixme":"Vérifier s'il existe encore / Verify if it still exists","name":"Musée de Cire","name:hu":"Panoptikum","tourism":"museum"}},
{"type":"Feature","geometry":{"type":"Point","coordinates":[-0.0504675,43.0987717]},"properties":{"check_date":"2024-07-12","name":"Hôtel La source","stars":"3","tourism":"hotel"}},
{"type":"Feature","geometry":{"type":"Point","coordinates":[-0.0502697,43.0990261]},"properties":{"name":"Hôtel Maris Stella","stars":"3","tourism":"hotel"}},
{"type":"Feature","geometry":{"type":"Point","coordinates":[-0.0543717,43.0998523]},"properties":{"name":"Hôtel Notre-Dame de Lorette","stars":"2","tourism":"hotel"}},
{"type":"Feature","geometry":{"type":"Point","coordinates":[-0.0478681,43.0989003]},"properties":{"name":"Hôtel Plaisance","stars":"1","tourism":"hotel"}},
{"type":"Feature","geometry":{"type":"Point","coordinates":[-0.0502773,43.0980327]},"properties":{"name":"Hôtel Chalets Saint-Jacques","tourism":"hotel"}},
{"type":"Feature","geometry":{"type":"Point","coordinates":[-0.0494004,43.0981671]},"properties":{"name":"Hôtel Hélianthe","stars":"3","tourism":"hotel"}},
{"type":"Feature","geometry":{"type":"Point","coordinates":[-0.0472146,43.0974506]},"properties":{"name":"Hôtel Reine de France","tourism":"hotel"}},
{"type":"Feature","geometry":{"type":"Point","coordinates":[-0.0501652,43.097998]},"properties":{"name":"Hôtel Saint-Raphael","tourism":"hotel"}},
{"type":"Feature","geometry":{"type":"Point","coordinates":[-0.0478909,43.0981487]},"properties":{"name":"Hôtel d'Alsace","tourism":"hotel"}},
{"type":"Feature","geometry":{"type":"Point","coordinates":[-0.0495303,43.0981921]},"properties":{"name":"Hôtel Compostelle","phone":"+335 62 94 04 41","stars":"2","tourism":"hotel","website":"https://www.hotelcompostelle-lourdes.com/"}},
{"type":"Feature","geometry":{"type":"Point","coordinates":[-0.0467825,43.0967774]},"properties":{"check_date":"2024-07-10","name":"Hôtel du Commerce","stars":"2","tourism":"hotel"}},
{"type":"Feature","geometry":{"type":"Point","coordinates":[-0.046571799999999999,43.0969227]},"properties":{"check_date":"2024-07-10","name":"Hôtel le Parisien","tourism":"hotel"}},
{"type":"Feature","geometry":{"type":"Point","coordinates":[-0.0473116,43.0974893]},"properties":{"name":"Pension Saint-Sylve","tourism":"guest_house"}},
{"type":"Feature","geometry":{"type":"Point","coordinates":[-0.0458219,43.0919811]},"properties":{"natural":"tree"}},
{"type":"Feature","geometry":{"type":"Point","coordinates":[-0.0458332,43.09203]},"properties":{"natural":"tree"}},
{"type":"Feature","geometry":{"type":"Point","coordinates":[-0.0456751,43.0920408]},"properties":{"natural":"tree"}},
{"type":"Feature","geometry":{"type":"Point","coordinates":[-0.0458363,43.0920674]},"properties":{"natural":"tree"}},
{"type":"Feature","geometry":{"type":"Point","coordinates":[-0.0456797,43.0920848]},"properties":{"natural":"tree"}},
{"type":"Feature","geometry":{"type":"Point","coordinates":[-0.0458301,43.0921127]},"properties":{"natural":"tree"}},
{"type":"Feature","geometry":{"type":"Point","coordinates":[-0.045687,43.0921256]},"properties":{"natural":"tree"}},
{"type":"Feature","geometry":{"type":"Point","coordinates":[-0.0458424,43.0921591]},"properties":{"natural":"tree"}},
{"type":"Feature","geometry":{"type":"Point","coordinates":[-0.045948,43.0922983]},"properties":{"natural":"tree"}},
{"type":"Feature","geometry":{"type":"Point","coordinates":[-0.045831,43.092317]},"properties":{"natural":"tree"}},
{"type":"Feature","geometry":{"type":"Point","coordinates":[-0.0460248,43.0923197]},"properties":{"natural":"tree"}},
{"type":"Feature","geometry":{"type":"Point","coordinates":[-0.0457761,43.092321]},"properties":{"natural":"tree"}},
{"type":"Feature","geometry":{"type":"Point","coordinates":[-0.0454323,43.0923357]},"properties":{"natural":"tree"}},
{"type":"Feature","geometry":{"type":"Point","coordinates":[-0.0456504,43.0923479]},"properties":{"natural":"tree"}},
{"type":"Feature","geometry":{"type":"Point","coordinates":[-0.0459407,43.0924105]},"properties":{"natural":"tree"}},
{"type":"Feature","geometry":{"type":"Point","coordinates":[-0.0459572,43.0924586]},"properties":{"natural":"tree"}},
{"type":"Feature","geometry":{"type":"Point","coordinates":[-0.0455109,43.092516]},"properties":{"natural":"tree"}},
{"type":"Feature","geometry":{"type":"Point","coordinates":[-0.0456115,43.0925227]},"properties":{"natural":"tree"}},
{"type":"Feature","geometry":{"type":"Point","coordinates":[-0.0456518,43.0925374]},"properties":{"natural":"tree"}},
{"type":"Feature","geometry":{"type":"Point","coordinates":[-0.0454378,43.0925441]},"properties":{"natural":"tree"}},
{"type":"Feature","geometry":{"type":"Point","coordinates":[-0.0457048,43.0925561]},"properties":{"natural":"tree"}},
{"type":"Feature","geometry":{"type":"Point","coordinates":[-0.0453847,43.0925721]},"properties":{"natural":"tree"}},
{"type":"Feature","geometry":{"type":"Point","coordinates":[-0.0453573,43.0926282]},"properties":{"natural":"tree"}},
{"type":"Feature","geometry":{"type":"Point","coordinates":[-0.0457048,43.0926603]},"properties":{"natural":"tree"}},
{"type":"Feature","geometry":{"type":"Point","coordinates":[-0.0459572,43.0926683]},"properties":{"natural":"tree"}},
{"type":"Feature","geometry":{"type":"Point","coordinates":[-0.0453811,43.0926883]},"properties":{"natural":"tree"}},
{"type":"Feature","geometry":{"type":"Point","coordinates":[-0.0456719,43.092707]},"properties":{"natural":"tree"}},
{"type":"Feature","geometry":{"type":"Point","coordinates":[-0.045948,43.0927177]},"properties":{"natural":"tree"}},
{"type":"Feature","geometry":{"type":"Point","coordinates":[-0.0454158,43.0927297]},"properties":{"natural":"tree"}},
{"type":"Feature","geometry":{"type":"Point","coordinates":[-0.0456426,43.0927377]},"properties":{"natural":"tree"}},
{"type":"Feature","geometry":{"type":"Point","coordinates":[-0.0458788,43.092674]},"properties":{"natural":"tree"}},
{"type":"Feature","geometry":{"type":"Point","coordinates":[-0.0454488,43.0927537]},"properties":{"natural":"tree"}},
{"type":"Feature","geometry":{"type":"Point","coordinates":[-0.0459352,43.0927671]},"properties":{"natural":"tree"}},
{"type":"Feature","geometry":{"type":"Point","coordinates":[-0.0454853,43.0927724]},"properties":{"natural":"tree"}},
{"type":"Feature","geometry":{"type":"Point","coordinates":[-0.0458824,43.0927617]},"properties":{"natural":"tree"}},
{"type":"Feature","geometry":{"type":"Point","coordinates":[-0.0458802,43.0928056]},"properties":{"natural":"tree"}},
{"type":"Feature","geometry":{"type":"Point","coordinates":[-0.0459499,43.0928325]},"properties":{"natural":"tree"}},
{"type":"Feature","geometry":{"type":"Point","coordinates":[-0.0458732,43.0928767]},"properties":{"natural":"tree"}},
{"type":"Feature","geometry":{"type":"Point","coordinates":[-0.0459407,43.0928726]},"properties":{"natural":"tree"}},
{"type":"Feature","geometry":{"type":"Point","coordinates":[-0.0469905,43.0930622]},"properties":{"natural":"tree"}},
{"type":"Feature","geometry":{"type":"Point","coordinates":[-0.0472428,43.0930689]},"properties":{"natural":"tree"}},
{"type":"Feature","geometry":{"type":"Point","coordinates":[-0.047369,43.0930716]},"properties":{"natural":"tree"}},
{"type":"Feature","geometry":{"type":"Point","coordinates":[-0.047113,43.0930743]},"properties":{"natural":"tree"}},
{"type":"Feature","geometry":{"type":"Point","coordinates":[-0.0475062,43.0930743]},"properties":{"natural":"tree"}},
{"type":"Feature","geometry":{"type":"Point","coordinates":[-0.0469886,43.0931624]},"properties":{"natural":"tree"}},
{"type":"Feature","geometry":{"type":"Point","coordinates":[-0.0472227,43.0931637]},"properties":{"natural":"tree"}},
{"type":"Feature","geometry":{"type":"Point","coordinates":[-0.0474915,43.0931691]},"properties":{"natural":"tree"}},
{"type":"Feature","geometry":{"type":"Point","coordinates":[-0.0471075,43.0931704]},"properties":{"natural":"tree"}},
{"type":"Feature","geometry":{"type":"Point","coordinates":[-0.0476269,43.0931731]},"properties":{"natural":"tree"}},
{"type":"Feature","geometry":{"type":"Point","coordinates":[-0.0473836,43.0931744]},"properties":{"natural":"tree"}},
{"type":"Feature","geometry":{"type":"Point","coordinates":[-0.0469795,43.0932599]},"properties":{"natural":"tree"}},
{"type":"Feature","geometry":{"type":"Point","coordinates":[-0.0476251,43.0932612]},"properties":{"natural":"tree"}},
{"type":"Feature","geometry":{"type":"Point","coordinates":[-0.0471313,43.0932639]},"properties":{"natural":"tree"}},
{"type":"Feature","geometry":{"type":"Point","coordinates":[-0.0472245,43.0932719]},"properties":{"natural":"tree"}},
{"type":"Feature","geometry":{"type":"Point","coordinates":[-0.0474897,43.0932759]},"properties":{"natural":"tree"}},
{"type":"Feature","geometry":{"type":"Point","coordinates":[-0.0473507,43.0932799]},"properties":{"natural":"tree"}},
{"type":"Feature","geometry":{"type":"Point","coordinates":[-0.0472245,43.0933387]},"properties":{"natural":"tree"}},
{"type":"Feature","geometry":{"type":"Point","coordinates":[-0.0469539,43.09334]},"properties":{"natural":"tree"}},
{"type":"Feature","geometry":{"type":"Point","coordinates":[-0.0473526,43.09334]},"properties":{"natural":"tree"}},
{"type":"Feature","geometry":{"type":"Point","coordinates":[-0.0470929,43.0933414]},"properties":{"natural":"tree"}},
{"type":"Feature","geometry":{"type":"Point","coordinates":[-0.0474641,43.0933467]},"properties":{"natural":"tree"}},
{"type":"Feature","geometry":{"type":"Point","coordinates":[-0.0472063,43.0934242]},"properties":{"natural":"tree"}},
{"type":"Feature","geometry":{"type":"Point","coordinates":[-0.0473836,43.0934242]},"properties":{"natural":"tree"}},
{"type":"Feature","geometry":{"type":"Point","coordinates":[-0.0470727,43.0934322]},"properties":{"natural":"tree"}},
{"type":"Feature","geometry":{"type":"Point","coordinates":[-0.0473306,43.0934362]},"properties":{"natural":"tree"}},
{"type":"Feature","geometry":{"type":"Point","coordinates":[-0.0476141,43.0934415]},"properties":{"natural":"tree"}},
{"type":"Feature","geometry":{"type":"Point","coordinates":[-0.0431783,43.0847828]},"properties":{"natural":"tree"}},
{"type":"Feature","geometry":{"type":"Point","coordinates":[-0.0431971,43.0846848]},"properties":{"natural":"tree"}},
{"type":"Feature","geometry":{"type":"Point","coordinates":[-0.0429664,43.0843695]},"properties":{"natural":"tree"}},
{"type":"Feature","geometry":{"type":"Point","coordinates":[-0.0431649,43.084583]},"properties":{"natural":"tree"}},
{"type":"Feature","geometry":{"type":"Point","coordinates":[-0.0818638,43.0909906]},"properties":{"name":"Trou du Fou","natural":"cave_entrance"}},
{"type":"Feature","geometry":{"type":"Point","coordinates":[-0.0443918,43.0985213]},"properties":{"natural":"tree"}},
{"type":"Feature","geometry":{"type":"Point","coordinates":[-0.0443895,43.098609]},"properties":{"natural":"tree"}},
{"type":"Feature","geometry":{"type":"Point","coordinates":[-0.0443895,43.0987036]},"properties":{"natural":"tree"}},
{"type":"Feature","geometry":{"type":"Point","coordinates":[-0.0443627,43.0988033]},"properties":{"natural":"tree"}},
{"type":"Feature","geometry":{"type":"Point","coordinates":[-0.0443483,43.098891]},"properties":{"natural":"tree"}},
{"type":"Feature","geometry":{"type":"Point","coordinates":[-0.0443271,43.0989619]},"properties":{"natural":"tree"}},
{"type":"Feature","geometry":{"type":"Point","coordinates":[-0.0483459,43.096266]},"properties":{"check_date":"2024-07-12","name":"Castel de Mirambel","stars":"3","tourism":"hotel"}},
{"type":"Feature","geometry":{"type":"Point","coordinates":[-0.044408,43.0984351]},"properties":{"natural":"tree"}},
{"type":"Feature","geometry":{"type":"Point","coordinates":[-0.0479035,43.097734]},"properties":{"name":"Hôtel Bernis","tourism":"hotel"}},
{"type":"Feature","geometry":{"type":"Point","coordinates":[-0.0479377,43.0970302]},"properties":{"name":"Hôtel Henry IV","tourism":"hotel"}},
{"type":"Feature","geometry":{"type":"Point","coordinates":[-0.0479468,43.0974234]},"properties":{"name":"Hôtel Saint-Christophe","tourism":"hotel"}},
{"type":"Feature","geometry":{"type":"Point","coordinates":[-0.0599012,43.092665]},"properties":{"denomination":"catholic","historic":"wayside_cross","religion":"christian"}},
{"type":"Feature","geometry":{"type":"Point","coordinates":[-0.0553956,43.0978936]},"properties":{"description":"Statue de Saint-Jean-Marie Vianney","historic":"memorial","material":"stone","memorial":"statue","name":"Saint-Jean-Marie Vianney","name:hr":"Sveti Ivan Marija Vianney","name:hu":"Vianney Szent János"}},
{"type":"Feature","geometry":{"type":"Point","coordinates":[-0.0805716,43.0517681]},"properties":{"direction":"00-270","ele":"1349","tourism":"viewpoint"}},
{"type":"Feature","geometry":{"type":"Point","coordinates":[-0.0394359,43.0653916]},"properties":{"amenity":"restaurant","cuisine":"regional","name":"Hôtel des 3 Vallées","tourism":"hotel"}},
{"type":"Feature","geometry":{"type":"Point","coordinates":[-0.0597738,43.1031333]},"properties":{"natural":"tree"}},
{"type":"Feature","geometry":{"type":"Point","coordinates":[-0.0599119,43.1032831]},"properties":{"natural":"tree"}},
{"type":"Feature","geometry":{"type":"Point","coordinates":[-0.0600232,43.1033928]},"properties":{"natural":"tree"}},
{"type":"Feature","geometry":{"type":"Point","coordinates":[-0.0601694,43.1035269]},"properties":{"natural":"tree"}},
{"type":"Feature","geometry":{"type":"Point","coordinates":[-0.060282,43.1036376]},"properties":{"natural":"tree"}},
{"type":"Feature","geometry":{"type":"Point","coordinates":[-0.0604188,43.1037688]},"properties":{"natural":"tree"}},
{"type":"Feature","geometry":{"type":"Point","coordinates":[-0.0605476,43.1038833]},"properties":{"natural":"tree"}},
{"type":"Feature","geometry":{"type":"Point","coordinates":[-0.060675,43.1040077]},"properties":{"natural":"tree"}},
{"type":"Feature","geometry":{"type":"Point","coordinates":[-0.0607675,43.1041066]},"properties":{"natural":"tree"}},
{"type":"Feature","geometry":{"type":"Point","coordinates":[-0.0608922,43.1042368]},"properties":{"natural":"tree"}},
{"type":"Feature","geometry":{"type":"Point","coordinates":[-0.0609955,43.1043387]},"properties":{"natural":"tree"}},
{"type":"Feature","geometry":{"type":"Point","coordinates":[-0.0611028,43.1044601]},"properties":{"natural":"tree"}},
{"type":"Feature","geometry":{"type":"Point","coordinates":[-0.0616084,43.104982]},"properties":{"natural":"tree"}},
{"type":"Feature","geometry":{"type":"Point","coordinates":[-0.0547983,43.1009143]},"properties":{"name":"Zénitude Hôtel-Résidences l'Acacia","stars":"3","tourism":"hotel"}},
{"type":"Feature","geometry":{"type":"Point","coordinates":[-0.0647606,43.0537238]},"properties":{"ele":"1089","name":"Pic d'Alian","natural":"peak","source":"cadastre"}},
{"type":"Feature","geometry":{"type":"Point","coordinates":[-0.030842,43.1035961]},"properties":{"source":"cadastre-dgi-fr source : Direction Générale des Impôts - Cadastre ; mise à jour : 2009"}},
{"type":"Feature","geometry":{"type":"Point","coordinates":[-0.0440291,43.0992496]},"properties":{"amenity":"pub","name":"Le Baluchon","tourism":"hostel"}},
{"type":"Feature","geometry":{"type":"Point","coordinates":[-0.0431346,43.0997167]},"properties":{"brand":"Best Western","brand:wikidata":"Q830334","name":"Hôtel Beau Séjour","name:en":"Hotel Beauséjour","name:fr":"Hôtel Beau Séjour","official_name:en":"Best Western Hotel Beauséjour","official_name:fr":"Best Western Hôtel Beauséjour","tourism":"hotel","website":"https://www.hotel-beausejour.com/"}},
{"type":"Feature","geometry":{"type":"Point","coordinates":[-0.0438253,43.0998029]},"properties":{"check_date":"2024-07-10","name":"Hôtel Lutetia","tourism":"hotel"}},
{"type":"Feature","geometry":{"type":"Point","coordinates":[-0.0428305,43.0987711]},"properties":{"addr:housenumber":"11","addr:street":"Boulevard du Lapacca","source":"cadastre-dgi-fr source : Direction Générale des Finances Publiques - Cadastre. Mise à jour : 2017"}},
{"type":"Feature","geometry":{"type":"Point","coordinates":[-0.0454172,43.0961583]},"properties":{"name":"Hôtel Notre-Dame de Sarrance","tourism":"hotel"}},
{"type":"Feature","geometry":{"type":"Point","coordinates":[-0.0439896,43.0965172]},"properties":{"natural":"tree"}},
{"type":"Feature","geometry":{"type":"Point","coordinates":[-0.0440774,43.0965201]},"properties":{"natural":"tree"}},
{"type":"Feature","geometry":{"type":"Point","coordinates":[-0.0441492,43.0965206]},"properties":{"natural":"tree"}},
{"type":"Feature","geometry":{"type":"Point","coordinates":[-0.0442323,43.0965318]},"properties":{"natural":"tree"}},
{"type":"Feature","geometry":{"type":"Point","coordinates":[-0.0420614,43.0956036]},"properties":{"addr:housenumber":"37","addr:street":"Rue de Bagnères","source":"cadastre-dgi-fr source : Direction Générale des Finances Publiques - Cadastre. Mise à jour : 2017"}},
{"type":"Feature","geometry":{"type":"Point","coordinates":[-0.0456675,43.0919876]},"properties":{"natural":"tree"}},
{"type":"Feature","geometry":{"type":"Point","coordinates":[-0.0456835,43.0921613]},"properties":{"natural":"tree"}},
{"type":"Feature","geometry":{"type":"Point","coordinates":[-0.0504044,43.0937153]},"properties":{"name":"Les Jardins de Lourdes","tourism":"hotel"}},
{"type":"Feature","geometry":{"type":"Point","coordinates":[-0.0474372,43.0895736]},"properties":{"natural":"tree"}},
{"type":"Feature","geometry":{"type":"Point","coordinates":[-0.0464153,43.0930761]},"properties":{"natural":"tree"}},
{"type":"Feature","geometry":{"type":"Point","coordinates":[-0.0465226,43.093077]},"properties":{"natural":"tree"}},
{"type":"Feature","geometry":{"type":"Point","coordinates":[-0.0466017,43.093079]},"properties":{"natural":"tree"}},
{"type":"Feature","geometry":{"type":"Point","coordinates":[-0.0466782,43.0930741]},"properties":{"natural":"tree"}},
{"type":"Feature","geometry":{"type":"Point","coordinates":[-0.0464381,43.0933924]},"properties":{"natural":"tree"}},
{"type":"Feature","geometry":{"type":"Point","coordinates":[-0.0465212,43.0933943]},"properties":{"natural":"tree"}},
{"type":"Feature","geometry":{"type":"Point","coordinates":[-0.0466017,43.0933934]},"properties":{"natural":"tree"}},
{"type":"Feature","geometry":{"type":"Point","coordinates":[-0.0466755,43.0933953]},"properties":{"natural":"tree"}},
{"type":"Feature","geometry":{"type":"Point","coordinates":[-0.0513755,43.0946463]},"properties":{"addr:housenumber":"32","addr:street":"Rue de l'Égalité","source":"cadastre-dgi-fr source : Direction Générale des Finances Publiques - Cadastre. Mise à jour : 2017"}},
{"type":"Feature","geometry":{"type":"Point","coordinates":[-0.0494343,43.094719]},"properties":{"name":"À la Croix de Malte","tourism":"hotel"}},
{"type":"Feature","geometry":{"type":"Point","coordinates":[-0.0494772,43.0945099]},"properties":{"name":"Hôtel Sandrina","stars":"2","tourism":"hotel"}},
{"type":"Feature","geometry":{"type":"Point","coordinates":[-0.0494611,43.0943498]},"properties":{"name":"Le Pavillon Bleu","stars":"2","tourism":"hotel"}},
{"type":"Feature","geometry":{"type":"Point","coordinates":[-0.048132,43.094775]},"properties":{"natural":"tree"}},
{"type":"Feature","geometry":{"type":"Point","coordinates":[-0.0519684,43.0953224]},"properties":{"addr:housenumber":"99","addr:street":"Rue de la Grotte","source":"cadastre-dgi-fr source : Direction Générale des Finances Publiques - Cadastre. Mise à jour : 2017"}},
{"type":"Feature","geometry":{"type":"Point","coordinates":[-0.0510511,43.0949951]},"properties":{"addr:housenumber":"9","addr:street":"Rue des Pèlerins","source":"cadastre-dgi-fr source : Direction Générale des Finances Publiques - Cadastre. Mise à jour : 2017"}},
{"type":"Feature","geometry":{"type":"Point","coordinates":[-0.0511304,43.0948602]},"properties":{"addr:housenumber":"2","addr:street":"Rue du Révérend Père Picard"}},
{"type":"Feature","geometry":{"type":"Point","coordinates":[-0.0514027,43.0948095]},"properties":{"addr:housenumber":"7","addr:street":"Rue du Révérend Père Picard"}},
{"type":"Feature","geometry":{"type":"Point","coordinates":[-0.0475017,43.0964369]},"properties":{"natural":"tree"}},
{"type":"Feature","geometry":{"type":"Point","coordinates":[-0.0475017,43.0964957]},"properties":{"natural":"tree"}},
{"type":"Feature","geometry":{"type":"Point","coordinates":[-0.0474856,43.0965564]},"properties":{"natural":"tree"}},
{"type":"Feature","geometry":{"type":"Point","coordinates":[-0.0474776,43.096621]},"properties":{"natural":"tree"}},
{"type":"Feature","geometry":{"type":"Point","coordinates":[-0.0474695,43.0966817]},"properties":{"natural":"tree"}},
{"type":"Feature","geometry":{"type":"Point","coordinates":[-0.0476197,43.0964526]},"properties":{"natural":"tree"}},
{"type":"Feature","geometry":{"type":"Point","coordinates":[-0.0476197,43.0965094]},"properties":{"natural":"tree"}},
{"type":"Feature","geometry":{"type":"Point","coordinates":[-0.0475956,43.0965681]},"properties":{"natural":"tree"}},
{"type":"Feature","geometry":{"type":"Point","coordinates":[-0.0475902,43.096621]},"properties":{"natural":"tree"}},
{"type":"Feature","geometry":{"type":"Point","coordinates":[-0.0475661,43.0966935]},"properties":{"natural":"tree"}},
{"type":"Feature","geometry":{"type":"Point","coordinates":[-0.047901,43.0962761]},"properties":{"addr:housenumber":"34","addr:street":"Rue du Bourg","source":"cadastre-dgi-fr source : Direction Générale des Finances Publiques - Cadastre. Mise à jour : 2017"}},
{"type":"Feature","geometry":{"type":"Point","coordinates":[-0.0482449,43.0980991]},"properties":{"addr:housenumber":"2","addr:street":"Rue Bernadette Soubirous","source":"cadastre-dgi-fr source : Direction Générale des Finances Publiques - Cadastre. Mise à jour : 2017"}},
{"type":"Feature","geometry":{"type":"Point","coordinates":[-0.047085,43.0977126]},"properties":{"addr:housenumber":"7","addr:street":"Passage de la Fontaine","source":"cadastre-dgi-fr source : Direction Générale des Finances Publiques - Cadastre. Mise à jour : 2017"}},
{"type":"Feature","geometry":{"type":"Point","coordinates":[-0.0469752,43.097683]},"properties":{"addr:housenumber":"5","addr:street":"Passage de la Fontaine","source":"cadastre-dgi-fr source : Direction Générale des Finances Publiques - Cadastre. Mise à jour : 2017"}},
{"type":"Feature","geometry":{"type":"Point","coordinates":[-0.0467974,43.0977129]},"properties":{"addr:housenumber":"35","addr:street":"Rue Basse","source":"cadastre-dgi-fr source : Direction Générale des Finances Publiques - Cadastre. Mise à jour : 2017"}},
{"type":"Feature","geometry":{"type":"Point","coordinates":[-0.045657,43.0982993]},"properties":{"addr:housenumber":"12","addr:street":"Avenue Général Baron Maransin","source":"cadastre-dgi-fr source : Direction Générale des Finances Publiques - Cadastre. Mise à jour : 2017"}},
{"type":"Feature","geometry":{"type":"Point","coordinates":[-0.045325,43.0987984]},"properties":{"addr:housenumber":"5","addr:street":"Avenue Général Baron Maransin","source":"cadastre-dgi-fr source : Direction Générale des Finances Publiques - Cadastre. Mise à jour : 2017"}},
{"type":"Feature","geometry":{"type":"Point","coordinates":[-0.0457827,43.0981996]},"properties":{"addr:housenumber":"7","addr:street":"Place Jeanne d'Arc","source":"cadastre-dgi-fr source : Direction Générale des Finances Publiques - Cadastre. Mise à jour : 2017"}},
{"type":"Feature","geometry":{"type":"Point","coordinates":[-0.0463681,43.0983528]},"properties":{"addr:housenumber":"29","addr:street":"Boulevard de la Grotte","source":"cadastre-dgi-fr source : Direction Générale des Finances Publiques - Cadastre. Mise à jour : 2017"}},
{"type":"Feature","geometry":{"type":"Point","coordinates":[-0.0459234,43.0992859]},"properties":{"name":"Hôtel Acropolis","tourism":"hotel"}},
{"type":"Feature","geometry":{"type":"Point","coordinates":[-0.047462,43.0980646]},"properties":{"addr:housenumber":"43","addr:street":"Boulevard de la Grotte","source":"cadastre-dgi-fr source : Direction Générale des Finances Publiques - Cadastre. Mise à jour : 2017"}},
{"type":"Feature","geometry":{"type":"Point","coordinates":[-0.0471819,43.0980169]},"properties":{"addr:housenumber":"39","addr:street":"Boulevard de la Grotte","source":"cadastre-dgi-fr source : Direction Générale des Finances Publiques - Cadastre. Mise à jour : 2017"}},
{"type":"Feature","geometry":{"type":"Point","coordinates":[-0.0464545,43.0988298]},"properties":{"name":"Hôtel Atlantic","tourism":"hotel"}},
{"type":"Feature","geometry":{"type":"Point","coordinates":[-0.0472001,43.0981599]},"properties":{"addr:housenumber":"24","addr:street":"Boulevard de la Grotte","source":"cadastre-dgi-fr source : Direction Générale des Finances Publiques - Cadastre. Mise à jour : 2017"}},
{"type":"Feature","geometry":{"type":"Point","coordinates":[-0.0470194,43.0981654]},"properties":{"addr:housenumber":"20","addr:street":"Boulevard de la Grotte","source":"cadastre-dgi-fr source : Direction Générale des Finances Publiques - Cadastre. Mise à jour : 2017"}},
{"type":"Feature","geometry":{"type":"Point","coordinates":[-0.04733,43.0980407]},"properties":{"addr:housenumber":"41","addr:street":"Boulevard de la Grotte","source":"cadastre-dgi-fr source : Direction Générale des Finances Publiques - Cadastre. Mise à jour : 2017"}},
{"type":"Feature","geometry":{"type":"Point","coordinates":[-0.0467261,43.0981835]},"properties":{"addr:housenumber":"16","addr:street":"Boulevard de la Grotte","source":"cadastre-dgi-fr source : Direction Générale des Finances Publiques - Cadastre. Mise à jour : 2017"}},
{"type":"Feature","geometry":{"type":"Point","coordinates":[-0.0461735,43.098917]},"properties":{"name":"Hôtel du Dauphiné","operator":"Adonis","stars":"2","tourism":"hotel"}},
{"type":"Feature","geometry":{"type":"Point","coordinates":[-0.0471244,43.0981606]},"properties":{"addr:housenumber":"22","addr:street":"Boulevard de la Grotte","source":"cadastre-dgi-fr source : Direction Générale des Finances Publiques - Cadastre. Mise à jour : 2017"}},
{"type":"Feature","geometry":{"type":"Point","coordinates":[-0.045509,43.0989627]},"properties":{"check_date":"2024-07-11","name":"Hôtel Océan","stars":"2","tourism":"hotel"}},
{"type":"Feature","geometry":{"type":"Point","coordinates":[-0.0468904,43.0981735]},"properties":{"addr:housenumber":"18","addr:street":"Boulevard de la Grotte","source":"cadastre-dgi-fr source : Direction Générale des Finances Publiques - Cadastre. Mise à jour : 2017"}},
{"type":"Feature","geometry":{"type":"Point","coordinates":[-0.0462285,43.0979881]},"properties":{"addr:housenumber":"8","addr:street":"Place Jeanne d'Arc","source":"cadastre-dgi-fr source : Direction Générale des Finances Publiques - Cadastre. Mise à jour : 2017"}},
{"type":"Feature","geometry":{"type":"Point","coordinates":[-0.046197,43.0988695]},"properties":{"name":"Hôtel Chalet Saint-Louis","stars":"2","tourism":"hotel"}},
{"type":"Feature","geometry":{"type":"Point","coordinates":[-0.0474719,43.0981724]},"properties":{"addr:housenumber":"28","addr:street":"Boulevard de la Grotte","source":"cadastre-dgi-fr source : Direction Générale des Finances Publiques - Cadastre. Mise à jour : 2017"}},
{"type":"Feature","geometry":{"type":"Point","coordinates":[-0.0474057,43.0980539]},"properties":{"addr:housenumber":"41 A","addr:street":"Boulevard de la Grotte","source":"cadastre-dgi-fr source : Direction Générale des Finances Publiques - Cadastre. Mise à jour : 2017"}},
{"type":"Feature","geometry":{"type":"Point","coordinates":[-0.0527164,43.0940478]},"properties":{"addr:housenumber":"9","addr:street":"Avenue du Paradis","source":"cadastre-dgi-fr source : Direction Générale des Finances Publiques - Cadastre. Mise à jour : 2017"}},
{"type":"Feature","geometry":{"type":"Point","coordinates":[-0.0535588,43.0917787]},"properties":{"name":"Hôtel Alliance","tourism":"hotel"}},
{"type":"Feature","geometry":{"type":"Point","coordinates":[-0.0522319,43.0945617]},"properties":{"addr:housenumber":"2 A","addr:street":"Rue de l'Arberet","source":"cadastre-dgi-fr source : Direction Générale des Finances Publiques - Cadastre. Mise à jour : 2017"}},
{"type":"Feature","geometry":{"type":"Point","coordinates":[-0.0522457,43.0950523]},"properties":{"addr:housenumber":"1","addr:street":"Avenue du Paradis","source":"cadastre-dgi-fr source : Direction Générale des Finances Publiques - Cadastre. Mise à jour : 2017"}},
{"type":"Feature","geometry":{"type":"Point","coordinates":[-0.0545138,43.0922288]},"properties":{"addr:housenumber":"27","addr:street":"Avenue du Paradis","source":"cadastre-dgi-fr source : Direction Générale des Finances Publiques - Cadastre. Mise à jour : 2017"}},
{"type":"Feature","geometry":{"type":"Point","coordinates":[-0.0524079,43.0946135]},"properties":{"addr:housenumber":"5","addr:street":"Avenue du Paradis","source":"cadastre-dgi-fr source : Direction Générale des Finances Publiques - Cadastre. Mise à jour : 2017"}},
{"type":"Feature","geometry":{"type":"Point","coordinates":[-0.0547455,43.0919254]},"properties":{"addr:housenumber":"22","addr:street":"Esplanade du Paradis","source":"cadastre-dgi-fr source : Direction Générale des Finances Publiques - Cadastre. Mise à jour : 2017"}},
{"type":"Feature","geometry":{"type":"Point","coordinates":[-0.0510103,43.0988146]},"properties":{"addr:housenumber":"10","addr:street":"Rue du Docteur Boissarie","source":"cadastre-dgi-fr source : Direction Générale des Finances Publiques - Cadastre. Mise à jour : 2017"}},
{"type":"Feature","geometry":{"type":"Point","coordinates":[-0.0512611,43.0989031]},"properties":{"addr:housenumber":"12","addr:street":"Rue du Docteur Boissarie","source":"cadastre-dgi-fr source : Direction Générale des Finances Publiques - Cadastre. Mise à jour : 2017"}},
{"type":"Feature","geometry":{"type":"Point","coordinates":[-0.0487397,43.0984715]},"properties":{"name":"Au Berceau de Bernadette","tourism":"guest_house"}},
{"type":"Feature","geometry":{"type":"Point","coordinates":[-0.0504271,43.0991266]},"properties":{"addr:housenumber":"37","addr:street":"Rue Latour de Brie","source":"cadastre-dgi-fr source : Direction Générale des Finances Publiques - Cadastre. Mise à jour : 2017"}},
{"type":"Feature","geometry":{"type":"Point","coordinates":[-0.0465767,43.0978611]},"properties":{"name":"Hôtel Saint-Jean-Baptiste","tourism":"hotel"}},
{"type":"Feature","geometry":{"type":"Point","coordinates":[-0.0511685,43.0993226]},"properties":{"description":"Camino Albergue;Accueil Jacquaire","name":"La Ruche","operator":"Jean-Louis Doux","phone":"+33 5 6297 9821","rooms":"9","tourism":"hostel"}},
{"type":"Feature","geometry":{"type":"Point","coordinates":[-0.0503242,43.0992249]},"properties":{"addr:housenumber":"42","addr:street":"Rue de Pau","source":"cadastre-dgi-fr source : Direction Générale des Finances Publiques - Cadastre. Mise à jour : 2017"}},
{"type":"Feature","geometry":{"type":"Point","coordinates":[-0.050791,43.0992473]},"properties":{"addr:housenumber":"21","addr:street":"Rue de Pau","source":"cadastre-dgi-fr source : Direction Générale des Finances Publiques - Cadastre. Mise à jour : 2017"}},
{"type":"Feature","geometry":{"type":"Point","coordinates":[-0.0520509,43.0883275]},"properties":{"caravan_site":"motorhome_stopover","caravan_site:type":"parking_lot;town","charge":"10 EUR","fee":"yes","name":"Parking de l'Arrouza","power_supply":"yes","power_supply:fee":"yes","sanitary_dump_station":"yes","tents":"no","tourism":"caravan_site","water_point":"yes","water_point:fee":"yes","website":"https://www.lourdes.fr/lourdes/se-deplacer-stationner/1680-zones-de-stationnement-2018"}},
{"type":"Feature","geometry":{"type":"Point","coordinates":[-0.048516,43.0963657]},"properties":{"addr:city":"Lourdes","addr:housenumber":"25","addr:postcode":"65100","addr:street":"Rue du Fort","name":"Musée Pyrénéen","name:hu":"Pireneusi Múzeum","phone":"+33 5 62 42 37 37","ref:FR:museofile":"M0588","source":"Ministère de la Culture - Muséofile - 09/2019","tourism":"museum","website":"http://www.chateaufort-lourdes.fr","wikidata":"Q3330768","wikipedia":"fr:Musée pyrénéen de Lourdes"}},
{"type":"Feature","geometry":{"type":"Point","coordinates":[-0.0555428,43.0951399]},"properties":{"addr:housenumber":"8","addr:street":"Chemin des Carrières de Peyramale","source":"cadastre-dgi-fr source : Direction Générale des Finances Publiques - Cadastre. Mise à jour : 2017"}},
{"type":"Feature","geometry":{"type":"Point","coordinates":[-0.0555467,43.0949879]},"properties":{"addr:housenumber":"12","addr:street":"Chemin des Carrières de Peyramale","source":"cadastre-dgi-fr source : Direction Générale des Finances Publiques - Cadastre. Mise à jour : 2017"}},
{"type":"Feature","geometry":{"type":"Point","coordinates":[-0.0558003,43.0949809]},"properties":{"addr:housenumber":"3","addr:street":"Place Merlasse","source":"cadastre-dgi-fr source : Direction Générale des Finances Publiques - Cadastre. Mise à jour : 2017"}},
{"type":"Feature","geometry":{"type":"Point","coordinates":[-0.0557791,43.094848]},"properties":{"addr:housenumber":"5","addr:street":"Place Merlasse","source":"cadastre-dgi-fr source : Direction Générale des Finances Publiques - Cadastre. Mise à jour : 2017"}},
{"type":"Feature","geometry":{"type":"Point","coordinates":[-0.0561974,43.0953747]},"properties":{"addr:housenumber":"2","addr:street":"Rue de la Reine Astrid","source":"cadastre-dgi-fr source : Direction Générale des Finances Publiques - Cadastre. Mise à jour : 2017"}},
{"type":"Feature","geometry":{"type":"Point","coordinates":[-0.0562935,43.0951183]},"properties":{"addr:housenumber":"1","addr:street":"Rue de la Reine Astrid","source":"cadastre-dgi-fr source : Direction Générale des Finances Publiques - Cadastre. Mise à jour : 2017"}},
{"type":"Feature","geometry":{"type":"Point","coordinates":[-0.0563658,43.0952263]},"properties":{"addr:housenumber":"4","addr:street":"Rue de la Reine Astrid","source":"cadastre-dgi-fr source : Direction Générale des Finances Publiques - Cadastre. Mise à jour : 2017"}},
{"type":"Feature","geometry":{"type":"Point","coordinates":[-0.0564387,43.0951125]},"properties":{"addr:housenumber":"6","addr:street":"Rue de la Reine Astrid","source":"cadastre-dgi-fr source : Direction Générale des Finances Publiques - Cadastre. Mise à jour : 2017"}},
{"type":"Feature","geometry":{"type":"Point","coordinates":[-0.0558184,43.0955303]},"properties":{"addr:housenumber":"12","addr:street":"Avenue Monseigneur Schoeffer","source":"cadastre-dgi-fr source : Direction Générale des Finances Publiques - Cadastre. Mise à jour : 2017"}},
{"type":"Feature","geometry":{"type":"Point","coordinates":[-0.0558419,43.0954957]},"properties":{"addr:housenumber":"14","addr:street":"Avenue Monseigneur Schoeffer","source":"cadastre-dgi-fr source : Direction Générale des Finances Publiques - Cadastre. Mise à jour : 2017"}},
{"type":"Feature","geometry":{"type":"Point","coordinates":[-0.0556742,43.095249]},"properties":{"addr:housenumber":"21","addr:street":"Rue Sainte-Marie","source":"cadastre-dgi-fr source : Direction Générale des Finances Publiques - Cadastre. Mise à jour : 2017"}},
{"type":"Feature","geometry":{"type":"Point","coordinates":[-0.0543547,43.0961932]},"properties":{"addr:housenumber":"4","addr:street":"Rue Sainte-Marie","source":"cadastre-dgi-fr source : Direction Générale des Finances Publiques - Cadastre. Mise à jour : 2017"}},
{"type":"Feature","geometry":{"type":"Point","coordinates":[-0.0545512,43.0961609]},"properties":{"addr:housenumber":"9","addr:street":"Rue Sainte-Marie","source":"cadastre-dgi-fr source : Direction Générale des Finances Publiques - Cadastre. Mise à jour : 2017"}},
{"type":"Feature","geometry":{"type":"Point","coordinates":[-0.0540562,43.0960917]},"properties":{"addr:housenumber":"2","addr:street":"Rue Sainte-Marie","source":"cadastre-dgi-fr source : Direction Générale des Finances Publiques - Cadastre. Mise à jour : 2017"}},
{"type":"Feature","geometry":{"type":"Point","coordinates":[-0.0551038,43.0961528]},"properties":{"addr:housenumber":"13","addr:street":"Rue Sainte-Marie","source":"cadastre-dgi-fr source : Direction Générale des Finances Publiques - Cadastre. Mise à jour : 2017"}},
{"type":"Feature","geometry":{"type":"Point","coordinates":[-0.0542178,43.0960463]},"properties":{"addr:housenumber":"5","addr:street":"Rue Sainte-Marie","source":"cadastre-dgi-fr source : Direction Générale des Finances Publiques - Cadastre. Mise à jour : 2017"}},
{"type":"Feature","geometry":{"type":"Point","coordinates":[-0.0540307,43.0964074]},"properties":{"addr:housenumber":"30","addr:street":"Avenue Bernadette Soubirous","source":"cadastre-dgi-fr source : Direction Générale des Finances Publiques - Cadastre. Mise à jour : 2017"}},
{"type":"Feature","geometry":{"type":"Point","coordinates":[-0.0549561,43.0931704]},"properties":{"addr:housenumber":"36","addr:street":"Avenue Peyramale","source":"cadastre-dgi-fr source : Direction Générale des Finances Publiques - Cadastre. Mise à jour : 2017"}},
{"type":"Feature","geometry":{"type":"Point","coordinates":[-0.055375,43.0899749]},"properties":{"addr:housenumber":"68","addr:street":"Avenue Peyramale","source":"cadastre-dgi-fr source : Direction Générale des Finances Publiques - Cadastre. Mise à jour : 2017"}},
{"type":"Feature","geometry":{"type":"Point","coordinates":[-0.055437,43.0925986]},"properties":{"addr:housenumber":"42","addr:street":"Avenue Peyramale","source":"cadastre-dgi-fr source : Direction Générale des Finances Publiques - Cadastre. Mise à jour : 2017"}},
{"type":"Feature","geometry":{"type":"Point","coordinates":[-0.0542505,43.0938286]},"properties":{"addr:housenumber":"24","addr:street":"Avenue Peyramale","source":"cadastre-dgi-fr source : Direction Générale des Finances Publiques - Cadastre. Mise à jour : 2017"}},
{"type":"Feature","geometry":{"type":"Point","coordinates":[-0.0539503,43.0941354]},"properties":{"addr:housenumber":"18","addr:street":"Avenue Peyramale","source":"cadastre-dgi-fr source : Direction Générale des Finances Publiques - Cadastre. Mise à jour : 2017"}},
{"type":"Feature","geometry":{"type":"Point","coordinates":[-0.0552625,43.0928014]},"properties":{"addr:housenumber":"40","addr:street":"Avenue Peyramale","source":"cadastre-dgi-fr source : Direction Générale des Finances Publiques - Cadastre. Mise à jour : 2017"}},
{"type":"Feature","geometry":{"type":"Point","coordinates":[-0.0541542,43.0939272]},"properties":{"addr:housenumber":"22","addr:street":"Avenue Peyramale","source":"cadastre-dgi-fr source : Direction Générale des Finances Publiques - Cadastre. Mise à jour : 2017"}},
{"type":"Feature","geometry":{"type":"Point","coordinates":[-0.0534895,43.0948687]},"properties":{"addr:housenumber":"8","addr:street":"Avenue Peyramale","source":"cadastre-dgi-fr source : Direction Générale des Finances Publiques - Cadastre. Mise à jour : 2017"}},
{"type":"Feature","geometry":{"type":"Point","coordinates":[-0.0550798,43.0930193]},"properties":{"addr:housenumber":"38","addr:street":"Avenue Peyramale","source":"cadastre-dgi-fr source : Direction Générale des Finances Publiques - Cadastre. Mise à jour : 2017"}},
{"type":"Feature","geometry":{"type":"Point","coordinates":[-0.0535751,43.0946744]},"properties":{"addr:housenumber":"10","addr:street":"Avenue Peyramale","source":"cadastre-dgi-fr source : Direction Générale des Finances Publiques - Cadastre. Mise à jour : 2017"}},
{"type":"Feature","geometry":{"type":"Point","coordinates":[-0.0550823,43.0933526]},"properties":{"addr:housenumber":"34 B","addr:street":"Avenue Peyramale","source":"cadastre-dgi-fr source : Direction Générale des Finances Publiques - Cadastre. Mise à jour : 2017"}},
{"type":"Feature","geometry":{"type":"Point","coordinates":[-0.0533537,43.0952383]},"properties":{"addr:housenumber":"2","addr:street":"Avenue Peyramale","source":"cadastre-dgi-fr source : Direction Générale des Finances Publiques - Cadastre. Mise à jour : 2017"}},
{"type":"Feature","geometry":{"type":"Point","coordinates":[-0.0540593,43.0940247]},"properties":{"addr:housenumber":"20","addr:street":"Avenue Peyramale","source":"cadastre-dgi-fr source : Direction Générale des Finances Publiques - Cadastre. Mise à jour : 2017"}},
{"type":"Feature","geometry":{"type":"Point","coordinates":[-0.0548056,43.0933141]},"properties":{"addr:housenumber":"34","addr:street":"Avenue Peyramale","source":"cadastre-dgi-fr source : Direction Générale des Finances Publiques - Cadastre. Mise à jour : 2017"}},
{"type":"Feature","geometry":{"type":"Point","coordinates":[-0.0549336,43.093289]},"properties":{"addr:housenumber":"34 A","addr:street":"Avenue Peyramale","source":"cadastre-dgi-fr source : Direction Générale des Finances Publiques - Cadastre. Mise à jour : 2017"}},
{"type":"Feature","geometry":{"type":"Point","coordinates":[-0.0541415,43.0953869]},"properties":{"addr:housenumber":"11","addr:street":"Rue Marie Saint-Frai","source":"cadastre-dgi-fr source : Direction Générale des Finances Publiques - Cadastre. Mise à jour : 2017"}},
{"type":"Feature","geometry":{"type":"Point","coordinates":[-0.055045,43.0954812]},"properties":{"addr:housenumber":"17","addr:street":"Rue Marie Saint-Frai","source":"cadastre-dgi-fr source : Direction Générale des Finances Publiques - Cadastre. Mise à jour : 2017"}},
{"type":"Feature","geometry":{"type":"Point","coordinates":[-0.0534473,43.0953048]},"properties":{"addr:housenumber":"1","addr:street":"Rue Marie Saint-Frai","source":"cadastre-dgi-fr source : Direction Générale des Finances Publiques - Cadastre. Mise à jour : 2017"}},
{"type":"Feature","geometry":{"type":"Point","coordinates":[-0.0539982,43.0949203]},"properties":{"addr:housenumber":"4","addr:street":"Rue Massabielle","source":"cadastre-dgi-fr source : Direction Générale des Finances Publiques - Cadastre. Mise à jour : 2017"}},
{"type":"Feature","geometry":{"type":"Point","coordinates":[-0.0542824,43.0949953]},"properties":{"addr:housenumber":"8","addr:street":"Rue Massabielle","source":"cadastre-dgi-fr source : Direction Générale des Finances Publiques - Cadastre. Mise à jour : 2017"}},
{"type":"Feature","geometry":{"type":"Point","coordinates":[-0.0552099,43.0951604]},"properties":{"addr:housenumber":"11","addr:street":"Rue Massabielle","source":"cadastre-dgi-fr source : Direction Générale des Finances Publiques - Cadastre. Mise à jour : 2017"}},
{"type":"Feature","geometry":{"type":"Point","coordinates":[-0.0535516,43.0958501]},"properties":{"addr:housenumber":"22","addr:street":"Avenue Bernadette Soubirous","source":"cadastre-dgi-fr source : Direction Générale des Finances Publiques - Cadastre. Mise à jour : 2017"}},
{"type":"Feature","geometry":{"type":"Point","coordinates":[-0.0536752,43.0959929]},"properties":{"addr:housenumber":"26","addr:street":"Avenue Bernadette Soubirous","source":"cadastre-dgi-fr source : Direction Générale des Finances Publiques - Cadastre. Mise à jour : 2017"}},
{"type":"Feature","geometry":{"type":"Point","coordinates":[-0.0538721,43.096221]},"properties":{"addr:housenumber":"28","addr:street":"Avenue Bernadette Soubirous","source":"cadastre-dgi-fr source : Direction Générale des Finances Publiques - Cadastre. Mise à jour : 2017"}},
{"type":"Feature","geometry":{"type":"Point","coordinates":[-0.0542089,43.0964624]},"properties":{"addr:housenumber":"21","addr:street":"Avenue Bernadette Soubirous","source":"cadastre-dgi-fr source : Direction Générale des Finances Publiques - Cadastre. Mise à jour : 2017"}},
{"type":"Feature","geometry":{"type":"Point","coordinates":[-0.0534402,43.0957664]},"properties":{"addr:housenumber":"20","addr:street":"Avenue Bernadette Soubirous","name":"Hôtel Continental","operator":"Vinuales","source":"cadastre-dgi-fr source : Direction Générale des Finances Publiques - Cadastre. Mise à jour : 2017","stars":"3","tourism":"hotel"}},
{"type":"Feature","geometry":{"type":"Point","coordinates":[-0.0539329,43.0962922]},"properties":{"addr:housenumber":"28 A","addr:street":"Avenue Bernadette Soubirous","source":"cadastre-dgi-fr source : Direction Générale des Finances Publiques - Cadastre. Mise à jour : 2017"}},
{"type":"Feature","geometry":{"type":"Point","coordinates":[-0.0545541,43.0966114]},"properties":{"addr:housenumber":"1","addr:street":"Place Monseigneur Laurence","source":"cadastre-dgi-fr source : Direction Générale des Finances Publiques - Cadastre. Mise à jour : 2017"}},
{"type":"Feature","geometry":{"type":"Point","coordinates":[-0.0525456,43.0966944]},"properties":{"historic":"memorial","material":"stone","memorial":"statue","name":"Sainte-Bernadette","name:hr":"Sveta Bernardica","name:hu":"Szent Bernadett"}},
{"type":"Feature","geometry":{"type":"Point","coordinates":[-0.0521129,43.0967003]},"properties":{"name":"Musée Sainte-Bernadette","name:hr":"Muzej svete Bernardice","tourism":"museum","website":"https://www.lourdes-infotourisme.com/offres/musee-sainte-bernadette-lourdes-fr-3152355/"}},
{"type":"Feature","geometry":{"type":"Point","coordinates":[-0.0314712,43.0677074]},"properties":{"name":"Fontaine de Plagnets","natural":"spring"}},
{"type":"Feature","geometry":{"type":"Point","coordinates":[-0.0572199,43.0976683]},"properties":{"colour":"white","historic":"memorial","material":"stone","memorial":"statue","name":"Saint Jean L'Évangeliste","name:hu":"Szent János evangélista"}},
{"type":"Feature","geometry":{"type":"Point","coordinates":[-0.0571646,43.0973623]},"properties":{"colour":"white","historic":"memorial","material":"stone","memorial":"statue","name":"Saint Jean Baptiste","name:hu":"Keresztelő Szent János"}},
{"type":"Feature","geometry":{"type":"Point","coordinates":[-0.0562788,43.0979032]},"properties":{"leaf_type":"broadleaved","natural":"tree"}},
{"type":"Feature","geometry":{"type":"Point","coordinates":[-0.0564679,43.0979375]},"properties":{"leaf_type":"broadleaved","natural":"tree"}},
{"type":"Feature","geometry":{"type":"Point","coordinates":[-0.0566073,43.0979659]},"properties":{"leaf_type":"broadleaved","natural":"tree"}},
{"type":"Feature","geometry":{"type":"Point","coordinates":[-0.0567227,43.0979541]},"properties":{"leaf_type":"broadleaved","natural":"tree"}},
{"type":"Feature","geometry":{"type":"Point","coordinates":[-0.0564048,43.0978895]},"properties":{"leaf_type":"broadleaved","natural":"tree"}},
{"type":"Feature","geometry":{"type":"Point","coordinates":[-0.0564987,43.0978474]},"properties":{"leaf_type":"broadleaved","natural":"tree"}},
{"type":"Feature","geometry":{"type":"Point","coordinates":[-0.0561245,43.097439]},"properties":{"leaf_type":"broadleaved","natural":"tree"}},
{"type":"Feature","geometry":{"type":"Point","coordinates":[-0.0562654,43.097346]},"properties":{"leaf_type":"broadleaved","natural":"tree"}},
{"type":"Feature","geometry":{"type":"Point","coordinates":[-0.0563284,43.0974077]},"properties":{"leaf_type":"broadleaved","natural":"tree"}},
{"type":"Feature","geometry":{"type":"Point","coordinates":[-0.0637489,43.089938]},"properties":{"leisure":"picnic_table"}},
{"type":"Feature","geometry":{"type":"Point","coordinates":[-0.0637378,43.0899656]},"properties":{"leisure":"picnic_table"}},
{"type":"Feature","geometry":{"type":"Point","coordinates":[-0.0637528,43.089975]},"properties":{"leisure":"picnic_table"}},
{"type":"Feature","geometry":{"type":"Point","coordinates":[-0.0637745,43.090005]},"properties":{"leisure":"picnic_table"}},
{"type":"Feature","geometry":{"type":"Point","coordinates":[-0.0637967,43.0900123]},"properties":{"leisure":"picnic_table"}},
{"type":"Feature","geometry":{"type":"Point","coordinates":[-0.0638745,43.0900156]},"properties":{"leisure":"picnic_table"}},
{"type":"Feature","geometry":{"type":"Point","coordinates":[-0.0639133,43.0900489]},"properties":{"leisure":"picnic_table"}},
{"type":"Feature","geometry":{"type":"Point","coordinates":[-0.057594,43.0969651]},"properties":{"artwork_type":"statue","memorial":"statue","name:en":"Angel","name:hu":"Angyal","tourism":"artwork"}},
{"type":"Feature","geometry":{"type":"Point","coordinates":[-0.0578737,43.0954353]},"properties":{"historic":"memorial","memorial":"statue","name":"Jesus et Bernadette Soubirous","name:hu":"Jézus és Bernadette"}},
{"type":"Feature","geometry":{"type":"Point","coordinates":[-0.0566275,43.0963679]},"properties":{"description:en":"Jesus is senteced to death","historic":"memorial","memorial":"statue","name":"Station:1","name:hu":"I. stáció"}},
{"type":"Feature","geometry":{"type":"Point","coordinates":[-0.0567945,43.0961751]},"properties":{"description:en":"Jesus takes the cross","historic":"memorial","memorial":"statue","name":"Station:2","name:hu":"II. stáció"}},
{"type":"Feature","geometry":{"type":"Point","coordinates":[-0.0572031,43.0959979]},"properties":{"description:en":"Jesus falls the first time under the cross","historic":"memorial","memorial":"statue","name":"Station:3","name:hu":"III. stáció"}},
{"type":"Feature","geometry":{"type":"Point","coordinates":[-0.0576578,43.0956987]},"properties":{"description:en":"Jesus meets his mother","historic":"memorial","memorial":"statue","name":"Station:4","name:hu":"IV. stáció"}},
{"type":"Feature","geometry":{"type":"Point","coordinates":[-0.0575746,43.096296]},"properties":{"description:en":"Simon of Cyrene helps Jesus carrying the cross","historic":"memorial","memorial":"statue","name":"Station:5","name:hu":"V. stáció"}},
{"type":"Feature","geometry":{"type":"Point","coordinates":[-0.057856,43.0963324]},"properties":{"description:en":"Jesus falls the secons time under the cross","historic":"memorial","memorial":"statue","name":"Station:6","name:hu":"VI. stáció"}},
{"type":"Feature","geometry":{"type":"Point","coordinates":[-0.0581041,43.0962605]},"properties":{"description:en":"station 7: Jesus meets the women of Jerusalem","historic":"memorial","memorial":"statue","name":"Station:7","name:hu":"VII. stáció"}},
{"type":"Feature","geometry":{"type":"Point","coordinates":[-0.0582214,43.0959793]},"properties":{"description:en":"Jesus falls the third time under the cross","historic":"memorial","memorial":"statue","name":"Station:8","name:hu":"VIII. stáció"}},
{"type":"Feature","geometry":{"type":"Point","coordinates":[-0.0585276,43.0958761]},"properties":{"description:en":"station 9:","historic":"memorial","memorial":"statue","name":"Station:9","name:hu":"IX. stáció"}},
{"type":"Feature","geometry":{"type":"Point","coordinates":[-0.059566,43.0954184]},"properties":{"historic":"memorial","memorial":"statue","name":"Station:11","name:hu":"XI. stáció"}},
{"type":"Feature","geometry":{"type":"Point","coordinates":[-0.0592044,43.0956663]},"properties":{"historic":"memorial","memorial":"statue","name":"Station:10","name:hu":"X. stáció"}},
{"type":"Feature","geometry":{"type":"Point","coordinates":[-0.0587496,43.0973772]},"properties":{"heritage":"3","heritage:operator":"mhs","mhs:inscription_date":"1995-09-21","name":"Domaine du sanctuaire de Lourdes","ref:mhs":"PA00135471","source:heritage":"data.gouv.fr, Ministère de la Culture - 2016","start_date":"C19","tourism":"attraction","wheelchair":"yes","wikidata":"Q7709620","wikipedia":"fr:Sanctuaire de Lourdes"}},
{"type":"Feature","geometry":{"type":"Point","coordinates":[-0.0599635,43.0983664]},"properties":{"natural":"tree"}},
{"type":"Feature","geometry":{"type":"Point","coordinates":[-0.0601378,43.0983194]},"properties":{"natural":"tree"}},
{"type":"Feature","geometry":{"type":"Point","coordinates":[-0.0593036,43.0983879]},"properties":{"natural":"tree"}},
{"type":"Feature","geometry":{"type":"Point","coordinates":[-0.0594485,43.0984467]},"properties":{"natural":"tree"}},
{"type":"Feature","geometry":{"type":"Point","coordinates":[-0.0597087,43.0985329]},"properties":{"natural":"tree"}},
{"type":"Feature","geometry":{"type":"Point","coordinates":[-0.0596201,43.0983527]},"properties":{"natural":"tree"}},
{"type":"Feature","geometry":{"type":"Point","coordinates":[-0.0591078,43.0983566]},"properties":{"natural":"tree"}},
{"type":"Feature","geometry":{"type":"Point","coordinates":[-0.059022,43.0984095]},"properties":{"natural":"tree"}},
{"type":"Feature","geometry":{"type":"Point","coordinates":[-0.0591669,43.098245]},"properties":{"natural":"tree"}},
{"type":"Feature","geometry":{"type":"Point","coordinates":[-0.0593412,43.0982175]},"properties":{"natural":"tree"}},
{"type":"Feature","geometry":{"type":"Point","coordinates":[-0.0588289,43.0984486]},"properties":{"natural":"tree"}},
{"type":"Feature","geometry":{"type":"Point","coordinates":[-0.0588343,43.0983135]},"properties":{"leaf_type":"broadleaved","natural":"tree"}},
{"type":"Feature","geometry":{"type":"Point","coordinates":[-0.059022,43.0982645]},"properties":{"leaf_type":"broadleaved","natural":"tree"}},
{"type":"Feature","geometry":{"type":"Point","coordinates":[-0.0588262,43.0982019]},"properties":{"leaf_type":"broadleaved","natural":"tree"}},
{"type":"Feature","geometry":{"type":"Point","coordinates":[-0.0591588,43.0981725]},"properties":{"natural":"tree"}},
{"type":"Feature","geometry":{"type":"Point","coordinates":[-0.0593144,43.098149]},"properties":{"natural":"tree"}},
{"type":"Feature","geometry":{"type":"Point","coordinates":[-0.0588584,43.0985994]},"properties":{"natural":"tree"}},
{"type":"Feature","geometry":{"type":"Point","coordinates":[-0.0588074,43.0988913]},"properties":{"natural":"tree"}},
{"type":"Feature","geometry":{"type":"Point","coordinates":[-0.058845,43.0987796]},"properties":{"natural":"tree"}},
{"type":"Feature","geometry":{"type":"Point","coordinates":[-0.0590274,43.0988031]},"properties":{"natural":"tree"}},
{"type":"Feature","geometry":{"type":"Point","coordinates":[-0.0591561,43.0988403]},"properties":{"natural":"tree"}},
{"type":"Feature","geometry":{"type":"Point","coordinates":[-0.0592446,43.0988873]},"properties":{"natural":"tree"}},
{"type":"Feature","geometry":{"type":"Point","coordinates":[-0.0593975,43.0988736]},"properties":{"natural":"tree"}},
{"type":"Feature","geometry":{"type":"Point","coordinates":[-0.048469,43.0982567]},"properties":{"addr:housenumber":"61","addr:street":"Boulevard de la Grotte","name":"Hôtel Saint-Étienne","tourism":"hotel"}},
{"type":"Feature","geometry":{"type":"Point","coordinates":[-0.0329296,43.0866639]},"properties":{"ele":"660","name":"col des Trois Croix","natural":"saddle"}},
{"type":"Feature","geometry":{"type":"Point","coordinates":[-0.044649,43.0830028]},"properties":{"artwork_type":"installation","tourism":"artwork"}},
{"type":"Feature","geometry":{"type":"Point","coordinates":[-0.0563691,43.0862541]},"properties":{"leisure":"pitch","lit":"no","name":"Trial Club Lourdais","sport":"motocross","surface":"grass"}},
{"type":"Feature","geometry":{"type":"Point","coordinates":[-0.0533476,43.0898995]},"properties":{"elevator":"yes","internet_access":"wlan","internet_access:fee":"no","level":"3","name":"Hôtel Saint-Clair","smoking":"outside","stars":"2","tourism":"hotel","wheelchair":"no"}},
{"type":"Feature","geometry":{"type":"Point","coordinates":[-0.0780676,43.0710787]},"properties":{"historic":"wayside_cross"}},
{"type":"Feature","geometry":{"type":"Point","coordinates":[-0.0622299,43.0821576]},"properties":{"natural":"tree"}},
{"type":"Feature","geometry":{"type":"Point","coordinates":[-0.0625189,43.0819901]},"properties":{"natural":"tree"}},
{"type":"Feature","geometry":{"type":"Point","coordinates":[-0.0627208,43.0817913]},"properties":{"natural":"tree"}},
{"type":"Feature","geometry":{"type":"Point","coordinates":[-0.0681013,43.0860001]},"properties":{"denomination":"catholic","historic":"wayside_cross","religion":"christian"}},
{"type":"Feature","geometry":{"type":"Point","coordinates":[-0.0385057,43.0532585]},"properties":{"name":"Reservoir d'eau","natural":"water"}},
{"type":"Feature","geometry":{"type":"Point","coordinates":[-0.0527846,43.0991472]},"properties":{"name":"Villa L'Orante","tourism":"guest_house"}},
{"type":"Feature","geometry":{"type":"Point","coordinates":[-0.0446799,43.0836582]},"properties":{"email":"maisonsismique@gmail.com","fee":"no","mobile":"+33 6 26 43 33 35","name":"Maison de la Connaissance du Risque Sismique","phone":"+33 5 62 34 25 83","tourism":"museum","website":"https://www.c-prim.org/la-maison-sismique","wheelchair":"yes"}},
{"type":"Feature","geometry":{"type":"Point","coordinates":[-0.0560654,43.0978348]},"properties":{"colour":"white","historic":"memorial","material":"stone","memorial":"statue","name":"Saint Martin","name:hu":"Szent Márton"}},
{"type":"Feature","geometry":{"type":"Point","coordinates":[-0.0552561,43.0957137]},"properties":{"name:vi":"Pháp KS Sainte-Rose Lourdes","tourism":"guest_house"}},
{"type":"Feature","geometry":{"type":"Point","coordinates":[-0.0436224,43.0996451]},"properties":{"name:vi":"Pháp - quán ăn Chez Ly Việt Nam!","tourism":"guest_house"}},
{"type":"Feature","geometry":{"type":"Point","coordinates":[-0.044221,43.1006889]},"properties":{"name:vi":"Ga xe lửa Lourdes - Pháp","tourism":"guest_house"}},
{"type":"Feature","geometry":{"type":"Point","coordinates":[-0.0640646,43.0520558]},"properties":{"natural":"rock"}},
{"type":"Feature","geometry":{"type":"Point","coordinates":[-0.0651562,43.0529104]},"properties":{"natural":"rock"}},
{"type":"Feature","geometry":{"type":"Point","coordinates":[-0.0652716,43.0527732]},"properties":{"natural":"rock"}},
{"type":"Feature","geometry":{"type":"Point","coordinates":[-0.0628737,43.0543058]},"properties":{"natural":"rock"}},
{"type":"Feature","geometry":{"type":"Point","coordinates":[-0.0609183,43.0543666]},"properties":{"natural":"rock"}},
{"type":"Feature","geometry":{"type":"Point","coordinates":[-0.0600439,43.0543862]},"properties":{"natural":"rock"}},
{"type":"Feature","geometry":{"type":"Point","coordinates":[-0.0595182,43.0545528]},"properties":{"natural":"rock"}},
{"type":"Feature","geometry":{"type":"Point","coordinates":[-0.0599071,43.053855]},"properties":{"natural":"rock"}},
{"type":"Feature","geometry":{"type":"Point","coordinates":[-0.0594404,43.0538923]},"properties":{"natural":"rock"}},
{"type":"Feature","geometry":{"type":"Point","coordinates":[-0.0585017,43.0536943]},"properties":{"natural":"rock"}},
{"type":"Feature","geometry":{"type":"Point","coordinates":[-0.0588074,43.0537492]},"properties":{"natural":"rock"}},
{"type":"Feature","geometry":{"type":"Point","coordinates":[-0.0580832,43.0538374]},"properties":{"natural":"rock"}},
{"type":"Feature","geometry":{"type":"Point","coordinates":[-0.062061,43.0534454]},"properties":{"natural":"rock"}},
{"type":"Feature","geometry":{"type":"Point","coordinates":[-0.0636461,43.0529594]},"properties":{"natural":"rock"}},
{"type":"Feature","geometry":{"type":"Point","coordinates":[-0.0639278,43.0531514]},"properties":{"natural":"rock"}},
{"type":"Feature","geometry":{"type":"Point","coordinates":[-0.069083,43.0529417]},"properties":{"natural":"rock"}},
{"type":"Feature","geometry":{"type":"Point","coordinates":[-0.0699011,43.0528476]},"properties":{"natural":"rock"}},
{"type":"Feature","geometry":{"type":"Point","coordinates":[-0.0700191,43.0530652]},"properties":{"natural":"rock"}},
{"type":"Feature","geometry":{"type":"Point","coordinates":[-0.0698394,43.0532592]},"properties":{"natural":"rock"}},
{"type":"Feature","geometry":{"type":"Point","coordinates":[-0.0713602,43.0529143]},"properties":{"natural":"rock"}},
{"type":"Feature","geometry":{"type":"Point","coordinates":[-0.0709793,43.0529633]},"properties":{"natural":"rock"}},
{"type":"Feature","geometry":{"type":"Point","coordinates":[-0.0714165,43.0527751]},"properties":{"natural":"rock"}},
{"type":"Feature","geometry":{"type":"Point","coordinates":[-0.0709149,43.0527771]},"properties":{"natural":"rock"}},
{"type":"Feature","geometry":{"type":"Point","coordinates":[-0.0657544,43.0515188]},"properties":{"natural":"rock"}},
{"type":"Feature","geometry":{"type":"Point","coordinates":[-0.0655827,43.0515384]},"properties":{"natural":"rock"}},
{"type":"Feature","geometry":{"type":"Point","coordinates":[-0.0656363,43.0533494]},"properties":{"natural":"rock"}},
{"type":"Feature","geometry":{"type":"Point","coordinates":[-0.0632814,43.0540197]},"properties":{"natural":"rock"}},
{"type":"Feature","geometry":{"type":"Point","coordinates":[-0.0624874,43.0540746]},"properties":{"natural":"rock"}},
{"type":"Feature","geometry":{"type":"Point","coordinates":[-0.0622809,43.0540628]},"properties":{"natural":"rock"}},
{"type":"Feature","geometry":{"type":"Point","coordinates":[-0.0638795,43.0531671]},"properties":{"natural":"rock"}},
{"type":"Feature","geometry":{"type":"Point","coordinates":[-0.0590542,43.0532475]},"properties":{"natural":"rock"}},
{"type":"Feature","geometry":{"type":"Point","coordinates":[-0.0598052,43.0533121]},"properties":{"natural":"rock"}},
{"type":"Feature","geometry":{"type":"Point","coordinates":[-0.0600305,43.0533023]},"properties":{"natural":"rock"}},
{"type":"Feature","geometry":{"type":"Point","coordinates":[-0.0605401,43.0532004]},"properties":{"natural":"rock"}},
{"type":"Feature","geometry":{"type":"Point","coordinates":[-0.0594592,43.0536003]},"properties":{"natural":"rock"}},
{"type":"Feature","geometry":{"type":"Point","coordinates":[-0.0611812,43.0538256]},"properties":{"natural":"rock"}},
{"type":"Feature","geometry":{"type":"Point","coordinates":[-0.0614038,43.0538374]},"properties":{"natural":"rock"}},
{"type":"Feature","geometry":{"type":"Point","coordinates":[-0.0616291,43.0539374]},"properties":{"natural":"rock"}},
{"type":"Feature","geometry":{"type":"Point","coordinates":[-0.0619456,43.0538942]},"properties":{"natural":"rock"}},
{"type":"Feature","geometry":{"type":"Point","coordinates":[-0.0602666,43.053859]},"properties":{"natural":"rock"}},
{"type":"Feature","geometry":{"type":"Point","coordinates":[-0.0588825,43.053222]},"properties":{"natural":"rock"}},
{"type":"Feature","geometry":{"type":"Point","coordinates":[-0.0730366,43.0517775]},"properties":{"natural":"rock"}},
{"type":"Feature","geometry":{"type":"Point","coordinates":[-0.073168,43.0522205]},"properties":{"natural":"rock"}},
{"type":"Feature","geometry":{"type":"Point","coordinates":[-0.0518679,43.0972848]},"properties":{"denotation":"urban","leaf_cycle":"deciduous","leaf_type":"broadleaved","natural":"tree"}},
{"type":"Feature","geometry":{"type":"Point","coordinates":[-0.0519068,43.0972118]},"properties":{"denotation":"urban","leaf_cycle":"deciduous","leaf_type":"broadleaved","natural":"tree"}},
{"type":"Feature","geometry":{"type":"Point","coordinates":[-0.0521911,43.0971399]},"properties":{"denotation":"urban","leaf_cycle":"deciduous","leaf_type":"broadleaved","natural":"tree"}},
{"type":"Feature","geometry":{"type":"Point","coordinates":[-0.0521596,43.0971776]},"properties":{"denotation":"urban","leaf_cycle":"deciduous","leaf_type":"broadleaved","natural":"tree"}},
{"type":"Feature","geometry":{"type":"Point","coordinates":[-0.0519993,43.0970889]},"properties":{"denotation":"urban","leaf_cycle":"deciduous","leaf_type":"broadleaved","natural":"tree"}},
{"type":"Feature","geometry":{"type":"Point","coordinates":[-0.0517874,43.0975169]},"properties":{"denotation":"urban","leaf_cycle":"deciduous","leaf_type":"broadleaved","natural":"tree"}},
{"type":"Feature","geometry":{"type":"Point","coordinates":[-0.0585337,43.0975312]},"properties":{"artwork_subject":"Virgin Mary","denomination":"catholic","historic":"memorial","material":"stone","memorial":"statue","name":"Notre Dame de Lourdes","name:hr":"Gospa Lurdska","name:hu":"Loudes-i Szűz Mária","religion":"christian","start_date":"1858-02-11"}},
{"type":"Feature","geometry":{"type":"Point","coordinates":[-0.058735,43.0934895]},"properties":{"denotation":"urban","leaf_cycle":"deciduous","leaf_type":"broadleaved","natural":"tree"}},
{"type":"Feature","geometry":{"type":"Point","coordinates":[-0.0586331,43.0932819]},"properties":{"denotation":"urban","leaf_cycle":"deciduous","leaf_type":"broadleaved","natural":"tree"}},
{"type":"Feature","geometry":{"type":"Point","coordinates":[-0.0590247,43.0935209]},"properties":{"denotation":"urban","leaf_cycle":"deciduous","leaf_type":"broadleaved","natural":"tree"}},
{"type":"Feature","geometry":{"type":"Point","coordinates":[-0.0594418,43.0933563]},"properties":{"denotation":"urban","leaf_cycle":"deciduous","leaf_type":"broadleaved","natural":"tree"}},
{"type":"Feature","geometry":{"type":"Point","coordinates":[-0.0595531,43.0932897]},"properties":{"denotation":"urban","leaf_cycle":"deciduous","leaf_type":"broadleaved","natural":"tree"}},
{"type":"Feature","geometry":{"type":"Point","coordinates":[-0.0592795,43.0934572]},"properties":{"denotation":"urban","leaf_cycle":"deciduous","leaf_type":"broadleaved","natural":"tree"}},
{"type":"Feature","geometry":{"type":"Point","coordinates":[-0.0592916,43.0932966]},"properties":{"denotation":"urban","leaf_cycle":"deciduous","leaf_type":"broadleaved","natural":"tree"}},
{"type":"Feature","geometry":{"type":"Point","coordinates":[-0.0591575,43.0930478]},"properties":{"denotation":"urban","leaf_cycle":"deciduous","leaf_type":"broadleaved","natural":"tree"}},
{"type":"Feature","geometry":{"type":"Point","coordinates":[-0.0592352,43.0931712]},"properties":{"denotation":"urban","leaf_cycle":"deciduous","leaf_type":"broadleaved","natural":"tree"}},
{"type":"Feature","geometry":{"type":"Point","coordinates":[-0.0590636,43.0929656]},"properties":{"denotation":"urban","leaf_cycle":"deciduous","leaf_type":"broadleaved","natural":"tree"}},
{"type":"Feature","geometry":{"type":"Point","coordinates":[-0.0592634,43.0929656]},"properties":{"denotation":"urban","leaf_cycle":"deciduous","leaf_type":"broadleaved","natural":"tree"}},
{"type":"Feature","geometry":{"type":"Point","coordinates":[-0.0591226,43.0928402]},"properties":{"denotation":"urban","leaf_cycle":"deciduous","leaf_type":"broadleaved","natural":"tree"}},
{"type":"Feature","geometry":{"type":"Point","coordinates":[-0.0596724,43.092424]},"properties":{"denotation":"urban","leaf_cycle":"deciduous","leaf_type":"broadleaved","natural":"tree"}},
{"type":"Feature","geometry":{"type":"Point","coordinates":[-0.0599246,43.0927129]},"properties":{"denotation":"urban","leaf_cycle":"deciduous","leaf_type":"broadleaved","natural":"tree"}},
{"type":"Feature","geometry":{"type":"Point","coordinates":[-0.0562057,43.0872842]},"properties":{"denotation":"urban","leaf_cycle":"deciduous","leaf_type":"broadleaved","natural":"tree"}},
{"type":"Feature","geometry":{"type":"Point","coordinates":[-0.0568709,43.0889942]},"properties":{"denotation":"urban","leaf_cycle":"deciduous","leaf_type":"broadleaved","natural":"tree"}},
{"type":"Feature","geometry":{"type":"Point","coordinates":[-0.0571176,43.088244]},"properties":{"denotation":"urban","leaf_cycle":"deciduous","leaf_type":"broadleaved","natural":"tree"}},
{"type":"Feature","geometry":{"type":"Point","coordinates":[-0.0560984,43.0882861]},"properties":{"denotation":"urban","leaf_cycle":"deciduous","leaf_type":"broadleaved","natural":"tree"}},
{"type":"Feature","geometry":{"type":"Point","coordinates":[-0.051147,43.0861892]},"properties":{"denotation":"urban","leaf_cycle":"deciduous","leaf_type":"broadleaved","natural":"tree"}},