{"type":"FeatureCollection","features":[
{"type":"Feature","geometry":{"type":"Point","coordinates":[0.8434471,42.9610927]},"properties":{"ele":"1608","name":"Pic de Paloumère","natural":"peak"}},
{"type":"Feature","geometry":{"type":"Point","coordinates":[0.902289,42.8030264]},"properties":{"ele":"2583.3","name":"Tuc de Comenges","natural":"peak","source":"Instituto Geográfico Nacional","source:date":"201011","wikidata":"Q11953280"}},
{"type":"Feature","geometry":{"type":"Point","coordinates":[0.9171433,42.7937503]},"properties":{"ele":"2881.6","name":"Tuc de Maubèrme","name:ca":"Tuc de Maubèrme","name:oc":"Tuc de Maubèrme","natural":"peak","prominence":"796","ref":"ftp://geofons.icc.cat/fitxes/100CIMS/259058006.pdf","source":"Institut Cartogràfic i Geològic de Catalunya","source:name:oc":"ieo-bdtopoc","source:prominence":"2882-2086 (Port de Salau)","wikidata":"Q11953291","wikipedia":"es:Mauberme"}},
{"type":"Feature","geometry":{"type":"Point","coordinates":[0.8343998,42.8284967]},"properties":{"ele":"2099.5","name":"Pas dera Comassa","name:ca":"Pas dera Comassa","name:oc":"Pas dera Comassa","natural":"saddle","source:name:oc":"ieo-bdtopoc"}},
{"type":"Feature","geometry":{"type":"Point","coordinates":[0.8468548,42.8285955]},"properties":{"ele":"2393.4","name":"Tuc dera Comassa","name:ca":"Tuc dera Comassa","name:oc":"Tuc dera Comassa","natural":"peak","source:name:oc":"ieo-bdtopoc","wikidata":"Q17481756"}},
{"type":"Feature","geometry":{"type":"Point","coordinates":[0.8107448,42.8387069]},"properties":{"ele":"2115.5","name":"Pica de Horadic","name:ca":"Pica de Horadic","name:oc":"Pica de Horadic","natural":"peak","source:name:oc":"ieo-bdtopoc","wikidata":"Q11941570"}},
{"type":"Feature","geometry":{"type":"Point","coordinates":[0.7614593,42.8427695]},"properties":{"ele":"1648","name":"Tuc de Comagrana","name:ca":"Tuc de Comagrana","name:oc":"Tuc de Comagrana","natural":"peak","source:name:oc":"ieo-bdtopoc","wikidata":"Q11953276","wikipedia":"ca:Tuc de Comagrana"}},
{"type":"Feature","geometry":{"type":"Point","coordinates":[0.8121161,42.8380317]},"properties":{"ele":"2079.6","name":"Pas de Shò","name:ca":"Pas de Shò","name:oc":"Pas de Shò","natural":"saddle","source:name:oc":"ieo-bdtopoc"}},
{"type":"Feature","geometry":{"type":"Point","coordinates":[0.8545842,42.9560333]},"properties":{"ele":"1554","name":"Tuc de Haurades","natural":"peak"}},
{"type":"Feature","geometry":{"type":"Point","coordinates":[0.8216633,43.0339861]},"properties":{"historic":"memorial"}},
{"type":"Feature","geometry":{"type":"Point","coordinates":[0.859486,43.0161025]},"properties":{"ele":"704","mountain_pass":"yes","name":"Col de Larrieu","natural":"saddle"}},
{"type":"Feature","geometry":{"type":"Point","coordinates":[0.8537083,42.9447507]},"properties":{"ele":"1069","mountain_pass":"yes","name":"Col de Portet d'Aspet","natural":"saddle","wikidata":"Q1107409","wikipedia":"fr:Col de Portet-d'Aspet"}},
{"type":"Feature","geometry":{"type":"Point","coordinates":[0.802726,43.0145591]},"properties":{"artwork_subject":"André Bouéry","artwork_type":"statue","historic":"statue","name":"André Bouéry","tourism":"artwork"}},
{"type":"Feature","geometry":{"type":"Point","coordinates":[0.848742,42.956453]},"properties":{"ele":"1478","mountain_pass":"yes","name":"Col des Passagers","natural":"saddle"}},
{"type":"Feature","geometry":{"type":"Point","coordinates":[0.8461011,42.959047]},"properties":{"name":"Puits de la Hajolle","natural":"cave_entrance"}},
{"type":"Feature","geometry":{"type":"Point","coordinates":[0.8356349,42.8707856]},"properties":{"ele":"2148","name":"Cap de Gauch","natural":"peak"}},
{"type":"Feature","geometry":{"type":"Point","coordinates":[0.866297,42.8847921]},"properties":{"capacity":"4","description":"2019-01 : Cabane d'estive en partie ouverte aux randonneurs. Equipée d'1 table de pique-nique et de ses bancs, 1 cheminée et 1 mezzanine sur laquelle on monte grâce à un tronc d'arbre","ele":"1600","fireplace":"yes","name":"Cabane de l'Herbe-Soulette","note":"550","ref:refuges.info":"6222","source":"Association \"Refuges et cabanes des Pyrénées\"","stove":"no","tourism":"wilderness_hut"}},
{"type":"Feature","geometry":{"type":"Point","coordinates":[0.8683983,42.8402371]},"properties":{"historic":"ruins","name":"Cabane de la Vieille - castillonais","note":"567","source":"Association \"Refuges et cabanes des Pyrénées\""}},
{"type":"Feature","geometry":{"type":"Point","coordinates":[0.9684645,42.8268246]},"properties":{"beds":"4","capacity":"4","description":"2021-07 : Cabane pastorale ouverte, située à coté d'une autre cabane réservée au berger; Équipement intérieur : - 1 cheminée - 2 tables + bancs - 1 chaise - Éclairage - Prise électrique. A l'étage : - 4 matelas plus plus ou moins usagés","ele":"1638","fireplace":"yes","name":"Cabane de l'Arech","note":"533","ref:refuges.info":"7757","source":"Association \"Refuges et cabanes des Pyrénées\"","stove":"no","tourism":"wilderness_hut","website":"https://www.pyrenees-refuges.com/fr/affiche.php?numenr=533"}},
{"type":"Feature","geometry":{"type":"Point","coordinates":[0.8812508,42.8574567]},"properties":{"capacity":"2","description":"2020-06 : Refuge ouvert, à droite du refuge Forestier ONF. Équipement intérieur : - 2 tables - 1 banc - Cheminée - 2 lits superposés avec matelas et couvertures. Équipement extérieur : - Table + bancs","ele":"1410","fireplace":"yes","name":"Refuge Forestier ONF de la Fontaine de l'Isard","note":"174","ref:refuges.info":"6999","source":"Association \"Refuges et cabanes des Pyrénées\"","stove":"no","tourism":"wilderness_hut"}},
{"type":"Feature","geometry":{"type":"Point","coordinates":[0.8582133,42.8256902]},"properties":{"ele":"2630","name":"Pic du Crabere","natural":"peak","wikidata":"Q3382364"}},
{"type":"Feature","geometry":{"type":"Point","coordinates":[0.9750377,42.8979592]},"properties":{"ele":"1674","name":"Pic de l'Arraing","natural":"peak"}},
{"type":"Feature","geometry":{"type":"Point","coordinates":[0.9298411,42.9662112]},"properties":{"ele":"1396","name":"Tuc de Piscatelle","natural":"peak"}},
{"type":"Feature","geometry":{"type":"Point","coordinates":[0.9049173,42.8939295]},"properties":{"ele":"1637","name":"Tuc de Nédé","natural":"peak"}},
{"type":"Feature","geometry":{"type":"Point","coordinates":[0.8016691,42.8405672]},"properties":{"ele":"2034","name":"Cap de la Pique","name:es":"Era Pica","name:fr":"Cap de la Pique","natural":"peak","wikidata":"Q17481925"}},
{"type":"Feature","geometry":{"type":"Point","coordinates":[0.8593455,42.8696104]},"properties":{"ele":"2210","name":"Pic de la Calabasse","natural":"peak"}},
{"type":"Feature","geometry":{"type":"Point","coordinates":[0.8278688,42.9172363]},"properties":{"ele":"1669","name":"Le Puech","natural":"peak"}},
{"type":"Feature","geometry":{"type":"Point","coordinates":[0.8954148,42.8347803]},"properties":{"ele":"2424","name":"Pic de l'Har","natural":"peak"}},
{"type":"Feature","geometry":{"type":"Point","coordinates":[0.8904519,42.957901]},"properties":{"ele":"1561","name":"Sommet de Cournudère","natural":"peak"}},
{"type":"Feature","geometry":{"type":"Point","coordinates":[0.943351,42.8994452]},"properties":{"ele":"1720","name":"Tuc de Sérau","natural":"peak"}},
{"type":"Feature","geometry":{"type":"Point","coordinates":[0.886055,42.8680104]},"properties":{"ele":"2082","name":"Pic de Paumaudé","natural":"peak"}},
{"type":"Feature","geometry":{"type":"Point","coordinates":[1.0072369,42.8059054]},"properties":{"ele":"2427","name":"Tuc de Pourtillou","natural":"peak"}},
{"type":"Feature","geometry":{"type":"Point","coordinates":[0.8485725,42.8572377]},"properties":{"ele":"2128","name":"Pic de Pièle de Mil","natural":"peak"}},
{"type":"Feature","geometry":{"type":"Point","coordinates":[1.006467,42.8198369]},"properties":{"ele":"2033","name":"Cap de Raspe","natural":"peak"}},
{"type":"Feature","geometry":{"type":"Point","coordinates":[0.9619538,42.8174495]},"properties":{"ele":"2196","name":"Tuc de Cagonille","natural":"peak"}},
{"type":"Feature","geometry":{"type":"Point","coordinates":[0.8664373,42.9725465]},"properties":{"name":"Gouffre de la Henne Morte","natural":"cave_entrance"}},
{"type":"Feature","geometry":{"type":"Point","coordinates":[0.883226,42.9777275]},"properties":{"name":"Trou souffleur de la Buhada dech Gandil","natural":"cave_entrance"}},
{"type":"Feature","geometry":{"type":"Point","coordinates":[1.0043193,42.8306209]},"properties":{"ele":"1890","name":"Tuc du Coucou","natural":"peak"}},
{"type":"Feature","geometry":{"type":"Point","coordinates":[0.9640392,42.8535158]},"properties":{"ele":"1759","name":"Pic de Courbayran","natural":"peak"}},
{"type":"Feature","geometry":{"type":"Point","coordinates":[1.0043485,43.0050767]},"properties":{"man_made":"cross"}},
{"type":"Feature","geometry":{"type":"Point","coordinates":[0.8218531,42.873611]},"properties":{"ele":"1936","name":"Pic de Pale Bidau","natural":"peak"}},
{"type":"Feature","geometry":{"type":"Point","coordinates":[0.8330512,42.9069558]},"properties":{"ele":"1443","name":"Col du Piéjau","natural":"saddle"}},
{"type":"Feature","geometry":{"type":"Point","coordinates":[0.8521236,42.9878697]},"properties":{"ele":"1317","name":"Rochers de Pène Nère","natural":"peak"}},
{"type":"Feature","geometry":{"type":"Point","coordinates":[0.8503761,42.981841]},"properties":{"ele":"1358","name":"Sommet de la Husse","natural":"peak"}},
{"type":"Feature","geometry":{"type":"Point","coordinates":[1.0126077,42.9145702]},"properties":{"ele":"740","name":"Col d'Argein","natural":"saddle"}},
{"type":"Feature","geometry":{"type":"Point","coordinates":[0.8247135,42.8317253]},"properties":{"ele":"2013.5","name":"Cap dera Maleda","name:ca":"Cap dera Maleda","name:oc":"Cap dera Maleda","natural":"peak","source":"Instituto Geográfico Nacional","source:date":"201011","wikidata":"Q11912155"}},
{"type":"Feature","geometry":{"type":"Point","coordinates":[0.8635891,42.8200195]},"properties":{"ele":"2656.5","name":"Tuc de Canejan","natural":"peak","prominence":"201","source":"Instituto Geográfico Nacional","source:date":"201011","source:prominence":"ICGC map. Key col: Portilhon d’Albi 2456m","wikidata":"Q11953275"}},
{"type":"Feature","geometry":{"type":"Point","coordinates":[0.8510135,42.8270263]},"properties":{"ele":"2399","name":"Cap deth Malh de Cristalh","name:ca":"Cap deth Malh de Cristalh","name:oc":"Cap deth Malh de Cristalh","natural":"peak","source":"Instituto Geográfico Nacional","source:date":"201011","wikidata":"Q11912169"}},
{"type":"Feature","geometry":{"type":"Point","coordinates":[0.8853619,42.813222]},"properties":{"ele":"2714.8","name":"Tuc dera Sèrra Nauta","name:ca":"Tuc dera Sèrra Nauta","name:fr":"Pic de Serre-Haute","name:oc":"Tuc dera Sèrra Nauta","natural":"peak","prominence":"301","source":"Instituto Geográfico Nacional","source:date":"201011","source:prominence":"CNIG map. Key col: 2414m"}},
{"type":"Feature","geometry":{"type":"Point","coordinates":[0.9042359,42.8018405]},"properties":{"ele":"2641","name":"Tuc de Tarterau","name:ca":"Tuc de Tarterau","name:oc":"Tuc de Tarterau","natural":"peak","source":"Instituto Geográfico Nacional","source:date":"201011","wikidata":"Q17483646"}},
{"type":"Feature","geometry":{"type":"Point","coordinates":[0.8709295,42.8156707]},"properties":{"ele":"2646.2","name":"Tuc Blanc deth Portilhon","name:ca":"Tuc Blanc deth Portilhon","name:oc":"Tuc Blanc deth Portilhon","natural":"peak","source":"Instituto Geográfico Nacional","source:date":"201011","wikidata":"Q17481359"}},
{"type":"Feature","geometry":{"type":"Point","coordinates":[0.8652907,42.9827587]},"properties":{"name":"Cascade de Planque","waterway":"waterfall"}},
{"type":"Feature","geometry":{"type":"Point","coordinates":[0.8602371,42.8355152]},"properties":{"ele":"2176","mountain_pass":"yes","name":"Col d'Auéran","natural":"saddle"}},
{"type":"Feature","geometry":{"type":"Point","coordinates":[0.9264499,43.0042626]},"properties":{"ele":"689","name":"Col d'Arbas","natural":"saddle"}},
{"type":"Feature","geometry":{"type":"Point","coordinates":[0.9577019,42.8127792]},"properties":{"ele":"2489","name":"Tuc de la Coume de Lauze","natural":"peak"}},
{"type":"Feature","geometry":{"type":"Point","coordinates":[0.9648903,42.8274804]},"properties":{"ele":"1802","mountain_pass":"yes","name":"Col de l'Arech","natural":"saddle"}},
{"type":"Feature","geometry":{"type":"Point","coordinates":[0.8424499,42.9316684]},"properties":{"ele":"1206","mountain_pass":"yes","name":"Col de la Bène","natural":"saddle"}},
{"type":"Feature","geometry":{"type":"Point","coordinates":[0.7981789,43.0380293]},"properties":{"ele":"710","name":"Mont Pourcet","natural":"peak"}},
{"type":"Feature","geometry":{"type":"Point","coordinates":[0.9649184,42.9003452]},"properties":{"ele":"1675","name":"Pic de Moussaou","natural":"peak"}},
{"type":"Feature","geometry":{"type":"Point","coordinates":[0.9450879,42.8420225]},"properties":{"operator":"RTE","operator:wikidata":"Q2178795","power":"tower"}},
{"type":"Feature","geometry":{"type":"Point","coordinates":[0.8657941,42.9407172]},"properties":{"historic":"memorial","memorial":"war_memorial"}},
{"type":"Feature","geometry":{"type":"Point","coordinates":[0.8954433,42.9287773]},"properties":{"tourism":"picnic_site"}},
{"type":"Feature","geometry":{"type":"Point","coordinates":[1.0311686,42.8320145]},"properties":{"name":"Réserve domaniale du Mont Vallier","tourism":"viewpoint"}},
{"type":"Feature","geometry":{"type":"Point","coordinates":[0.8751784,42.9576549]},"properties":{"ele":"1579","name":"Tuc du Tucol","natural":"peak"}},
{"type":"Feature","geometry":{"type":"Point","coordinates":[0.9987917,42.9487214]},"properties":{"ele":"882","name":"Col de la Croix de Bourrudech","natural":"saddle"}},
{"type":"Feature","geometry":{"type":"Point","coordinates":[1.0584755,42.7820086]},"properties":{"ele":"2584.2","name":"Pic de Cernalles","natural":"peak","source":"Institut Cartogràfic i Geològic de Catalunya","wikidata":"Q11941457","wikipedia":"ca:Pic de Cernalles"}},
{"type":"Feature","geometry":{"type":"Point","coordinates":[1.0115625,43.0309195]},"properties":{"natural":"tree"}},
{"type":"Feature","geometry":{"type":"Point","coordinates":[1.0116571,43.0309195]},"properties":{"natural":"tree"}},
{"type":"Feature","geometry":{"type":"Point","coordinates":[1.0114479,43.0309268]},"properties":{"natural":"tree"}},
{"type":"Feature","geometry":{"type":"Point","coordinates":[1.0113309,43.0309377]},"properties":{"natural":"tree"}},
{"type":"Feature","geometry":{"type":"Point","coordinates":[1.0112089,43.0309431]},"properties":{"natural":"tree"}},
{"type":"Feature","geometry":{"type":"Point","coordinates":[1.0109051,43.0309941]},"properties":{"natural":"tree"}},
{"type":"Feature","geometry":{"type":"Point","coordinates":[1.0117044,43.0310232]},"properties":{"natural":"tree"}},
{"type":"Feature","geometry":{"type":"Point","coordinates":[1.0106313,43.0310505]},"properties":{"natural":"tree"}},
{"type":"Feature","geometry":{"type":"Point","coordinates":[1.0105068,43.0310742]},"properties":{"natural":"tree"}},
{"type":"Feature","geometry":{"type":"Point","coordinates":[1.0117218,43.0310942]},"properties":{"natural":"tree"}},
{"type":"Feature","geometry":{"type":"Point","coordinates":[1.0103848,43.0310997]},"properties":{"natural":"tree"}},
{"type":"Feature","geometry":{"type":"Point","coordinates":[1.0102628,43.0311342]},"properties":{"natural":"tree"}},
{"type":"Feature","geometry":{"type":"Point","coordinates":[1.0102926,43.0312271]},"properties":{"natural":"tree"}},
{"type":"Feature","geometry":{"type":"Point","coordinates":[1.0113638,43.0312508]},"properties":{"natural":"tree"}},
{"type":"Feature","geometry":{"type":"Point","coordinates":[1.0117818,43.0312617]},"properties":{"natural":"tree"}},
{"type":"Feature","geometry":{"type":"Point","coordinates":[1.0103225,43.0313126]},"properties":{"natural":"tree"}},
{"type":"Feature","geometry":{"type":"Point","coordinates":[1.0106342,43.0313527]},"properties":{"natural":"tree"}},
{"type":"Feature","geometry":{"type":"Point","coordinates":[1.0118135,43.0313698]},"properties":{"natural":"tree"}},
{"type":"Feature","geometry":{"type":"Point","coordinates":[1.0103698,43.0314509]},"properties":{"natural":"tree"}},
{"type":"Feature","geometry":{"type":"Point","coordinates":[1.011854,43.0314856]},"properties":{"natural":"tree"}},
{"type":"Feature","geometry":{"type":"Point","coordinates":[1.011736,43.0315049]},"properties":{"natural":"tree"}},
{"type":"Feature","geometry":{"type":"Point","coordinates":[1.0116216,43.0315255]},"properties":{"natural":"tree"}},
{"type":"Feature","geometry":{"type":"Point","coordinates":[1.0104022,43.0315383]},"properties":{"natural":"tree"}},
{"type":"Feature","geometry":{"type":"Point","coordinates":[1.0115019,43.0315448]},"properties":{"natural":"tree"}},
{"type":"Feature","geometry":{"type":"Point","coordinates":[1.0113804,43.0315616]},"properties":{"natural":"tree"}},
{"type":"Feature","geometry":{"type":"Point","coordinates":[1.0112765,43.0315821]},"properties":{"natural":"tree"}},
{"type":"Feature","geometry":{"type":"Point","coordinates":[1.011148,43.031604]},"properties":{"natural":"tree"}},
{"type":"Feature","geometry":{"type":"Point","coordinates":[1.0110336,43.0316195]},"properties":{"natural":"tree"}},
{"type":"Feature","geometry":{"type":"Point","coordinates":[1.0104395,43.031622]},"properties":{"natural":"tree"}},
{"type":"Feature","geometry":{"type":"Point","coordinates":[1.0109226,43.0316375]},"properties":{"natural":"tree"}},
{"type":"Feature","geometry":{"type":"Point","coordinates":[1.0108117,43.0316504]},"properties":{"natural":"tree"}},
{"type":"Feature","geometry":{"type":"Point","coordinates":[1.0106973,43.0316671]},"properties":{"natural":"tree"}},
{"type":"Feature","geometry":{"type":"Point","coordinates":[1.0105811,43.0316838]},"properties":{"natural":"tree"}},
{"type":"Feature","geometry":{"type":"Point","coordinates":[1.0104669,43.0316985]},"properties":{"natural":"tree"}},
{"type":"Feature","geometry":{"type":"Point","coordinates":[0.9371215,42.8333298]},"properties":{"historic":"mine","name":"Site minier du Bocard"}},
{"type":"Feature","geometry":{"type":"Point","coordinates":[0.8142912,43.0461017]},"properties":{"name":"Aire naturelle de camping","operator":"Mairie de Couret","source":"cadastre-dgi-fr source : Direction Générale des Impôts - Cadastre. Mise à jour : 2014; Bing; knowlegde of the terrain","tourism":"camp_site"}},
{"type":"Feature","geometry":{"type":"Point","coordinates":[0.8141795,43.0460217]},"properties":{"natural":"tree","source":"cadastre-dgi-fr source : Direction Générale des Impôts - Cadastre. Mise à jour : 2014; Bing; knowlegde of the terrain"}},
{"type":"Feature","geometry":{"type":"Point","coordinates":[0.8124274,43.0460385]},"properties":{"natural":"tree","source":"cadastre-dgi-fr source : Direction Générale des Impôts - Cadastre. Mise à jour : 2014; Bing; knowlegde of the terrain"}},
{"type":"Feature","geometry":{"type":"Point","coordinates":[0.8141514,43.0461518]},"properties":{"natural":"tree","source":"cadastre-dgi-fr source : Direction Générale des Impôts - Cadastre. Mise à jour : 2014; Bing; knowlegde of the terrain"}},
{"type":"Feature","geometry":{"type":"Point","coordinates":[0.814228,43.0461567]},"properties":{"source":"cadastre-dgi-fr source : Direction Générale des Impôts - Cadastre. Mise à jour : 2014; Bing; knowlegde of the terrain","tourism":"picnic_site"}},
{"type":"Feature","geometry":{"type":"Point","coordinates":[0.8140124,43.0461671]},"properties":{"natural":"tree","source":"cadastre-dgi-fr source : Direction Générale des Impôts - Cadastre. Mise à jour : 2014; Bing; knowlegde of the terrain"}},
{"type":"Feature","geometry":{"type":"Point","coordinates":[0.8142688,43.0462028]},"properties":{"natural":"tree","source":"cadastre-dgi-fr source : Direction Générale des Impôts - Cadastre. Mise à jour : 2014; Bing; knowlegde of the terrain"}},
{"type":"Feature","geometry":{"type":"Point","coordinates":[0.8145048,43.046259]},"properties":{"natural":"tree","source":"cadastre-dgi-fr source : Direction Générale des Impôts - Cadastre. Mise à jour : 2014; Bing; knowlegde of the terrain"}},
{"type":"Feature","geometry":{"type":"Point","coordinates":[0.8142535,43.0463572]},"properties":{"natural":"tree","source":"cadastre-dgi-fr source : Direction Générale des Impôts - Cadastre. Mise à jour : 2014; Bing; knowlegde of the terrain"}},
{"type":"Feature","geometry":{"type":"Point","coordinates":[0.8130193,43.0463905]},"properties":{"natural":"tree","source":"cadastre-dgi-fr source : Direction Générale des Impôts - Cadastre. Mise à jour : 2014; Bing; knowlegde of the terrain"}},
{"type":"Feature","geometry":{"type":"Point","coordinates":[0.8127973,43.0464492]},"properties":{"natural":"tree","source":"cadastre-dgi-fr source : Direction Générale des Impôts - Cadastre. Mise à jour : 2014; Bing; knowlegde of the terrain"}},
{"type":"Feature","geometry":{"type":"Point","coordinates":[0.8129376,43.0464619]},"properties":{"natural":"tree","source":"cadastre-dgi-fr source : Direction Générale des Impôts - Cadastre. Mise à jour : 2014; Bing; knowlegde of the terrain"}},
{"type":"Feature","geometry":{"type":"Point","coordinates":[0.8144869,43.046472]},"properties":{"natural":"tree","source":"cadastre-dgi-fr source : Direction Générale des Impôts - Cadastre. Mise à jour : 2014; Bing; knowlegde of the terrain"}},
{"type":"Feature","geometry":{"type":"Point","coordinates":[0.8145583,43.0465549]},"properties":{"natural":"tree","source":"cadastre-dgi-fr source : Direction Générale des Impôts - Cadastre. Mise à jour : 2014; Bing; knowlegde of the terrain"}},
{"type":"Feature","geometry":{"type":"Point","coordinates":[0.813282,43.0466405]},"properties":{"natural":"tree","source":"cadastre-dgi-fr source : Direction Générale des Impôts - Cadastre. Mise à jour : 2014; Bing; knowlegde of the terrain"}},
{"type":"Feature","geometry":{"type":"Point","coordinates":[0.8136091,43.0466592]},"properties":{"leisure":"pitch","sport":"table_tennis"}},
{"type":"Feature","geometry":{"type":"Point","coordinates":[0.8145979,43.0467934]},"properties":{"natural":"tree","source":"cadastre-dgi-fr source : Direction Générale des Impôts - Cadastre. Mise à jour : 2014; Bing; knowlegde of the terrain"}},
{"type":"Feature","geometry":{"type":"Point","coordinates":[0.8840701,42.8482094]},"properties":{"information":"guidepost","source":"GPS","tourism":"information"}},
{"type":"Feature","geometry":{"type":"Point","coordinates":[0.8984562,42.8058749]},"properties":{"ele":"2413","name":"Pòrt dera Horqueta","name:ca":"Pòrt dera Horqueta","name:oc":"Pòrt dera Horqueta","natural":"saddle","wikidata":"Q49146455","wikipedia":"fr:Port de la Hourquette"}},
{"type":"Feature","geometry":{"type":"Point","coordinates":[0.817768,42.834594]},"properties":{"ele":"2075.2","name":"Tuc de Barrièr","name:ca":"Tuc de Barrièr","name:oc":"Tuc de Barrièr","natural":"peak"}},
{"type":"Feature","geometry":{"type":"Point","coordinates":[0.8241272,42.8316942]},"properties":{"ele":"2093.5","name":"Pas de Bacivèr","name:ca":"Pas de Bacivèr","name:oc":"Pas de Bacivèr","natural":"saddle"}},
{"type":"Feature","geometry":{"type":"Point","coordinates":[1.0226121,42.9290193]},"properties":{"name":"Relay des 2 rivieres","tourism":"guest_house"}},
{"type":"Feature","geometry":{"type":"Point","coordinates":[0.8668419,42.9396374]},"properties":{"name":"Gite Etape Chez Jo","tourism":"alpine_hut"}},
{"type":"Feature","geometry":{"type":"Point","coordinates":[0.9077467,42.7968478]},"properties":{"ele":"2503","name":"Pòrt de Tarterau","name:ca":"Pòrt de Tarterau","name:oc":"Pòrt de Tarterau","natural":"saddle"}},
{"type":"Feature","geometry":{"type":"Point","coordinates":[1.0204107,43.0031987]},"properties":{"name":"Résurgence de Cassagnous","natural":"cave_entrance","source":"data.gouv.fr:Le ministère des droits des femmes, de la ville, de la jeunesse et des sports - 2014"}},
{"type":"Feature","geometry":{"type":"Point","coordinates":[1.0186154,43.0032073]},"properties":{"name":"Gouffre de Cassagnous","natural":"cave_entrance","source":"data.gouv.fr:Le ministère des droits des femmes, de la ville, de la jeunesse et des sports - 2014"}},
{"type":"Feature","geometry":{"type":"Point","coordinates":[1.0100583,42.9959898]},"properties":{"name":"Grotte de l'Estelas","name:fr":"Grotte de l'ours","natural":"cave_entrance","source":"data.gouv.fr:Le ministère des droits des femmes, de la ville, de la jeunesse et des sports - 2014"}},
{"type":"Feature","geometry":{"type":"Point","coordinates":[1.0221204,42.9839945]},"properties":{"name":"Gouffre du Mail Traucat","natural":"cave_entrance","source":"data.gouv.fr:Le ministère des droits des femmes, de la ville, de la jeunesse et des sports - 2014"}},
{"type":"Feature","geometry":{"type":"Point","coordinates":[1.0278604,43.0187044]},"properties":{"heritage":"3","heritage:operator":"mhs","mhs:inscription_date":"1999-06-21","name":"Site archéologique de la grotte de Mongautin","natural":"cave_entrance","ref:mhs":"PA09000010","source":"data.gouv.fr:Ministère de la Culture - 08/2011","source:heritage":"data.gouv.fr:Ministère de la Culture - 04/2015","wikidata":"Q22976226","wikipedia":"fr:Site archéologique de la grotte de Mongautin"}},
{"type":"Feature","geometry":{"type":"Point","coordinates":[1.0213278,43.031136]},"properties":{"denomination":"catholic","historic":"wayside_cross","religion":"christian"}},
{"type":"Feature","geometry":{"type":"Point","coordinates":[1.0190666,43.0274878]},"properties":{"leisure":"playground"}},
{"type":"Feature","geometry":{"type":"Point","coordinates":[0.9840771,42.9735744]},"properties":{"name":"Gouffre du Bagagès","natural":"cave_entrance","source":"data.gouv.fr:Le ministère des droits des femmes, de la ville, de la jeunesse et des sports - 2014"}},
{"type":"Feature","geometry":{"type":"Point","coordinates":[0.9905483,42.9747471]},"properties":{"name":"Gouffre de la Coume Ferrat","natural":"cave_entrance","source":"data.gouv.fr:Le ministère des droits des femmes, de la ville, de la jeunesse et des sports - 2014"}},
{"type":"Feature","geometry":{"type":"Point","coordinates":[1.0108458,42.9689719]},"properties":{"name":"Trou de la Pause","natural":"cave_entrance","source":"data.gouv.fr:Le ministère des droits des femmes, de la ville, de la jeunesse et des sports - 2014"}},
{"type":"Feature","geometry":{"type":"Point","coordinates":[1.0305078,42.9564385]},"properties":{"name":"Grotte de Sainte-Catherine","natural":"cave_entrance","source":"data.gouv.fr:Le ministère des droits des femmes, de la ville, de la jeunesse et des sports - 2014"}},
{"type":"Feature","geometry":{"type":"Point","coordinates":[1.0192799,42.9561936]},"properties":{"name":"Gouffre de la Peyrère","natural":"cave_entrance","source":"data.gouv.fr:Le ministère des droits des femmes, de la ville, de la jeunesse et des sports - 2014"}},
{"type":"Feature","geometry":{"type":"Point","coordinates":[1.0298966,42.9385137]},"properties":{"free_flying:site":"landing","leisure":"sports_centre","name":"Aire d'atterrissage, Route de Castillon","source":"data.gouv.fr:Le ministère des droits des femmes, de la ville, de la jeunesse et des sports - 2014","sport":"free_flying"}},
{"type":"Feature","geometry":{"type":"Point","coordinates":[1.0179863,43.0298576]},"properties":{"natural":"tree"}},
{"type":"Feature","geometry":{"type":"Point","coordinates":[1.0178992,43.0298654]},"properties":{"natural":"tree"}},
{"type":"Feature","geometry":{"type":"Point","coordinates":[1.0178122,43.0298731]},"properties":{"natural":"tree"}},
{"type":"Feature","geometry":{"type":"Point","coordinates":[1.0179898,43.0299667]},"properties":{"natural":"tree"}},
{"type":"Feature","geometry":{"type":"Point","coordinates":[1.0178962,43.02997]},"properties":{"natural":"tree"}},
{"type":"Feature","geometry":{"type":"Point","coordinates":[1.0178026,43.0299734]},"properties":{"natural":"tree"}},
{"type":"Feature","geometry":{"type":"Point","coordinates":[1.0179931,43.0300722]},"properties":{"natural":"tree"}},
{"type":"Feature","geometry":{"type":"Point","coordinates":[1.0178714,43.030074]},"properties":{"natural":"tree"}},
{"type":"Feature","geometry":{"type":"Point","coordinates":[1.0177496,43.0300759]},"properties":{"natural":"tree"}},
{"type":"Feature","geometry":{"type":"Point","coordinates":[1.0179965,43.0301773]},"properties":{"natural":"tree"}},
{"type":"Feature","geometry":{"type":"Point","coordinates":[1.0179032,43.0301797]},"properties":{"natural":"tree"}},
{"type":"Feature","geometry":{"type":"Point","coordinates":[1.0178099,43.030182]},"properties":{"natural":"tree"}},
{"type":"Feature","geometry":{"type":"Point","coordinates":[1.0177166,43.0301844]},"properties":{"natural":"tree"}},
{"type":"Feature","geometry":{"type":"Point","coordinates":[1.0179998,43.0302815]},"properties":{"natural":"tree"}},
{"type":"Feature","geometry":{"type":"Point","coordinates":[1.0178844,43.030285]},"properties":{"natural":"tree"}},
{"type":"Feature","geometry":{"type":"Point","coordinates":[1.017769,43.0302886]},"properties":{"natural":"tree"}},
{"type":"Feature","geometry":{"type":"Point","coordinates":[1.0176536,43.0302921]},"properties":{"natural":"tree"}},
{"type":"Feature","geometry":{"type":"Point","coordinates":[0.9739763,42.877058]},"properties":{"internet_access":"yes","name":"Le Relais du Montagnard","tourism":"hotel","website":"https://relais-montagnard.org/"}},
{"type":"Feature","geometry":{"type":"Point","coordinates":[0.853826,42.9450637]},"properties":{"covered":"no","description":"two tables","leisure":"picnic_table"}},
{"type":"Feature","geometry":{"type":"Point","coordinates":[0.9933914,43.0339249]},"properties":{"historic":"wayside_cross","man_made":"cross","name":"Croix"}},
{"type":"Feature","geometry":{"type":"Point","coordinates":[0.887388,42.9901342]},"properties":{"board_type":"notice","information":"board","tourism":"information"}},
{"type":"Feature","geometry":{"type":"Point","coordinates":[0.8766309,42.9798967]},"properties":{"name":"Grotte de Pène Blanque","natural":"cave_entrance"}},
{"type":"Feature","geometry":{"type":"Point","coordinates":[0.8974148,42.9809632]},"properties":{"name":"Goueil di Her","natural":"cave_entrance"}},
{"type":"Feature","geometry":{"type":"Point","coordinates":[0.9713791,42.9934167]},"properties":{"natural":"spring"}},
{"type":"Feature","geometry":{"type":"Point","coordinates":[0.9056737,42.9345583]},"properties":{"name":"Site de spéléologie Résurgence d'Artigueprat","natural":"cave_entrance","source":"data.gouv.fr:Le ministère des droits des femmes, de la ville, de la jeunesse et des sports - 2014"}},
{"type":"Feature","geometry":{"type":"Point","coordinates":[0.8768862,42.9740616]},"properties":{"alt_name":"Gouffre du Pount dech Erbaou","ele":"1067","name":"Gouffre du Pont de Gerbaut","natural":"cave_entrance"}},
{"type":"Feature","geometry":{"type":"Point","coordinates":[0.9883912,42.8859179]},"properties":{"description":"Table d´orientation","map_type":"toposcope","tourism":"viewpoint"}},
{"type":"Feature","geometry":{"type":"Point","coordinates":[0.8206165,42.8346845]},"properties":{"ele":"2107","name":"Bacivèr","name:ca":"Bacivèr","name:oc":"Bacivèr","natural":"peak"}},
{"type":"Feature","geometry":{"type":"Point","coordinates":[0.8664605,42.9790599]},"properties":{"ele":"760","name":"Hount Deras Hechos","natural":"cave_entrance"}},
{"type":"Feature","geometry":{"type":"Point","coordinates":[0.9223229,42.8753957]},"properties":{"ele":"1311","name":"Col de Blazy","natural":"saddle"}},
{"type":"Feature","geometry":{"type":"Point","coordinates":[0.8488408,42.8614195]},"properties":{"mountain_pass":"yes","name":"Col d'Auarde","natural":"saddle"}},
{"type":"Feature","geometry":{"type":"Point","coordinates":[0.8502666,42.8665077]},"properties":{"ele":"2030","name":"Col de la Terme","natural":"saddle"}},
{"type":"Feature","geometry":{"type":"Point","coordinates":[0.9867206,42.8331967]},"properties":{"tourism":"picnic_site"}},
{"type":"Feature","geometry":{"type":"Point","coordinates":[0.805157,43.0138951]},"properties":{"historic":"wayside_cross"}},
{"type":"Feature","geometry":{"type":"Point","coordinates":[0.8035935,43.0152269]},"properties":{"historic":"memorial","name":"Joseph Ruau"}},
{"type":"Feature","geometry":{"type":"Point","coordinates":[0.8029899,43.0141054]},"properties":{"historic":"memorial","name":"Monument aux morts"}},
{"type":"Feature","geometry":{"type":"Point","coordinates":[0.8811631,42.8566308]},"properties":{"leisure":"picnic_table","name":"Picnic Isard"}},
{"type":"Feature","geometry":{"type":"Point","coordinates":[0.9040374,42.8503974]},"properties":{"ele":"1500","name":"Col de Cos","natural":"saddle"}},
{"type":"Feature","geometry":{"type":"Point","coordinates":[0.9750132,42.8755634]},"properties":{"leisure":"playground"}},
{"type":"Feature","geometry":{"type":"Point","coordinates":[0.8647606,42.8821217]},"properties":{"tourism":"viewpoint"}},
{"type":"Feature","geometry":{"type":"Point","coordinates":[1.0178184,43.0284115]},"properties":{"heritage":"3","heritage:operator":"mhs","historic":"wayside_cross","man_made":"wayside_cross","mhs:inscription_date":"1965-04-27","name":"Croix","ref:mhs":"PA00093900","religion":"christian","source:heritage":"data.gouv.fr:Ministère de la Culture - 04/2015","wikidata":"Q22937168"}},
{"type":"Feature","geometry":{"type":"Point","coordinates":[0.9611584,42.8435585]},"properties":{"ele":"1497","name":"Col des Cassaings","natural":"saddle"}},
{"type":"Feature","geometry":{"type":"Point","coordinates":[0.8451051,43.0131663]},"properties":{"ele":"681","mountain_pass":"yes","name":"Col de Louzet","natural":"saddle"}},
{"type":"Feature","geometry":{"type":"Point","coordinates":[1.0004662,42.8872393]},"properties":{"historic":"wayside_cross"}},
{"type":"Feature","geometry":{"type":"Point","coordinates":[1.0163308,42.8830889]},"properties":{"drinking_water":"yes","name":"eau minerale","natural":"spring"}},
{"type":"Feature","geometry":{"type":"Point","coordinates":[0.9412948,42.8943419]},"properties":{"ele":"1618","name":"Pic du Mail des Morères","natural":"peak"}},
{"type":"Feature","geometry":{"type":"Point","coordinates":[1.0788848,42.7883373]},"properties":{"ele":"2678.4","name":"2677","natural":"peak","source":"Institut Cartogràfic i Geològic de Catalunya"}},
{"type":"Feature","geometry":{"type":"Point","coordinates":[0.7974949,43.0110329]},"properties":{"leisure":"picnic_table"}},
{"type":"Feature","geometry":{"type":"Point","coordinates":[0.9314856,42.9855172]},"properties":{"leisure":"picnic_table"}},
{"type":"Feature","geometry":{"type":"Point","coordinates":[0.9316036,42.9855554]},"properties":{"leisure":"picnic_table"}},
{"type":"Feature","geometry":{"type":"Point","coordinates":[0.9671395,43.0304903]},"properties":{"historic":"memorial","memorial":"war_memorial"}},
{"type":"Feature","geometry":{"type":"Point","coordinates":[1.0136229,42.8825151]},"properties":{"heritage:operator":"mhs","historic":"archaeological_site","image":"File:Dolmen d'Ayer, hameau de Bordes-sur-Lez (Ariège).JPG","megalith_type":"dolmen","mhs:inscription_date":"1889","name":"Dolmen d'Ayer","ref:mhs":"PA00093778","source":"survey","source:heritage":"data.gouv.fr:Ministère de la Culture - 04/2015","wikidata":"Q22936849"}},
{"type":"Feature","geometry":{"type":"Point","coordinates":[0.9685372,43.0243435]},"properties":{"historic":"castle","image":"File:Saleich - Château de Saleich - 2014-06-08 (1).jpg","ruins":"yes"}},
{"type":"Feature","geometry":{"type":"Point","coordinates":[0.943505,42.8812654]},"properties":{"description":"Croix de marbre","heritage":"3","heritage:operator":"mhs","historic":"wayside_cross","image":"File:Antras (Ariège).jpg","mhs:inscription_date":"1950-04-17","ref:mhs":"PA00093767","source:heritage":"data.gouv.fr:Ministère de la Culture - 04/2015","wikidata":"Q22936819"}},
{"type":"Feature","geometry":{"type":"Point","coordinates":[0.9071024,42.8271546]},"properties":{"name":"Grotte de la Cigalère","natural":"cave_entrance"}},
{"type":"Feature","geometry":{"type":"Point","coordinates":[0.8874853,42.8198391]},"properties":{"name":"Gouffre Martel","natural":"cave_entrance"}},
{"type":"Feature","geometry":{"type":"Point","coordinates":[0.9877753,42.9737746]},"properties":{"name":"Poudac de la Gargale","natural":"cave_entrance"}},
{"type":"Feature","geometry":{"type":"Point","coordinates":[0.9247184,42.9567294]},"properties":{"name":"Puits de Tussau","natural":"cave_entrance"}},
{"type":"Feature","geometry":{"type":"Point","coordinates":[0.9952631,42.96704]},"properties":{"name":"Gouffre de la Riouère","natural":"cave_entrance"}},
{"type":"Feature","geometry":{"type":"Point","coordinates":[1.0196444,42.9984981]},"properties":{"name":"Gouffre d'Haïou","natural":"cave_entrance"}},
{"type":"Feature","geometry":{"type":"Point","coordinates":[0.9827788,42.9777437]},"properties":{"name":"Gouffre d'Uchau n° 1","natural":"cave_entrance"}},
{"type":"Feature","geometry":{"type":"Point","coordinates":[0.9147858,42.8862319]},"properties":{"ele":"1289","name":"Col de Héréchech","natural":"saddle"}},
{"type":"Feature","geometry":{"type":"Point","coordinates":[0.981427,42.8916939]},"properties":{"natural":"rock"}},
{"type":"Feature","geometry":{"type":"Point","coordinates":[0.838307,42.8540344]},"properties":{"amenity":"shelter","capacity":"9","description":"Juin 2021:\nCabane avec une table et un banc.\n9 lits superposés (3x3) mais uniquement 2 matelas.","fireplace":"yes","name":"Cabane d Uls","source":"Association \"Refuges et cabanes des Pyrénées\"","tourism":"wilderness_hut"}},
{"type":"Feature","geometry":{"type":"Point","coordinates":[0.8498338,42.8405889]},"properties":{"ele":"2170","mountain_pass":"yes","name":"Pas du Bouc","natural":"saddle"}},
{"type":"Feature","geometry":{"type":"Point","coordinates":[0.8087772,42.863843]},"properties":{"backcountry":"yes","camp_site":"basic","capacity":"6","name":"Camp de l'Ours","tents":"yes","tourism":"camp_site"}},
{"type":"Feature","geometry":{"type":"Point","coordinates":[0.8344549,42.9038391]},"properties":{"name":"Fontaine du Mouchet","natural":"spring"}},
{"type":"Feature","geometry":{"type":"Point","coordinates":[0.9734648,43.0113825]},"properties":{"name":"Grotte de Laspugues","natural":"cave_entrance"}},
{"type":"Feature","geometry":{"type":"Point","coordinates":[0.8543862,42.9434266]},"properties":{"name":"Camping les Asphodèles","phone":"+33 5 61 96 13 16","tourism":"camp_site"}},
{"type":"Feature","geometry":{"type":"Point","coordinates":[0.9342554,42.8665396]},"properties":{"fireplace":"yes","tourism":"picnic_site"}},
{"type":"Feature","geometry":{"type":"Point","coordinates":[0.9088211,42.8648047]},"properties":{"ele":"1011","name":"Fontaine Escudié","natural":"spring","ref:refuges.info":"5686"}},
{"type":"Feature","geometry":{"type":"Point","coordinates":[0.881163,42.8573997]},"properties":{"leisure":"picnic_table"}},
{"type":"Feature","geometry":{"type":"Point","coordinates":[0.8882755,42.8572093]},"properties":{"capacity":"6","description":"2020-09 : Refuge ouvert à tous situé à l'arrière de la Chapelle de l'Isard. Équipement intérieur : - Table - Bancs - Électricité (minuterie de 10mn) - Grande cheminée - 6 lits superposés (2x3) - 6 matelas mousse - 3 couvertures","ele":"1325","fireplace":"yes","name":"Refuge de La Chapelle de l'Isard","ref:refuges.info":"6997","stove":"no","tourism":"wilderness_hut","website":"https://www.pyrenees-refuges.com/fr/affiche.php?numenr=173"}},
{"type":"Feature","geometry":{"type":"Point","coordinates":[0.8815792,42.8564579]},"properties":{"information":"guidepost","operator":"ONF","tourism":"information"}},
{"type":"Feature","geometry":{"type":"Point","coordinates":[0.8734431,42.8344842]},"properties":{"drinking_water":"yes","natural":"spring"}},
{"type":"Feature","geometry":{"type":"Point","coordinates":[0.9953913,42.990806]},"properties":{"ele":"1247","name":"Pic de l'Estelas","natural":"peak"}},
{"type":"Feature","geometry":{"type":"Point","coordinates":[0.8994077,42.9930977]},"properties":{"name":"La ferme d'Oulan Bat","opening_hours":"May 01-Oct 15","tourism":"camp_site","website":"http://www.lafermedoulanbat.fr/"}},
{"type":"Feature","geometry":{"type":"Point","coordinates":[1.0157029,43.0314357]},"properties":{"tourism":"camp_site"}},
{"type":"Feature","geometry":{"type":"Point","coordinates":[0.9971329,43.0401589]},"properties":{"historic":"wayside_cross"}},
{"type":"Feature","geometry":{"type":"Point","coordinates":[0.9145545,42.9611027]},"properties":{"ele":"1227","name":"Pic de Granous","natural":"peak"}},
{"type":"Feature","geometry":{"type":"Point","coordinates":[0.9325981,43.0396853]},"properties":{"tourism":"picnic_site"}},
{"type":"Feature","geometry":{"type":"Point","coordinates":[1.017868,43.0286911]},"properties":{"historic":"memorial","memorial":"war_memorial","ref:FR:MemorialGenWeb":"10719"}},
{"type":"Feature","geometry":{"type":"Point","coordinates":[0.9277707,42.8539494]},"properties":{"direction":"200","tourism":"viewpoint"}},
{"type":"Feature","geometry":{"type":"Point","coordinates":[0.9061101,42.9527398]},"properties":{"ele":"1130","name":"Col du Lac","natural":"saddle"}},
{"type":"Feature","geometry":{"type":"Point","coordinates":[0.8834229,42.9780787]},"properties":{"name":"Puits du Plan de Gaule","natural":"cave_entrance"}},
{"type":"Feature","geometry":{"type":"Point","coordinates":[0.884098,42.9786601]},"properties":{"name":"Trou souffleur du Plan de Gaule","natural":"cave_entrance"}},
{"type":"Feature","geometry":{"type":"Point","coordinates":[0.9815272,42.893725]},"properties":{"information":"guidepost","tourism":"information"}},
{"type":"Feature","geometry":{"type":"Point","coordinates":[0.981584,42.8938543]},"properties":{"ele":"1351","mountain_pass":"yes","name":"Col de l'Arraing","natural":"saddle"}},
{"type":"Feature","geometry":{"type":"Point","coordinates":[0.9849499,42.8927035]},"properties":{"ele":"1401","name":"Tuc de Puech","natural":"peak"}},
{"type":"Feature","geometry":{"type":"Point","coordinates":[1.0310453,42.8318691]},"properties":{"tourism":"picnic_site"}},
{"type":"Feature","geometry":{"type":"Point","coordinates":[1.0309862,42.8318428]},"properties":{"tourism":"picnic_site"}},
{"type":"Feature","geometry":{"type":"Point","coordinates":[0.9937987,42.8765312]},"properties":{"name":"Gîte Decauville","tourism":"chalet","website":"http://gite-decauville.fr/"}},
{"type":"Feature","geometry":{"type":"Point","coordinates":[0.9081726,42.8791398]},"properties":{"ele":"1681","name":"Tuc de Pujatech","natural":"peak"}},
{"type":"Feature","geometry":{"type":"Point","coordinates":[0.9069141,42.8884517]},"properties":{"ele":"1358","name":"Col de Nédé","natural":"saddle"}},
{"type":"Feature","geometry":{"type":"Point","coordinates":[0.9622644,42.9686766]},"properties":{"ele":"1328","name":"Tuc aux Pentières","natural":"peak"}},
{"type":"Feature","geometry":{"type":"Point","coordinates":[0.9648528,42.9706108]},"properties":{"ele":"1242","name":"Sommet de l'Herbe Blanche","natural":"peak"}},
{"type":"Feature","geometry":{"type":"Point","coordinates":[0.917887,42.9613282]},"properties":{"denomination":"catholic","historic":"wayside_cross","name":"Croix de Guéret","religion":"christian"}},
{"type":"Feature","geometry":{"type":"Point","coordinates":[0.9123786,42.9592893]},"properties":{"natural":"saddle"}},
{"type":"Feature","geometry":{"type":"Point","coordinates":[0.901094,42.9811604]},"properties":{"name":"Grotte de la Gourgue","natural":"cave_entrance"}},
{"type":"Feature","geometry":{"type":"Point","coordinates":[0.8651279,42.9673772]},"properties":{"name":"Grotte de Coume Nère","natural":"cave_entrance"}},
{"type":"Feature","geometry":{"type":"Point","coordinates":[0.9639059,42.9824356]},"properties":{"name":"Gouffre de Damoclès","natural":"cave_entrance"}},
{"type":"Feature","geometry":{"type":"Point","coordinates":[0.8655582,42.9717036]},"properties":{"name":"Puits du Balcon","natural":"cave_entrance"}},
{"type":"Feature","geometry":{"type":"Point","coordinates":[0.9570859,42.893765]},"properties":{"denotation":"landmark","height":"20","leaf_cycle":"deciduous","leaf_type":"broadleaved","natural":"tree","species":"Hêtre"}},
{"type":"Feature","geometry":{"type":"Point","coordinates":[0.8564324,42.8915678]},"properties":{"tourism":"picnic_site"}},
{"type":"Feature","geometry":{"type":"Point","coordinates":[0.8561185,42.8906874]},"properties":{"name":"Bar des Oiseaux","natural":"spring","ref:refuges.info":"7221"}},
{"type":"Feature","geometry":{"type":"Point","coordinates":[0.9645397,43.0453284]},"properties":{"name":"Source minérale de Pyrène","natural":"spring"}},
{"type":"Feature","geometry":{"type":"Point","coordinates":[0.9250809,43.036613]},"properties":{"historic":"wayside_cross"}},
{"type":"Feature","geometry":{"type":"Point","coordinates":[0.9249596,43.0365457]},"properties":{"historic":"memorial"}},
{"type":"Feature","geometry":{"type":"Point","coordinates":[0.9033357,43.035208]},"properties":{"information":"board","tourism":"information"}},
{"type":"Feature","geometry":{"type":"Point","coordinates":[0.89472,43.0353298]},"properties":{"information":"guidepost","tourism":"information"}},
{"type":"Feature","geometry":{"type":"Point","coordinates":[0.8947572,43.0352348]},"properties":{"information":"guidepost","tourism":"information"}},
{"type":"Feature","geometry":{"type":"Point","coordinates":[0.894582,43.0352587]},"properties":{"information":"guidepost","tourism":"information"}},
{"type":"Feature","geometry":{"type":"Point","coordinates":[0.8945003,43.0299307]},"properties":{"historic":"wayside_cross"}},
{"type":"Feature","geometry":{"type":"Point","coordinates":[0.894358,43.0302219]},"properties":{"information":"board","tourism":"information"}},
{"type":"Feature","geometry":{"type":"Point","coordinates":[0.8857503,43.0327169]},"properties":{"information":"board","tourism":"information"}},
{"type":"Feature","geometry":{"type":"Point","coordinates":[0.8858794,43.0327719]},"properties":{"information":"guidepost","tourism":"information"}},
{"type":"Feature","geometry":{"type":"Point","coordinates":[0.8858631,43.0326805]},"properties":{"information":"guidepost","tourism":"information"}},
{"type":"Feature","geometry":{"type":"Point","coordinates":[0.8857513,43.0327355]},"properties":{"information":"guidepost","tourism":"information"}},
{"type":"Feature","geometry":{"type":"Point","coordinates":[0.8582539,42.993612]},"properties":{"tourism":"wilderness_hut"}},
{"type":"Feature","geometry":{"type":"Point","coordinates":[1.0308956,43.0398709]},"properties":{"information":"guidepost","tourism":"information"}},
{"type":"Feature","geometry":{"type":"Point","coordinates":[1.0258492,43.028082]},"properties":{"natural":"tree"}},
{"type":"Feature","geometry":{"type":"Point","coordinates":[1.0258354,43.0280302]},"properties":{"natural":"tree"}},
{"type":"Feature","geometry":{"type":"Point","coordinates":[1.022214,43.0279717]},"properties":{"information":"guidepost","tourism":"information"}},
{"type":"Feature","geometry":{"type":"Point","coordinates":[1.0222079,43.028081]},"properties":{"information":"guidepost","tourism":"information"}},
{"type":"Feature","geometry":{"type":"Point","coordinates":[1.0224344,43.0280888]},"properties":{"historic":"wayside_cross"}},
{"type":"Feature","geometry":{"type":"Point","coordinates":[1.0224105000000002,43.027964]},"properties":{"information":"guidepost","tourism":"information"}},
{"type":"Feature","geometry":{"type":"Point","coordinates":[1.0228785,43.0281239]},"properties":{"artwork_type":"statue","tourism":"artwork"}},
{"type":"Feature","geometry":{"type":"Point","coordinates":[1.0226803,43.0281528]},"properties":{"historic":"wayside_cross"}},
{"type":"Feature","geometry":{"type":"Point","coordinates":[1.023092,43.0280384]},"properties":{"artwork_type":"statue","tourism":"artwork"}},
{"type":"Feature","geometry":{"type":"Point","coordinates":[0.9191487,43.0074886]},"properties":{"name":"Mont Aragnoué","natural":"peak"}},
{"type":"Feature","geometry":{"type":"Point","coordinates":[0.8488622,42.8674097]},"properties":{"name":"Source sous Col de la Terme","natural":"spring","ref:refuges.info":"7025"}},
{"type":"Feature","geometry":{"type":"Point","coordinates":[0.8308102,42.8585371]},"properties":{"description":"2016-11 : Coule très bien toute l'année, eau pure à boire sans problèmes.","fixme":"vérifier emplacement exact","name":"Fontaine des Bésurdes","natural":"spring","ref:refuges.info":"5682"}},
{"type":"Feature","geometry":{"type":"Point","coordinates":[1.0083007,42.8189989]},"properties":{"name":"Source sous Raspe","natural":"spring","ref:refuges.info":"7141"}},
{"type":"Feature","geometry":{"type":"Point","coordinates":[0.9733977,43.0131003]},"properties":{"name":"L3","natural":"cave_entrance"}},
{"type":"Feature","geometry":{"type":"Point","coordinates":[0.9049376,42.9917474]},"properties":{"leisure":"picnic_table"}},
{"type":"Feature","geometry":{"type":"Point","coordinates":[0.9049171,42.9916832]},"properties":{"leisure":"picnic_table"}},
{"type":"Feature","geometry":{"type":"Point","coordinates":[0.8896005,42.8572828]},"properties":{"name":"Hount dés Capéras","natural":"spring"}},
{"type":"Feature","geometry":{"type":"Point","coordinates":[0.8813176,42.8571647]},"properties":{"name":"Fontaine de l'Isard","natural":"spring"}},
{"type":"Feature","geometry":{"type":"Point","coordinates":[0.9409907,42.86607]},"properties":{"ele":"770","name":"Fontaine du Pont","natural":"spring","ref:refuges.info":"7208"}},
{"type":"Feature","geometry":{"type":"Point","coordinates":[0.9296396,42.8676382]},"properties":{"ele":"835","name":"Fontaine de Frechendech","natural":"spring","ref:refuges.info":"7191"}},
{"type":"Feature","geometry":{"type":"Point","coordinates":[0.9327771,42.8473113]},"properties":{"name":"Fontaine du Col de Rous","natural":"spring","ref:refuges.info":"7206"}},
{"type":"Feature","geometry":{"type":"Point","coordinates":[0.9610921,42.8436506]},"properties":{"information":"guidepost","tourism":"information"}},
{"type":"Feature","geometry":{"type":"Point","coordinates":[0.9995483,42.8677922]},"properties":{"name":"Source de Coume Miu","natural":"spring","ref:refuges.info":"7261"}},
{"type":"Feature","geometry":{"type":"Point","coordinates":[1.0267953,43.0021479]},"properties":{"ele":"671","name":"Le Liar","natural":"peak"}},
{"type":"Feature","geometry":{"type":"Point","coordinates":[1.018442,42.8968473]},"properties":{"ele":"900","fee":"yes","name":"grotte de Chermillé","natural":"cave_entrance"}},
{"type":"Feature","geometry":{"type":"Point","coordinates":[0.8693024,42.8459106]},"properties":{"ele":"2044","name":"Pic de la Mède","natural":"peak"}},
{"type":"Feature","geometry":{"type":"Point","coordinates":[0.8744912,42.8480229]},"properties":{"ele":"1855","natural":"peak"}},
{"type":"Feature","geometry":{"type":"Point","coordinates":[0.8542231,42.8477419]},"properties":{"ele":"1981","natural":"peak"}},
{"type":"Feature","geometry":{"type":"Point","coordinates":[0.8682572,42.9395359]},"properties":{"tourism":"viewpoint"}},
{"type":"Feature","geometry":{"type":"Point","coordinates":[0.9649443,42.8302728]},"properties":{"ele":"1838","name":"Cap de l'Empaillou","natural":"peak"}},
{"type":"Feature","geometry":{"type":"Point","coordinates":[0.9056747,42.8770679]},"properties":{"ele":"1604","name":"Col de Quimès","natural":"saddle"}},
{"type":"Feature","geometry":{"type":"Point","coordinates":[0.8919861,42.8700371]},"properties":{"ele":"1939","name":"Col de la Célade","natural":"saddle"}},
{"type":"Feature","geometry":{"type":"Point","coordinates":[0.8931606,42.8705724]},"properties":{"ele":"1951","name":"Tuc des Pans","natural":"peak"}},
{"type":"Feature","geometry":{"type":"Point","coordinates":[0.9016548,42.8737279]},"properties":{"name":"Col de Lourech","natural":"saddle"}},
{"type":"Feature","geometry":{"type":"Point","coordinates":[0.9036238,42.8740029]},"properties":{"ele":"1754","name":"Tuc de Lourech","natural":"peak"}},
{"type":"Feature","geometry":{"type":"Point","coordinates":[0.9668424,42.9591273]},"properties":{"name":"Col d’Antys","tourism":"information"}},
{"type":"Feature","geometry":{"type":"Point","coordinates":[0.9978031,43.0189316]},"properties":{"historic":"wayside_cross"}},
{"type":"Feature","geometry":{"type":"Point","coordinates":[0.9980919,43.01838]},"properties":{"natural":"spring"}},
{"type":"Feature","geometry":{"type":"Point","coordinates":[0.9629406,42.8477979]},"properties":{"ele":"1683","name":"Tuc de la Ruère","natural":"peak"}},
{"type":"Feature","geometry":{"type":"Point","coordinates":[0.9604425,42.8387763]},"properties":{"ele":"1767","name":"Tuc de la Pale","natural":"peak"}},
{"type":"Feature","geometry":{"type":"Point","coordinates":[0.9411921,42.8471882]},"properties":{"intermittent":"no","natural":"spring"}},
{"type":"Feature","geometry":{"type":"Point","coordinates":[0.8580881,42.9415912]},"properties":{"ele":"1055","name":"Bourdallé","natural":"peak"}},
{"type":"Feature","geometry":{"type":"Point","coordinates":[0.8438406,42.9254978]},"properties":{"ele":"1425","mountain_pass":"yes","name":"Col de l'Artigue","natural":"saddle"}},
{"type":"Feature","geometry":{"type":"Point","coordinates":[0.8449754,42.9259094]},"properties":{"ele":"1448","natural":"peak"}},
{"type":"Feature","geometry":{"type":"Point","coordinates":[0.8752564,42.9678315]},"properties":{"name":"Gouffre Pierre","natural":"cave_entrance"}},
{"type":"Feature","geometry":{"type":"Point","coordinates":[0.8717722,42.9675222]},"properties":{"name":"Gouffre Duplessis","natural":"cave_entrance"}},
{"type":"Feature","geometry":{"type":"Point","coordinates":[0.8326999,42.9097183]},"properties":{"ele":"1469","name":"Col de la Croisette","natural":"saddle"}},
{"type":"Feature","geometry":{"type":"Point","coordinates":[0.8326694,42.909705]},"properties":{"information":"guidepost","tourism":"information"}},
{"type":"Feature","geometry":{"type":"Point","coordinates":[0.8609751,42.9221031]},"properties":{"tourism":"viewpoint"}},
{"type":"Feature","geometry":{"type":"Point","coordinates":[0.8792201,42.9228162]},"properties":{"information":"guidepost","tourism":"information"}},
{"type":"Feature","geometry":{"type":"Point","coordinates":[0.8785623,42.9218691]},"properties":{"man_made":"water_tap"}},
{"type":"Feature","geometry":{"type":"Point","coordinates":[0.8787065,42.9218692]},"properties":{"information":"guidepost","tourism":"information"}},
{"type":"Feature","geometry":{"type":"Point","coordinates":[0.8480079,42.9210437]},"properties":{"information":"guidepost","tourism":"information"}},
{"type":"Feature","geometry":{"type":"Point","coordinates":[0.8414767,42.8869952]},"properties":{"ele":"1661","name":"Col de Grataux","natural":"saddle"}},
{"type":"Feature","geometry":{"type":"Point","coordinates":[0.8440769,42.8896939]},"properties":{"ele":"1724","name":"Tucole de Paillère","natural":"peak"}},
{"type":"Feature","geometry":{"type":"Point","coordinates":[0.8408705,42.8955466]},"properties":{"ele":"1573","mountain_pass":"yes","name":"Col des Consires","natural":"saddle"}},
{"type":"Feature","geometry":{"type":"Point","coordinates":[0.8390172,42.8982964]},"properties":{"ele":"1621","name":"Pale Grande","natural":"peak"}},
{"type":"Feature","geometry":{"type":"Point","coordinates":[0.8625298,42.921473]},"properties":{"ele":"1167","name":"Mail de l'Aube","natural":"peak"}},
{"type":"Feature","geometry":{"type":"Point","coordinates":[0.8422725,42.9235794]},"properties":{"ele":"1478","name":"Tuc de la Pale Pouch","natural":"peak"}},
{"type":"Feature","geometry":{"type":"Point","coordinates":[0.9531371,42.8553283]},"properties":{"ele":"1586","name":"Tuc de Puja Ech","natural":"peak"}},
{"type":"Feature","geometry":{"type":"Point","coordinates":[0.9259602,42.8381678]},"properties":{"name":"Tuc de la Roucasse","natural":"peak"}},
{"type":"Feature","geometry":{"type":"Point","coordinates":[0.9142148,42.8355657]},"properties":{"name":"Tuc des Ours","natural":"peak"}},
{"type":"Feature","geometry":{"type":"Point","coordinates":[0.8905081,42.8377298]},"properties":{"ele":"2232","name":"Pic Long","natural":"peak"}},
{"type":"Feature","geometry":{"type":"Point","coordinates":[0.8599333,42.8382426]},"properties":{"name":"Pic de Lanères","natural":"peak"}},
{"type":"Feature","geometry":{"type":"Point","coordinates":[0.8967185,42.8146968]},"properties":{"ele":"2374","name":"Pic de Fontanille","natural":"peak"}},
{"type":"Feature","geometry":{"type":"Point","coordinates":[0.8974676,42.8169118]},"properties":{"ele":"2288","name":"Pic Noir","natural":"peak"}},
{"type":"Feature","geometry":{"type":"Point","coordinates":[0.8768024,42.8492361]},"properties":{"ele":"1806","name":"Pic de Birens","natural":"peak"}},
{"type":"Feature","geometry":{"type":"Point","coordinates":[0.8674116,42.8444991]},"properties":{"ele":"1975","name":"Col de Bassibié de dessous","natural":"saddle"}},
{"type":"Feature","geometry":{"type":"Point","coordinates":[0.8384897,42.8444636]},"properties":{"ele":"2105","name":"Pic des Coupets","natural":"peak"}},
{"type":"Feature","geometry":{"type":"Point","coordinates":[0.8474089,42.8412254]},"properties":{"ele":"2202","name":"Canau Grande","natural":"peak"}},
{"type":"Feature","geometry":{"type":"Point","coordinates":[0.8895652,42.8170233]},"properties":{"name":"Pic Blanc de la Pâle des Oies","natural":"peak"}},
{"type":"Feature","geometry":{"type":"Point","coordinates":[0.8714477,42.8220147]},"properties":{"ele":"2590","name":"Mail De Luzes","natural":"peak"}},
{"type":"Feature","geometry":{"type":"Point","coordinates":[0.8807895,42.8162871]},"properties":{"name":"Grotte des Corneilles","natural":"cave_entrance"}},
{"type":"Feature","geometry":{"type":"Point","coordinates":[0.8566364,42.8301852]},"properties":{"historic":"mine","name":"Ancienne Mine"}},
{"type":"Feature","geometry":{"type":"Point","coordinates":[0.8219286,42.8359174]},"properties":{"ele":"2056","name":"Pic de Huradic","natural":"peak"}},
{"type":"Feature","geometry":{"type":"Point","coordinates":[0.841048,42.8488543]},"properties":{"historic":"mine","name":"Ancienne Mine"}},
{"type":"Feature","geometry":{"type":"Point","coordinates":[0.9026257,42.8270904]},"properties":{"historic":"mine"}},
{"type":"Feature","geometry":{"type":"Point","coordinates":[0.8319155,42.8548232]},"properties":{"name":"Pic de Taillare","natural":"peak"}},
{"type":"Feature","geometry":{"type":"Point","coordinates":[0.8931835,42.824956]},"properties":{"historic":"mine","name":"Ancienne Mine"}},
{"type":"Feature","geometry":{"type":"Point","coordinates":[0.8965691,42.821906]},"properties":{"ele":"2007","name":"Tuc des Majores","natural":"peak"}},
{"type":"Feature","geometry":{"type":"Point","coordinates":[0.8960922,42.8266992]},"properties":{"historic":"wayside_cross"}},
{"type":"Feature","geometry":{"type":"Point","coordinates":[0.8568679,42.83935]},"properties":{"ele":"2277","name":"Tuc de Bouc","natural":"peak"}},
{"type":"Feature","geometry":{"type":"Point","coordinates":[0.8365089,42.8520891]},"properties":{"ele":"1964","name":"Pic de la Malède","natural":"peak"}},
{"type":"Feature","geometry":{"type":"Point","coordinates":[0.9020187,42.8266023]},"properties":{"historic":"mine"}},
{"type":"Feature","geometry":{"type":"Point","coordinates":[0.9000645,42.8268545]},"properties":{"historic":"mine"}},
{"type":"Feature","geometry":{"type":"Point","coordinates":[1.0163465,43.0307609]},"properties":{"historic":"wayside_cross","source":"IGN - 09/2020"}},
{"type":"Feature","geometry":{"type":"Point","coordinates":[0.9751136,43.1525202]},"properties":{"man_made":"monitoring_station","monitoring:water_level":"yes","operator":"Vigicrue"}},
{"type":"Feature","geometry":{"type":"Point","coordinates":[0.997263,43.0401261]},"properties":{"natural":"tree"}},
{"type":"Feature","geometry":{"type":"Point","coordinates":[0.9973132,43.0402106]},"properties":{"natural":"tree"}},
{"type":"Feature","geometry":{"type":"Point","coordinates":[0.9973692,43.040278]},"properties":{"natural":"tree"}},
{"type":"Feature","geometry":{"type":"Point","coordinates":[0.9974148,43.0403548]},"properties":{"natural":"tree"}},
{"type":"Feature","geometry":{"type":"Point","coordinates":[0.9972945,43.0405015]},"properties":{"natural":"tree"}},
{"type":"Feature","geometry":{"type":"Point","coordinates":[0.9972396,43.0404461]},"properties":{"natural":"tree"}},
{"type":"Feature","geometry":{"type":"Point","coordinates":[0.9971427,43.0402942]},"properties":{"natural":"tree"}},
{"type":"Feature","geometry":{"type":"Point","coordinates":[0.997075,43.0402123]},"properties":{"natural":"tree"}},
{"type":"Feature","geometry":{"type":"Point","coordinates":[1.0196069,43.031382]},"properties":{"leisure":"picnic_table"}},
{"type":"Feature","geometry":{"type":"Point","coordinates":[1.0194609,43.0313905]},"properties":{"leisure":"picnic_table"}},
{"type":"Feature","geometry":{"type":"Point","coordinates":[1.0201643,43.0314239]},"properties":{"leisure":"picnic_table"}},
{"type":"Feature","geometry":{"type":"Point","coordinates":[1.0197976,43.0290823]},"properties":{"natural":"tree"}},
{"type":"Feature","geometry":{"type":"Point","coordinates":[1.0197392,43.0290674]},"properties":{"natural":"tree"}},
{"type":"Feature","geometry":{"type":"Point","coordinates":[1.0179483,43.0288409]},"properties":{"natural":"tree"}},
{"type":"Feature","geometry":{"type":"Point","coordinates":[1.0178665,43.0284899]},"properties":{"natural":"tree"}},
{"type":"Feature","geometry":{"type":"Point","coordinates":[1.0178974,43.0288007]},"properties":{"natural":"tree"}},
{"type":"Feature","geometry":{"type":"Point","coordinates":[1.0304452,42.956366]},"properties":{"natural":"cave_entrance"}},
{"type":"Feature","geometry":{"type":"Point","coordinates":[1.0308312,42.9566516]},"properties":{"natural":"cave_entrance"}},
{"type":"Feature","geometry":{"type":"Point","coordinates":[1.0269829,42.9586661]},"properties":{"historic":"ruins"}},
{"type":"Feature","geometry":{"type":"Point","coordinates":[1.0268748,42.9618809]},"properties":{"information":"board","tourism":"information"}},
{"type":"Feature","geometry":{"type":"Point","coordinates":[1.0267807,42.9622137]},"properties":{"historic":"wayside_cross"}},
{"type":"Feature","geometry":{"type":"Point","coordinates":[1.0233985,42.9642412]},"properties":{"historic":"wayside_cross"}},
{"type":"Feature","geometry":{"type":"Point","coordinates":[1.0218125,42.9653122]},"properties":{"historic":"wayside_cross"}},
{"type":"Feature","geometry":{"type":"Point","coordinates":[1.0142419,42.9662675]},"properties":{"historic":"wayside_cross","name":"Lacagne"}},
{"type":"Feature","geometry":{"type":"Point","coordinates":[1.0110813,42.9685141]},"properties":{"historic":"wayside_cross","name":"Croix de la Pause"}},
{"type":"Feature","geometry":{"type":"Point","coordinates":[1.0109046,42.968537]},"properties":{"leisure":"picnic_table"}},
{"type":"Feature","geometry":{"type":"Point","coordinates":[0.9955095,42.970947]},"properties":{"amenity":"watering_place"}},
{"type":"Feature","geometry":{"type":"Point","coordinates":[0.9999296,42.9749394]},"properties":{"natural":"cave_entrance"}},
{"type":"Feature","geometry":{"type":"Point","coordinates":[1.0278563,42.9707897]},"properties":{"historic":"wayside_cross","man_made":"cross","name":"Croix du Seignadé"}},
{"type":"Feature","geometry":{"type":"Point","coordinates":[0.9048416,42.8508875]},"properties":{"ele":"1571","name":"Tuc des Cos","natural":"peak"}},
{"type":"Feature","geometry":{"type":"Point","coordinates":[0.9051716,42.8521446]},"properties":{"ele":"1505","name":"Col Déjouts","natural":"saddle"}},
{"type":"Feature","geometry":{"type":"Point","coordinates":[0.9087063,42.8537278]},"properties":{"ele":"1568","name":"Cap des Tucs","natural":"peak"}},
{"type":"Feature","geometry":{"type":"Point","coordinates":[0.9103291,42.8550176]},"properties":{"ele":"1511","name":"Col de Léat","natural":"saddle"}},
{"type":"Feature","geometry":{"type":"Point","coordinates":[0.8732214,42.8503898]},"properties":{"natural":"spring"}},
{"type":"Feature","geometry":{"type":"Point","coordinates":[0.865271,42.8514962]},"properties":{"tourism":"viewpoint"}},
{"type":"Feature","geometry":{"type":"Point","coordinates":[1.0045477,42.8290072]},"properties":{"information":"guidepost","tourism":"information"}},
{"type":"Feature","geometry":{"type":"Point","coordinates":[0.7990729,43.0089983]},"properties":{"addr:city":"Aspet","addr:postcode":"31160","addr:street":"Sarradère d'en Bas","contact:email":"info@lgcAspet.com","contact:facebook":"https://www.facebook.com/legrandchaletaspet","contact:instagram":"https://www.instagram.com/le_grand_chalet_aspet/","name":"Le Grand Chalet","phone":"+33 5 61 88 51 82","tourism":"hotel","website":"https://www.lgcaspet.com/"}},
{"type":"Feature","geometry":{"type":"Point","coordinates":[1.0197134,43.0313649]},"properties":{"leisure":"picnic_table"}},
{"type":"Feature","geometry":{"type":"Point","coordinates":[0.8777425,42.9657558]},"properties":{"tourism":"information"}},
{"type":"Feature","geometry":{"type":"Point","coordinates":[0.827363,42.8394357]},"properties":{"name":"Cabane de Aoueran","operator":"Mairie de Melles","tourism":"alpine_hut"}},
{"type":"Feature","geometry":{"type":"Point","coordinates":[0.9971068,43.0310748]},"properties":{"artwork_type":"statue","tourism":"artwork"}},
{"type":"Feature","geometry":{"type":"Point","coordinates":[0.9972671,43.0309926]},"properties":{"historic":"wayside_cross"}},
{"type":"Feature","geometry":{"type":"Point","coordinates":[0.9427559,42.8827798]},"properties":{"description":"Coordonnées approximatives","ele":"960","name":"Source Antras","natural":"spring","ref:refuges.info":"7755"}},
{"type":"Feature","geometry":{"type":"Point","coordinates":[0.936714,42.8869379]},"properties":{"description":"Coordonnées approximatives","ele":"1105","name":"Source Pla de Hau (Antras)","natural":"spring","ref:refuges.info":"7763"}},
{"type":"Feature","geometry":{"type":"Point","coordinates":[0.9184083,42.8224136]},"properties":{"description":"Coordonnées approximatives. Source située au départ de la longue piste qui monte aux mines de Bentaillou.","ele":"1195","name":"Source piste Bentaillou","natural":"spring","ref:refuges.info":"7760"}},
{"type":"Feature","geometry":{"type":"Point","coordinates":[0.9601432,42.8935696]},"properties":{"natural":"stone"}},
{"type":"Feature","geometry":{"type":"Point","coordinates":[0.9034044,43.0161464]},"properties":{"historic":"wayside_cross"}},
{"type":"Feature","geometry":{"type":"Point","coordinates":[0.9561968,42.9792052]},"properties":{"ele":"1033","name":"Tuc de l'Homme Mort","natural":"peak"}},
{"type":"Feature","geometry":{"type":"Point","coordinates":[0.9290561,43.0331098]},"properties":{"historic":"wayside_shrine"}},
{"type":"Feature","geometry":{"type":"Point","coordinates":[0.9672339,43.0303425]},"properties":{"natural":"tree"}},
{"type":"Feature","geometry":{"type":"Point","coordinates":[0.9140012,42.9361597]},"properties":{"historic":"wayside_cross"}},
{"type":"Feature","geometry":{"type":"Point","coordinates":[0.9136147,42.9364787]},"properties":{"historic":"wayside_cross"}},
{"type":"Feature","geometry":{"type":"Point","coordinates":[0.9131589,42.9365781]},"properties":{"historic":"wayside_cross"}},
{"type":"Feature","geometry":{"type":"Point","coordinates":[0.912629,42.9365445]},"properties":{"historic":"wayside_cross"}},
{"type":"Feature","geometry":{"type":"Point","coordinates":[0.9126804,42.9368357]},"properties":{"historic":"wayside_cross"}},
{"type":"Feature","geometry":{"type":"Point","coordinates":[0.9150989,42.9358231]},"properties":{"historic":"memorial","memorial":"war_memorial","ref:FR:MemorialGenWeb":"13080"}},
{"type":"Feature","geometry":{"type":"Point","coordinates":[0.8866477,42.8919858]},"properties":{"leisure":"picnic_table"}},
{"type":"Feature","geometry":{"type":"Point","coordinates":[0.8866011,42.8864811]},"properties":{"ele":"1432","name":"Pic de Lauech","natural":"peak"}},
{"type":"Feature","geometry":{"type":"Point","coordinates":[1.0160476,42.9461314]},"properties":{"ele":"809","name":"Pic de Peymiqueu","natural":"peak"}},
{"type":"Feature","geometry":{"type":"Point","coordinates":[1.0065875,42.8248133]},"properties":{"ele":"1856","name":"Col de Part","natural":"saddle"}},
{"type":"Feature","geometry":{"type":"Point","coordinates":[1.0172376,42.8104598]},"properties":{"ele":"2150","name":"Passage de l'Esque","natural":"saddle"}},
{"type":"Feature","geometry":{"type":"Point","coordinates":[1.0175497,42.8105047]},"properties":{"ele":"2157","natural":"peak"}},
{"type":"Feature","geometry":{"type":"Point","coordinates":[1.0179605,42.8115021]},"properties":{"name":"2159"}},
{"type":"Feature","geometry":{"type":"Point","coordinates":[1.0181789,42.811757]},"properties":{"name":"2160","natural":"peak"}},
{"type":"Feature","geometry":{"type":"Point","coordinates":[0.9965915,43.0401165]},"properties":{"historic":"memorial","memorial":"war_memorial","ref:FR:MemorialGenWeb":"10723"}},
{"type":"Feature","geometry":{"type":"Point","coordinates":[0.9340001,42.823251]},"properties":{"historic":"ruins","name":"Laverie d'Urets"}},
{"type":"Feature","geometry":{"type":"Point","coordinates":[0.9410363,42.8860274]},"properties":{"information":"guidepost","tourism":"information"}},
{"type":"Feature","geometry":{"type":"Point","coordinates":[0.9419245,42.8962692]},"properties":{"ele":"1553","name":"Col des Morères","natural":"saddle"}},
{"type":"Feature","geometry":{"type":"Point","coordinates":[0.9393573,42.895833]},"properties":{"description":"Captage","natural":"spring"}},
{"type":"Feature","geometry":{"type":"Point","coordinates":[0.9220405,42.8952724]},"properties":{"ele":"1397","name":"Mail de Laroque","natural":"peak"}},
{"type":"Feature","geometry":{"type":"Point","coordinates":[0.9253523,42.8944261]},"properties":{"ele":"1514"}},
{"type":"Feature","geometry":{"type":"Point","coordinates":[0.9334591,42.8941781]},"properties":{"ele":"1571"}},
{"type":"Feature","geometry":{"type":"Point","coordinates":[0.9358277,42.8942766]},"properties":{"ele":"1572"}},
{"type":"Feature","geometry":{"type":"Point","coordinates":[0.9231849,42.890482]},"properties":{"ele":"1255","name":"Col de la Croix","natural":"saddle"}},
{"type":"Feature","geometry":{"type":"Point","coordinates":[0.9224655,42.8898719]},"properties":{"ele":"1292","name":"Pic de Tourmas","natural":"peak"}},
{"type":"Feature","geometry":{"type":"Point","coordinates":[0.9206824,42.8893189]},"properties":{"ele":"1255","name":"Col de Méda","natural":"saddle"}},
{"type":"Feature","geometry":{"type":"Point","coordinates":[0.9277741,42.8900319]},"properties":{"natural":"spring"}},
{"type":"Feature","geometry":{"type":"Point","coordinates":[0.9381427,42.8864897]},"properties":{"direction":"200","tourism":"viewpoint"}},
{"type":"Feature","geometry":{"type":"Point","coordinates":[0.9642003,42.8338197]},"properties":{"ele":"1793","name":"Pics de Virennes","natural":"peak"}},
{"type":"Feature","geometry":{"type":"Point","coordinates":[0.9635554,42.8247752]},"properties":{"information":"guidepost","tourism":"information"}},
{"type":"Feature","geometry":{"type":"Point","coordinates":[0.9604771,42.8315828]},"properties":{"name":"Source \"Gratte Cul\"","natural":"spring"}},
{"type":"Feature","geometry":{"type":"Point","coordinates":[0.9614448,42.8377206]},"properties":{"ele":"1752","name":"Col de Biach","natural":"saddle"}},
{"type":"Feature","geometry":{"type":"Point","coordinates":[0.8652833,42.9648973]},"properties":{"ele":"1325","name":"Trou Mile","natural":"cave_entrance"}},
{"type":"Feature","geometry":{"type":"Point","coordinates":[0.8641635,42.9655747]},"properties":{"ele":"1360","name":"Gouffre Raymonde","natural":"cave_entrance"}},
{"type":"Feature","geometry":{"type":"Point","coordinates":[0.92008,42.9317041]},"properties":{"caravans":"yes","drinking_water":"yes","fee":"yes","name":"La Vie en Vert","power_supply":"yes","shower":"yes","stars":"3","tents":"yes","tourism":"camp_site","website":"http://lavieenvert.com/"}},
{"type":"Feature","geometry":{"type":"Point","coordinates":[1.0060434,42.8666668]},"properties":{"ele":"1239","name":"Tuc de Lauzat","natural":"peak"}},
{"type":"Feature","geometry":{"type":"Point","coordinates":[1.004821,42.8564647]},"properties":{"ele":"1456","name":"Tuc d'Alexis","natural":"peak"}},
{"type":"Feature","geometry":{"type":"Point","coordinates":[1.005611,42.860922]},"properties":{"ele":"1281","name":"Tuc de Colnau","natural":"peak"}},
{"type":"Feature","geometry":{"type":"Point","coordinates":[1.0053167,42.863112]},"properties":{"ele":"1296","name":"Tuc de Poursugue","natural":"peak"}},
{"type":"Feature","geometry":{"type":"Point","coordinates":[0.9867583,42.8329042]},"properties":{"leisure":"picnic_table"}},
{"type":"Feature","geometry":{"type":"Point","coordinates":[0.9773445,42.836501]},"properties":{"information":"board","tourism":"information"}},
{"type":"Feature","geometry":{"type":"Point","coordinates":[0.8601283,43.0345758]},"properties":{"tourism":"viewpoint"}},
{"type":"Feature","geometry":{"type":"Point","coordinates":[0.8808942,42.9589563]},"properties":{"information":"guidepost","source":"survey","tourism":"information"}},
{"type":"Feature","geometry":{"type":"Point","coordinates":[0.8730931,42.9622171]},"properties":{"information":"guidepost","source":"survey","tourism":"information"}},
{"type":"Feature","geometry":{"type":"Point","coordinates":[0.8570335,42.956372]},"properties":{"information":"guidepost","tourism":"information"}},
{"type":"Feature","geometry":{"type":"Point","coordinates":[0.9146197,42.9358033]},"properties":{"barrier":"gate","locked":"no","material":"metal"}},
{"type":"Feature","geometry":{"type":"Point","coordinates":[0.9145375,42.9358616]},"properties":{"barrier":"gate","locked":"no","material":"wood"}},
{"type":"Feature","geometry":{"type":"Point","coordinates":[0.9147746,42.9355799]},"properties":{"barrier":"wicket_gate"}},
{"type":"Feature","geometry":{"type":"Point","coordinates":[0.9148862,42.9356628]},"properties":{"barrier":"wicket_gate"}},
{"type":"Feature","geometry":{"type":"Point","coordinates":[0.917916,42.9316108]},"properties":{"fee":"no","museum":"history","name":"Musée du XXe siècle","tourism":"museum"}},
{"type":"Feature","geometry":{"type":"Point","coordinates":[0.9174873,42.9315438]},"properties":{"historic":"memorial","memorial":"war_memorial","ref:FR:MemorialGenWeb":"30"}},
{"type":"Feature","geometry":{"type":"Point","coordinates":[0.823127,42.9334763]},"properties":{"beds":"35","contact:facebook":"https://www.facebook.com/lesolayan/","contact:instagram":"https://www.instagram.com/lesolayan/","contact:tripadvisor":"https://www.tripadvisor.fr/Hotel_Review-g6206747-d6891453-Reviews-Le_Solayan-Boutx_Haute_Garonne_Occitanie.html","description":"Nature & Spa","email":"contact@solayan-nature.com","mobile":"+33 6 07 50 89 42","name":"Le Solayan","phone":"+33 5 61 88 57 68","tourism":"hotel","website":"https://www.solayan-nature.com/"}},
{"type":"Feature","geometry":{"type":"Point","coordinates":[0.9933145,43.0338485]},"properties":{"ele":"444","name":"Le Pouech","natural":"peak","source":"IGN BDTOPO 2022-12-15","source:ele":"IGN RGEALTI 2021-05-12 (Lidar)"}},
{"type":"Feature","geometry":{"type":"Point","coordinates":[0.9928179,42.9323491]},"properties":{"historic":"memorial","memorial":"war_memorial","ref:FR:MemorialGenWeb":"14722"}},
{"type":"Feature","geometry":{"type":"Point","coordinates":[1.0281964,42.9435017]},"properties":{"historic":"memorial","memorial":"war_memorial","ref:FR:MemorialGenWeb":"13083"}},
{"type":"Feature","geometry":{"type":"Point","coordinates":[0.9757624,42.9361112]},"properties":{"historic":"memorial","memorial":"war_memorial","ref:FR:MemorialGenWeb":"41461"}},
{"type":"Feature","geometry":{"type":"Point","coordinates":[1.023177,42.9289608]},"properties":{"historic":"memorial","memorial":"war_memorial","ref:FR:MemorialGenWeb":"13078"}},
{"type":"Feature","geometry":{"type":"Point","coordinates":[0.9811312,42.8831214]},"properties":{"historic":"memorial","memorial":"plaque","ref:FR:MemorialGenWeb":"10920","war_memorial":"yes"}},
{"type":"Feature","geometry":{"type":"Point","coordinates":[0.9762486,42.8767592]},"properties":{"historic":"memorial","memorial":"war_memorial","ref:FR:MemorialGenWeb":"10486"}},
{"type":"Feature","geometry":{"type":"Point","coordinates":[1.0291547,42.9009371]},"properties":{"historic":"memorial","memorial":"war_memorial","ref:FR:MemorialGenWeb":"16034"}},
{"type":"Feature","geometry":{"type":"Point","coordinates":[0.9629908,42.9430959]},"properties":{"historic":"memorial","memorial":"war_memorial","ref:FR:MemorialGenWeb":"14725"}},
{"type":"Feature","geometry":{"type":"Point","coordinates":[0.9664859,42.9368071]},"properties":{"historic":"memorial","memorial":"plaque","ref:FR:MemorialGenWeb":"14724","war_memorial":"yes"}},
{"type":"Feature","geometry":{"type":"Point","coordinates":[0.9380626,42.9342274]},"properties":{"historic":"memorial","memorial":"war_memorial","ref:FR:MemorialGenWeb":"14726"}},
{"type":"Feature","geometry":{"type":"Point","coordinates":[0.9828037,42.9379064]},"properties":{"historic":"memorial","memorial":"war_memorial","ref:FR:MemorialGenWeb":"14723"}},
{"type":"Feature","geometry":{"type":"Point","coordinates":[0.9327176,42.9352558]},"properties":{"historic":"memorial","memorial":"war_memorial","ref:FR:MemorialGenWeb":"13079"}},
{"type":"Feature","geometry":{"type":"Point","coordinates":[0.9542416,42.8743838]},"properties":{"historic":"memorial","memorial":"war_memorial","ref:FR:MemorialGenWeb":"10487"}},
{"type":"Feature","geometry":{"type":"Point","coordinates":[1.0102868,42.9201557]},"properties":{"historic":"memorial","memorial":"plaque","ref:FR:MemorialGenWeb":"14721","war_memorial":"yes"}},
{"type":"Feature","geometry":{"type":"Point","coordinates":[1.0093771,42.9103006]},"properties":{"historic":"memorial","memorial":"war_memorial","ref:FR:MemorialGenWeb":"14720"}},
{"type":"Feature","geometry":{"type":"Point","coordinates":[0.9074278,42.9960675]},"properties":{"access":"yes","description":"aire de jeu qui a été rénovée récemment","leisure":"playground"}},
{"type":"Feature","geometry":{"type":"Point","coordinates":[0.931707,42.9854616]},"properties":{"leisure":"pitch","sport":"boules"}},
{"type":"Feature","geometry":{"type":"Point","coordinates":[0.9314193,42.985486]},"properties":{"leisure":"picnic_table"}},
{"type":"Feature","geometry":{"type":"Point","coordinates":[0.8593297,43.0159766]},"properties":{"information":"board","tourism":"information"}},
{"type":"Feature","geometry":{"type":"Point","coordinates":[0.8592379,43.0160044]},"properties":{"information":"board","tourism":"information"}},
{"type":"Feature","geometry":{"type":"Point","coordinates":[0.8828126,42.9432241]},"properties":{"access":"yes","direction":"230","ele":"890","name":"Grotte d'Escarchein","natural":"cave_entrance"}},
{"type":"Feature","geometry":{"type":"Point","coordinates":[0.9527253999999999,42.9671573]},"properties":{"ele":"1278","name":"Couret de Linguet","natural":"saddle"}},
{"type":"Feature","geometry":{"type":"Point","coordinates":[0.9975332,42.8337621]},"properties":{"natural":"peak"}},
{"type":"Feature","geometry":{"type":"Point","coordinates":[1.0041243,42.8357233]},"properties":{"name":"Fontaine du Paril","natural":"spring"}},
{"type":"Feature","geometry":{"type":"Point","coordinates":[1.005041,42.8653568]},"properties":{"description":"Grande Roue de l'ancien Funiculaire","tourism":"attraction"}},
{"type":"Feature","geometry":{"type":"Point","coordinates":[1.0105748,42.8752395]},"properties":{"name":"805"}},
{"type":"Feature","geometry":{"type":"Point","coordinates":[1.0069875,42.8332348]},"properties":{"ele":"1838","name":"Pic de Lagarde","natural":"peak"}},
{"type":"Feature","geometry":{"type":"Point","coordinates":[1.0057181,42.8393268]},"properties":{"ele":"1695","name":"Col de Gaillardeu","natural":"saddle"}},
{"type":"Feature","geometry":{"type":"Point","coordinates":[1.0052636,42.8415036]},"properties":{"ele":"1705","name":"Tuc de Luron","natural":"peak"}},
{"type":"Feature","geometry":{"type":"Point","coordinates":[1.0064076,42.8464285]},"properties":{"ele":"1544","name":"Cap de Corp","natural":"peak"}},
{"type":"Feature","geometry":{"type":"Point","coordinates":[1.0060101,42.8485358]},"properties":{"ele":"1598","name":"Tuc de la Pale des Camps","natural":"peak"}},
{"type":"Feature","geometry":{"type":"Point","coordinates":[1.0056017,42.8525618]},"properties":{"ele":"1561","name":"Tuc de Seba","natural":"peak"}},
{"type":"Feature","geometry":{"type":"Point","coordinates":[0.8693427,42.9660548]},"properties":{"ele":"1305","name":"Gouffre des Indomptables","natural":"cave_entrance"}},
{"type":"Feature","geometry":{"type":"Point","coordinates":[0.9119732,42.8581104]},"properties":{"ele":"1704","name":"Tuc de la Core de Léat","natural":"peak"}},
{"type":"Feature","geometry":{"type":"Point","coordinates":[0.9380657,42.9342205]},"properties":{"artist_name":"Joseph LAGARDE, marbrier à Saint-Girons (09) Entreprise Jacomet à Villedieu dans le Vaucluse Mr MIRAMONT, conception du monument, agent voyer à Orbibet","historic":"memorial","memorial":"war_memorial","memorial:conflict":"WW1;WW2"}},
{"type":"Feature","geometry":{"type":"Point","coordinates":[1.0293136,43.0132227]},"properties":{"name":"Résurgence de la Gouarège","natural":"cave_entrance"}},
{"type":"Feature","geometry":{"type":"Point","coordinates":[1.0006681,43.005953]},"properties":{"ele":"646","name":"Tucoulet","natural":"peak"}},
{"type":"Feature","geometry":{"type":"Point","coordinates":[0.9902627,43.0050274]},"properties":{"ele":"803","name":"Castel-Mauré","natural":"peak"}},
{"type":"Feature","geometry":{"type":"Point","coordinates":[0.9926486,43.0113109]},"properties":{"ele":"576","name":"Les Teillèdes","natural":"peak"}},
{"type":"Feature","geometry":{"type":"Point","coordinates":[0.9986938,43.0095609]},"properties":{"fee":"no","name":"Grotte du Pas du Loup","natural":"cave_entrance"}},
{"type":"Feature","geometry":{"type":"Point","coordinates":[1.0031264,43.0037208]},"properties":{"natural":"spring"}},
{"type":"Feature","geometry":{"type":"Point","coordinates":[1.0120734,43.0121225]},"properties":{"drinking_water":"no","intermittent":"yes","natural":"spring"}},
{"type":"Feature","geometry":{"type":"Point","coordinates":[1.0116289,43.0074608]},"properties":{"barrier":"rope"}},
{"type":"Feature","geometry":{"type":"Point","coordinates":[1.0201519,43.0030634]},"properties":{"ele":"495","name":"Fontaine de Cassagnous","natural":"cave_entrance"}},
{"type":"Feature","geometry":{"type":"Point","coordinates":[0.855309,42.826852]},"properties":{"ele":"2553","name":"Tor de Cabrèra","natural":"peak"}},
{"type":"Feature","geometry":{"type":"Point","coordinates":[0.840537,42.828718]},"properties":{"ele":"2247","name":"Tuc dera Comassa","natural":"peak"}},
{"type":"Feature","geometry":{"type":"Point","coordinates":[0.8767507,42.9744041]},"properties":{"name":"Gouffre du Pont de Gerbaut Supérieur","natural":"cave_entrance"}},
{"type":"Feature","geometry":{"type":"Point","coordinates":[0.8760188,42.8129627]},"properties":{"name":"2475","natural":"peak"}},
{"type":"Feature","geometry":{"type":"Point","coordinates":[0.817733,42.8754586]},"properties":{"name":"Plan des Sédères","natural":"peak"}},
{"type":"Feature","geometry":{"type":"Point","coordinates":[0.8735944,42.8345936]},"properties":{"fee":"yes","internet_access":"no","name":"Refuge de l'etang d'Araing","payment:cash":"yes","payment:cheque":"yes","tourism":"alpine_hut"}},
{"type":"Feature","geometry":{"type":"Point","coordinates":[0.9329447,42.824453]},"properties":{"name":"Cirque de la Plagne","tourism":"picnic_site"}},
{"type":"Feature","geometry":{"type":"Point","coordinates":[0.813182,42.8445319]},"properties":{"ele":"1960","name":"Cap de la Pale des Sestagnes","natural":"peak"}},
{"type":"Feature","geometry":{"type":"Point","coordinates":[0.9020602,42.8687344]},"properties":{"name":"Pic de la Courbe","natural":"peak"}},
{"type":"Feature","geometry":{"type":"Point","coordinates":[0.9103909,42.8712072]},"properties":{"ele":"1380","name":"Pic de la Tourette","natural":"peak"}},
{"type":"Feature","geometry":{"type":"Point","coordinates":[0.9093742,42.872851]},"properties":{"ele":"1517","name":"Tuc du Cendè","natural":"peak"}},
{"type":"Feature","geometry":{"type":"Point","coordinates":[0.9247073,42.8747962]},"properties":{"ele":"1327","name":"Tuc Dour","natural":"peak"}},
{"type":"Feature","geometry":{"type":"Point","coordinates":[0.9320076,42.8725526]},"properties":{"ele":"1193","name":"Tuc de la Marguerite","natural":"peak"}},
{"type":"Feature","geometry":{"type":"Point","coordinates":[0.9365214,42.8666665]},"properties":{"ele":"843","name":"Castéra","natural":"peak"}},
{"type":"Feature","geometry":{"type":"Point","coordinates":[0.9911464,42.8160924]},"properties":{"name":"Pic de Lagarde","natural":"peak"}},
{"type":"Feature","geometry":{"type":"Point","coordinates":[0.8014751,42.8797269]},"properties":{"ele":"1781","name":"Tuc de Seneviès","natural":"peak"}},
{"type":"Feature","geometry":{"type":"Point","coordinates":[0.8009893,42.8833422]},"properties":{"ele":"1672","name":"Tuc de Baricargue","natural":"peak"}},
{"type":"Feature","geometry":{"type":"Point","coordinates":[0.8112391,42.8897628]},"properties":{"ele":"1380","name":"Tuc de Roquefort","natural":"peak"}},
{"type":"Feature","geometry":{"type":"Point","coordinates":[0.8212538,42.940874]},"properties":{"ele":"1201","name":"Mont Noir","natural":"peak"}},
{"type":"Feature","geometry":{"type":"Point","coordinates":[0.823874,42.9389438]},"properties":{"ele":"1132","name":"Collet du Tou","natural":"saddle"}},
{"type":"Feature","geometry":{"type":"Point","coordinates":[0.8278471,42.9363403]},"properties":{"ele":"1232","name":"Tuc Desse","natural":"peak"}},
{"type":"Feature","geometry":{"type":"Point","coordinates":[0.8440174,42.9348086]},"properties":{"ele":"1284","name":"le Couras","natural":"peak"}},
{"type":"Feature","geometry":{"type":"Point","coordinates":[0.8794554,42.9374495]},"properties":{"ele":"919","name":"castéra","natural":"peak"}},
{"type":"Feature","geometry":{"type":"Point","coordinates":[0.8926246,42.9373467]},"properties":{"ele":"948","name":"Tuc de l'Haoua","natural":"peak"}},
{"type":"Feature","geometry":{"type":"Point","coordinates":[0.9008946,42.934126]},"properties":{"ele":"898","name":"Tuc de la Haje","natural":"peak"}},
{"type":"Feature","geometry":{"type":"Point","coordinates":[0.8701227,42.9273558]},"properties":{"ele":"1222","name":"Tuc de Croue","natural":"peak"}},
{"type":"Feature","geometry":{"type":"Point","coordinates":[0.8675321,42.9283917]},"properties":{"ele":"1198","name":"les Tucs","natural":"peak"}},
{"type":"Feature","geometry":{"type":"Point","coordinates":[0.8625187,42.9262264]},"properties":{"ele":"12518","name":"Rochers de Guiraude","natural":"peak"}},
{"type":"Feature","geometry":{"type":"Point","coordinates":[0.9350904,42.9260778]},"properties":{"ele":"780","name":"Pico","natural":"peak"}},
{"type":"Feature","geometry":{"type":"Point","coordinates":[0.923119,42.9211251]},"properties":{"ele":"912","name":"Tucau","natural":"peak"}},
{"type":"Feature","geometry":{"type":"Point","coordinates":[0.8998232,42.915168]},"properties":{"name":"Cap Sourd","natural":"peak"}},
{"type":"Feature","geometry":{"type":"Point","coordinates":[0.9003731,42.907781]},"properties":{"ele":"1342","name":"Pic de Craberon","natural":"peak"}},
{"type":"Feature","geometry":{"type":"Point","coordinates":[0.9016519,42.9028192]},"properties":{"ele":"1322","name":"Pic de Pujatech","natural":"peak"}},
{"type":"Feature","geometry":{"type":"Point","coordinates":[0.8328284,42.9042671]},"properties":{"name":"Pic de Brignac","natural":"peak"}},
{"type":"Feature","geometry":{"type":"Point","coordinates":[0.8396927,42.9052655]},"properties":{"ele":"1484","name":"Tuc de Bourgade","natural":"peak"}},
{"type":"Feature","geometry":{"type":"Point","coordinates":[0.8338381,42.9085666]},"properties":{"ele":"1497","name":"Pic de Piéjau","natural":"peak"}},
{"type":"Feature","geometry":{"type":"Point","coordinates":[0.8739581,42.9045771]},"properties":{"ele":"1336","name":"Tuc d'Aucous","natural":"peak"}},
{"type":"Feature","geometry":{"type":"Point","coordinates":[0.8728961,42.9013411]},"properties":{"ele":"1432","name":"Porcilles","natural":"peak"}},
{"type":"Feature","geometry":{"type":"Point","coordinates":[0.8735182,42.8982753]},"properties":{"ele":"1497","name":"Tuc Saint-Jean","natural":"peak"}},
{"type":"Feature","geometry":{"type":"Point","coordinates":[0.8725505,42.8968667]},"properties":{"ele":"1470","name":"La Pierre Percée","natural":"peak"}},
{"type":"Feature","geometry":{"type":"Point","coordinates":[0.8707625,42.891881]},"properties":{"ele":"1604","name":"Tuc d'Aubaguet","natural":"peak"}},
{"type":"Feature","geometry":{"type":"Point","coordinates":[0.8677924,42.8872672]},"properties":{"ele":"1650","name":"Les Tuts","natural":"peak"}},
{"type":"Feature","geometry":{"type":"Point","coordinates":[0.8536566,42.878677]},"properties":{"ele":"1717","name":"Rocher de l'Ane","natural":"peak"}},
{"type":"Feature","geometry":{"type":"Point","coordinates":[0.8514859,42.8720002]},"properties":{"ele":"1996","name":"Pic des Agneres","natural":"peak"}},
{"type":"Feature","geometry":{"type":"Point","coordinates":[0.8528322,42.8681682]},"properties":{"ele":"2096","name":"Cap de la Coume d'Oueillet","natural":"peak"}},
{"type":"Feature","geometry":{"type":"Point","coordinates":[0.8480593,42.8655543]},"properties":{"ele":"2110","name":"Pic d'Auere","natural":"peak"}},
{"type":"Feature","geometry":{"type":"Point","coordinates":[0.8441459,42.8662294]},"properties":{"ele":"2139","name":"Pic de Peyre Nere","natural":"peak"}},
{"type":"Feature","geometry":{"type":"Point","coordinates":[0.8515984,42.8528178]},"properties":{"ele":"2001","name":"Couret de l'Etang","natural":"peak"}},
{"type":"Feature","geometry":{"type":"Point","coordinates":[0.8818413,42.8540162]},"properties":{"ele":"1561","name":"Tuc de l'Usclade","natural":"peak"}},
{"type":"Feature","geometry":{"type":"Point","coordinates":[0.8709036,42.8675988]},"properties":{"ele":"2067","name":"Roche des Gours","natural":"peak"}},
{"type":"Feature","geometry":{"type":"Point","coordinates":[0.8912581,42.8652464]},"properties":{"ele":"1868","name":"Couret du Teil","natural":"peak"}},
{"type":"Feature","geometry":{"type":"Point","coordinates":[0.8933131,42.8637386]},"properties":{"ele":"1846","name":"Tuc des Courdals","natural":"peak"}},
{"type":"Feature","geometry":{"type":"Point","coordinates":[0.896289,42.8622964]},"properties":{"ele":"1630","name":"Pic de l'Auère","natural":"peak"}},
{"type":"Feature","geometry":{"type":"Point","coordinates":[1.017552,42.8386267]},"properties":{"ele":"1317","name":"Mail de Castet Crabé","natural":"peak"}},
{"type":"Feature","geometry":{"type":"Point","coordinates":[1.0203727,42.8343512]},"properties":{"name":"Mail Blanc","natural":"peak"}},
{"type":"Feature","geometry":{"type":"Point","coordinates":[1.0280981,42.8271239]},"properties":{"name":"Mail du Tucau des Loups","natural":"peak"}},
{"type":"Feature","geometry":{"type":"Point","coordinates":[1.0283656,42.8232539]},"properties":{"ele":"1781","name":"Tuc de l'Auérade","natural":"peak"}},
{"type":"Feature","geometry":{"type":"Point","coordinates":[1.0188014,42.9169765]},"properties":{"ele":"739","name":"Tuc Auriol","natural":"peak"}},
{"type":"Feature","geometry":{"type":"Point","coordinates":[1.0143392,42.9155836]},"properties":{"ele":"765","name":"la Serre","natural":"peak"}},
{"type":"Feature","geometry":{"type":"Point","coordinates":[1.0065164,42.9129701]},"properties":{"ele":"840","name":"Couret","natural":"peak"}},
{"type":"Feature","geometry":{"type":"Point","coordinates":[0.9994863,42.9112311]},"properties":{"ele":"877","name":"le Tuc","natural":"peak"}},
{"type":"Feature","geometry":{"type":"Point","coordinates":[1.010442,42.8752183]},"properties":{"name":"le Couret","natural":"peak"}},
{"type":"Feature","geometry":{"type":"Point","coordinates":[1.0237053,42.9101667]},"properties":{"ele":"694","name":"Couret","natural":"peak"}},
{"type":"Feature","geometry":{"type":"Point","coordinates":[1.0156643,42.9034428]},"properties":{"ele":"961","name":"le Picou","natural":"peak"}},
{"type":"Feature","geometry":{"type":"Point","coordinates":[1.0146293,42.8988902]},"properties":{"name":"Tuc Cournut","natural":"peak"}},
{"type":"Feature","geometry":{"type":"Point","coordinates":[1.0083967,42.896405]},"properties":{"ele":"1287","name":"Pic du Mail Blanc","natural":"peak"}},
{"type":"Feature","geometry":{"type":"Point","coordinates":[0.847911,42.897987]},"properties":{"ele":"1453","name":"Côte de Roc","natural":"peak"}},
{"type":"Feature","geometry":{"type":"Point","coordinates":[0.8857088,42.9411307]},"properties":{"ele":"887","name":"Espones","natural":"peak"}},
{"type":"Feature","geometry":{"type":"Point","coordinates":[0.9301734,42.9432564]},"properties":{"ele":"934","name":"le Tignan","natural":"peak"}},
{"type":"Feature","geometry":{"type":"Point","coordinates":[0.984516,42.9417612]},"properties":{"ele":"701","name":"le Char","natural":"peak"}},
{"type":"Feature","geometry":{"type":"Point","coordinates":[0.981745,42.9352032]},"properties":{"ele":"643","name":"Tuc de castera","natural":"peak"}},
{"type":"Feature","geometry":{"type":"Point","coordinates":[0.9573543,42.8864407]},"properties":{"ele":"1066","name":"Tuc de Coumere","natural":"peak"}},
{"type":"Feature","geometry":{"type":"Point","coordinates":[0.7995852,42.9445459]},"properties":{"ele":"1228","name":"Montagne de Pouech","natural":"peak"}},
{"type":"Feature","geometry":{"type":"Point","coordinates":[0.8071948,42.9493534]},"properties":{"ele":"976","name":"les Pugues","natural":"peak"}},
{"type":"Feature","geometry":{"type":"Point","coordinates":[0.8231129,42.9595983]},"properties":{"ele":"1102","name":"Plan d'Anso","natural":"peak"}},
{"type":"Feature","geometry":{"type":"Point","coordinates":[0.8240193,42.9696268]},"properties":{"ele":"1202","name":"Couéu de Picon","natural":"peak"}},
{"type":"Feature","geometry":{"type":"Point","coordinates":[0.8290895,42.9901114]},"properties":{"ele":"1015","name":"Coubech","natural":"peak"}},
{"type":"Feature","geometry":{"type":"Point","coordinates":[0.8022166,43.0278949]},"properties":{"ele":"527","name":"Cap de Garrot","natural":"peak"}},
{"type":"Feature","geometry":{"type":"Point","coordinates":[0.8126343,43.0293431]},"properties":{"ele":"498","name":"la Garrosse","natural":"peak"}},
{"type":"Feature","geometry":{"type":"Point","coordinates":[0.8103437,43.0391632]},"properties":{"ele":"538","name":"la Hage","natural":"peak"}},
{"type":"Feature","geometry":{"type":"Point","coordinates":[0.8378172,42.9958458]},"properties":{"ele":"1025","name":"Couéu","natural":"peak"}},
{"type":"Feature","geometry":{"type":"Point","coordinates":[0.8509387,43.0034923]},"properties":{"ele":"902","name":"Sauère","natural":"peak"}},
{"type":"Feature","geometry":{"type":"Point","coordinates":[0.844708,43.0157296]},"properties":{"ele":"765","name":"Cap de Laclin","natural":"peak"}},
{"type":"Feature","geometry":{"type":"Point","coordinates":[0.8430486,42.9564013]},"properties":{"ele":"1538","name":"Tuc de la Casse","natural":"peak"}},
{"type":"Feature","geometry":{"type":"Point","coordinates":[0.8647433,42.9582608]},"properties":{"name":"Cap des Teches","natural":"peak"}},
{"type":"Feature","geometry":{"type":"Point","coordinates":[0.8685137,42.963199]},"properties":{"name":"Mail de Peyreguile","natural":"peak"}},
{"type":"Feature","geometry":{"type":"Point","coordinates":[0.8805839,42.973391]},"properties":{"ele":"1115","name":"Mail des Hustes","natural":"peak"}},
{"type":"Feature","geometry":{"type":"Point","coordinates":[0.8878819,42.9827293]},"properties":{"name":"Mail le Bouruse","natural":"peak"}},
{"type":"Feature","geometry":{"type":"Point","coordinates":[0.8839133,42.981962]},"properties":{"name":"Mail de iech","natural":"peak"}},
{"type":"Feature","geometry":{"type":"Point","coordinates":[0.8778975,42.9795427]},"properties":{"ele":"1117","name":"Rohr de Péne Blanque","natural":"peak"}},
{"type":"Feature","geometry":{"type":"Point","coordinates":[0.8629612,42.9868016]},"properties":{"name":"Sommet de la Rueron","natural":"peak"}},
{"type":"Feature","geometry":{"type":"Point","coordinates":[0.8718138,42.9898066]},"properties":{"ele":"904","name":"Cap de l'Aure","natural":"peak"}},
{"type":"Feature","geometry":{"type":"Point","coordinates":[0.8983532,42.9947185]},"properties":{"ele":"495","name":"Tuc de Masquere","natural":"peak"}},
{"type":"Feature","geometry":{"type":"Point","coordinates":[0.9002312,43.0010224]},"properties":{"ele":"466","name":"le Tuc","natural":"peak"}},
{"type":"Feature","geometry":{"type":"Point","coordinates":[0.8996321,43.0122665]},"properties":{"ele":"472","name":"Tucau","natural":"peak"}},
{"type":"Feature","geometry":{"type":"Point","coordinates":[0.8928483,43.0249662]},"properties":{"ele":"517","name":"Mont Caup","natural":"peak"}},
{"type":"Feature","geometry":{"type":"Point","coordinates":[0.8870681,43.0295407]},"properties":{"ele":"423","name":"Lozes","natural":"peak"}},
{"type":"Feature","geometry":{"type":"Point","coordinates":[0.8601494,43.0184989]},"properties":{"ele":"769","name":"Tuque d'Artigouli","natural":"peak"}},
{"type":"Feature","geometry":{"type":"Point","coordinates":[0.8675255,43.0223463]},"properties":{"name":"Plan du Lac","natural":"peak"}},
{"type":"Feature","geometry":{"type":"Point","coordinates":[0.8706142,43.0246012]},"properties":{"ele":"812","name":"le Thouas","natural":"peak"}},
{"type":"Feature","geometry":{"type":"Point","coordinates":[0.8696786,43.0297043]},"properties":{"ele":"684","name":"la Pique","natural":"peak"}},
{"type":"Feature","geometry":{"type":"Point","coordinates":[0.869802,43.0319121]},"properties":{"ele":"616","name":"Cap du Sarrach","natural":"peak"}},
{"type":"Feature","geometry":{"type":"Point","coordinates":[0.8756662,43.0312082]},"properties":{"ele":"627","name":"Ruérole","natural":"peak"}},
{"type":"Feature","geometry":{"type":"Point","coordinates":[0.8702573,43.0398448]},"properties":{"ele":"628","name":"Rouère d'Alle","natural":"peak"}},
{"type":"Feature","geometry":{"type":"Point","coordinates":[0.8592372,43.0376527]},"properties":{"ele":"577","name":"le Régon","natural":"peak"}},
{"type":"Feature","geometry":{"type":"Point","coordinates":[0.85385,43.0347613]},"properties":{"ele":"547","name":"le Castérot","natural":"peak"}},
{"type":"Feature","geometry":{"type":"Point","coordinates":[0.8600507,43.0314815]},"properties":{"ele":"648","name":"le Croudet","natural":"peak"}},
{"type":"Feature","geometry":{"type":"Point","coordinates":[0.8517328,43.0258286]},"properties":{"ele":"656","name":"la Rouère de Cériros","natural":"peak"}},
{"type":"Feature","geometry":{"type":"Point","coordinates":[0.8530524,43.021546]},"properties":{"ele":"695","name":"la Picoulette","natural":"peak"}},
{"type":"Feature","geometry":{"type":"Point","coordinates":[0.876792,42.9695686]},"properties":{"name":"Gouffre Blagnac","natural":"cave_entrance"}},
{"type":"Feature","geometry":{"type":"Point","coordinates":[0.9026623,43.0461264]},"properties":{"name":"Cap du Tuc","natural":"peak"}},
{"type":"Feature","geometry":{"type":"Point","coordinates":[0.9607844,43.0440084]},"properties":{"name":"Tucau","natural":"peak"}},
{"type":"Feature","geometry":{"type":"Point","coordinates":[0.9576585,43.0426245]},"properties":{"name":"Mont Caud","natural":"peak"}},
{"type":"Feature","geometry":{"type":"Point","coordinates":[0.9705955000000001,43.0383524]},"properties":{"name":"Mont de Chac","natural":"peak"}},
{"type":"Feature","geometry":{"type":"Point","coordinates":[0.9858642,43.0352405]},"properties":{"name":"la Ruère","natural":"peak"}},
{"type":"Feature","geometry":{"type":"Point","coordinates":[0.9851797,43.0304185]},