{"type":"FeatureCollection","features":[
{"type":"Feature","geometry":{"type":"Point","coordinates":[4.4615454,44.3526284]},"properties":{"direction":"270","tourism":"viewpoint"}},
{"type":"Feature","geometry":{"type":"Point","coordinates":[4.4613222,44.3531081]},"properties":{"direction":"0","tourism":"viewpoint"}},
{"type":"Feature","geometry":{"type":"Point","coordinates":[4.483403,44.3392139]},"properties":{"direction":"135","name":"Belvédère de la Madeleine","source":"BDTopo IGN","tourism":"viewpoint"}},
{"type":"Feature","geometry":{"type":"Point","coordinates":[4.4850213,44.339735]},"properties":{"name":"Grotte de la Madeleine","natural":"cave_entrance","tourism":"attraction","wikidata":"Q17516228","wikipedia":"fr:Grotte de la Madeleine"}},
{"type":"Feature","geometry":{"type":"Point","coordinates":[4.4725318,44.3489098]},"properties":{"name":"Aven de Courtinen","natural":"cave_entrance"}},
{"type":"Feature","geometry":{"type":"Point","coordinates":[4.5083735,44.355754]},"properties":{"name":"Aven de la Vigne Close","natural":"cave_entrance","wheelchair":"no"}},
{"type":"Feature","geometry":{"type":"Point","coordinates":[4.4766435,44.343249]},"properties":{"name":"Balcon de Gournier","name:en":"Gournier viewpoint","name:fr":"Balcon de Gournier","tourism":"viewpoint"}},
{"type":"Feature","geometry":{"type":"Point","coordinates":[4.4396108,44.3739573]},"properties":{"description":"Belvédère","name":"Belvédère du Serre de Tourre","source":"BDTopo IGN","tourism":"viewpoint"}},
{"type":"Feature","geometry":{"type":"Point","coordinates":[4.4644963,44.3504298]},"properties":{"alt_name":"Balcon du Cros de l'Olivier","name":"Balcon des Gorges","tourism":"viewpoint"}},
{"type":"Feature","geometry":{"type":"Point","coordinates":[4.5007676,44.345657]},"properties":{"name":"Belvédère les Templiers","tourism":"viewpoint"}},
{"type":"Feature","geometry":{"type":"Point","coordinates":[4.47628,44.35475]},"properties":{"fixme":"I'm not sure wheter the name is correct","name":"Aven Gauthier","natural":"cave_entrance"}},
{"type":"Feature","geometry":{"type":"Point","coordinates":[4.47803,44.35284]},"properties":{"name":"Aven du Cadet","natural":"cave_entrance"}},
{"type":"Feature","geometry":{"type":"Point","coordinates":[4.4867639,44.3398169]},"properties":{"name":"Balcon des Gorges (la Cathédrale)","tourism":"viewpoint"}},
{"type":"Feature","geometry":{"type":"Point","coordinates":[4.5095611,44.3406923]},"properties":{"direction":"270","name":"Balcon la Maladrerie","tourism":"viewpoint"}},
{"type":"Feature","geometry":{"type":"Point","coordinates":[4.465911,44.354579]},"properties":{"tourism":"information"}},
{"type":"Feature","geometry":{"type":"Point","coordinates":[4.4620228,44.3527657]},"properties":{"historic":"archaeological_site","name":"Dolmen du Chanet 1"}},
{"type":"Feature","geometry":{"type":"Point","coordinates":[4.4336768,44.3554088]},"properties":{"historic":"memorial","memorial":"war_memorial","name":"Mémorial aux fusillés en 1944","ref:FR:MemorialGenWeb":"23455"}},
{"type":"Feature","geometry":{"type":"Point","coordinates":[4.4574894,44.3416572]},"properties":{"historic":"archaeological_site","name":"Baume d'Oulins","source":"Reperage local"}},
{"type":"Feature","geometry":{"type":"Point","coordinates":[4.4392385,44.373883]},"properties":{"ele":"323","mountain_pass":"yes","name":"Col du Serre de Tourre","natural":"saddle"}},
{"type":"Feature","geometry":{"type":"Point","coordinates":[4.438769,44.374322]},"properties":{"tourism":"viewpoint"}},
{"type":"Feature","geometry":{"type":"Point","coordinates":[4.4667366,44.3624048]},"properties":{"name":"Balcon d'Autridge","tourism":"viewpoint"}},
{"type":"Feature","geometry":{"type":"Point","coordinates":[4.5042604,44.3415167]},"properties":{"tourism":"viewpoint"}},
{"type":"Feature","geometry":{"type":"Point","coordinates":[4.4650592,44.4406261]},"properties":{"ele":"325","name":"Pas Chabrol","natural":"saddle"}},
{"type":"Feature","geometry":{"type":"Point","coordinates":[4.4758124,44.3856615]},"properties":{"name":"Musée de la Lavande","tourism":"museum"}},
{"type":"Feature","geometry":{"type":"Point","coordinates":[4.4850886,44.3397592]},"properties":{"name":"Grotte de la Madeleine","tourism":"attraction"}},
{"type":"Feature","geometry":{"type":"Point","coordinates":[4.4287553,44.4358441]},"properties":{"barrier":"gate","emergency":"yes"}},
{"type":"Feature","geometry":{"type":"Point","coordinates":[4.4823189,44.4346306]},"properties":{"mountain_pass":"yes","name":"Col de Baravon","natural":"saddle"}},
{"type":"Feature","geometry":{"type":"Point","coordinates":[4.4769191,44.3425062]},"properties":{"name":"Aven Rochas","natural":"cave_entrance"}},
{"type":"Feature","geometry":{"type":"Point","coordinates":[4.510853,44.369192]},"properties":{"name":"Les Dinos de Marzal","tourism":"attraction","website":"http://www.zoo-dinosaures.com/"}},
{"type":"Feature","geometry":{"type":"Point","coordinates":[4.5046856,44.3403121]},"properties":{"historic":"yes","name":"La Maladrerie des Templiers"}},
{"type":"Feature","geometry":{"type":"Point","coordinates":[4.5025222,44.4291982]},"properties":{"ele":"726","name":"Dent de Rez","natural":"peak","wikidata":"Q31632143"}},
{"type":"Feature","geometry":{"type":"Point","coordinates":[4.4931601,44.3404045]},"properties":{"direction":"180","tourism":"viewpoint"}},
{"type":"Feature","geometry":{"type":"Point","coordinates":[4.4574423,44.3416175]},"properties":{"name":"Baume d'Oullins","natural":"cave_entrance","wikidata":"Q2892044","wikipedia":"fr:Baume_d'Oullins"}},
{"type":"Feature","geometry":{"type":"Point","coordinates":[4.4578022,44.3377287]},"properties":{"name":"Aven des Neuf Gorges","natural":"cave_entrance"}},
{"type":"Feature","geometry":{"type":"Point","coordinates":[4.4472928,44.3555652]},"properties":{"description":"fr:grotte-résurgence","name":"Dragonnière de Labastide","natural":"cave_entrance"}},
{"type":"Feature","geometry":{"type":"Point","coordinates":[4.476369,44.3990777]},"properties":{"name":"Grotte de la Pécoulette","natural":"cave_entrance"}},
{"type":"Feature","geometry":{"type":"Point","coordinates":[4.5159844,44.3369373]},"properties":{"name":"Aven de la Rouvière","natural":"cave_entrance","wikidata":"Q93614763"}},
{"type":"Feature","geometry":{"type":"Point","coordinates":[4.5064292,44.343939]},"properties":{"fixme":"A placer plus précisément","name":"Grotte du Cirque","natural":"cave_entrance"}},
{"type":"Feature","geometry":{"type":"Point","coordinates":[4.5017209,44.3702018]},"properties":{"name":"Aven du Faux Marzal","natural":"cave_entrance"}},
{"type":"Feature","geometry":{"type":"Point","coordinates":[4.5105687,44.3695888]},"properties":{"name":"Aven Marzal","natural":"cave_entrance","tourism":"attraction","website":"https://www.aven-marzal.com/grotte/salles","wikidata":"Q38298726","wikipedia":"fr:Aven Marzal"}},
{"type":"Feature","geometry":{"type":"Point","coordinates":[4.4946559,44.3822863]},"properties":{"name":"Aven du Devès de Reynaud","natural":"cave_entrance"}},
{"type":"Feature","geometry":{"type":"Point","coordinates":[4.4576887,44.3523524]},"properties":{"name":"Grotte du Parapluie","natural":"cave_entrance"}},
{"type":"Feature","geometry":{"type":"Point","coordinates":[4.4445298,44.4447251]},"properties":{"name":"Ranc de l'Arc","tourism":"viewpoint"}},
{"type":"Feature","geometry":{"type":"Point","coordinates":[4.4515231,44.3588017]},"properties":{"board_type":"plants","description":"Laurier-tin","description:en":"Viburnum tinus","information":"board","tourism":"information"}},
{"type":"Feature","geometry":{"type":"Point","coordinates":[4.4555487,44.3639411]},"properties":{"name":"La Châtaigneraie","natural":"beach"}},
{"type":"Feature","geometry":{"type":"Point","coordinates":[4.4510291,44.402392999999999]},"properties":{"historic":"ruins"}},
{"type":"Feature","geometry":{"type":"Point","coordinates":[4.4504683,44.4043929]},"properties":{"historic":"ruins"}},
{"type":"Feature","geometry":{"type":"Point","coordinates":[4.4690828,44.3419085]},"properties":{"ele":"90","hiking":"yes","information":"guidepost","name":"Accueil Gournier","tourism":"information"}},
{"type":"Feature","geometry":{"type":"Point","coordinates":[4.4775346,44.3516402]},"properties":{"ele":"325","hiking":"yes","information":"guidepost","name":"Aven du Cadet","tourism":"information"}},
{"type":"Feature","geometry":{"type":"Point","coordinates":[4.4750592,44.3471942]},"properties":{"information":"guidepost","name":"Barrière gournier","tourism":"information"}},
{"type":"Feature","geometry":{"type":"Point","coordinates":[4.466395,44.3408227]},"properties":{"information":"guidepost","name":"Bivouac de Gournier","tourism":"information"}},
{"type":"Feature","geometry":{"type":"Point","coordinates":[4.4689392,44.355464]},"properties":{"ele":"270","hiking":"yes","information":"guidepost","name":"Le Chanet","tourism":"information"}},
{"type":"Feature","geometry":{"type":"Point","coordinates":[4.4656715,44.3486972]},"properties":{"direction":"225","name":"Le Cros de l'Olivier","tourism":"viewpoint"}},
{"type":"Feature","geometry":{"type":"Point","coordinates":[4.4797948,44.3503509]},"properties":{"ele":"315","hiking":"yes","information":"map","map_type":"scheme","name":"Maison Forestière","tourism":"information"}},
{"type":"Feature","geometry":{"type":"Point","coordinates":[4.4503317,44.369363]},"properties":{"name":"Grotte des Celtes","natural":"cave_entrance"}},
{"type":"Feature","geometry":{"type":"Point","coordinates":[4.4362355,44.3765694]},"properties":{"name":"Grotte Renault","natural":"cave_entrance"}},
{"type":"Feature","geometry":{"type":"Point","coordinates":[4.4490156,44.4357935]},"properties":{"historic":"memorial","memorial":"stone"}},
{"type":"Feature","geometry":{"type":"Point","coordinates":[4.5023165,44.4314525]},"properties":{"ele":"700","hiking":"yes","information":"guidepost","name":"Dent de Rez","survey:date":"2020-03-09","tourism":"information"}},
{"type":"Feature","geometry":{"type":"Point","coordinates":[4.5025803,44.4292357]},"properties":{"information":"map","map_type":"toposcope","tourism":"viewpoint"}},
{"type":"Feature","geometry":{"type":"Point","coordinates":[4.5111078,44.4414185]},"properties":{"ele":"440","hiking":"yes","information":"guidepost","name":"Laulagnier","survey:date":"2020-03-09","tourism":"information"}},
{"type":"Feature","geometry":{"type":"Point","coordinates":[4.4578408,44.3965144]},"properties":{"name":"Source du Tiourre","natural":"cave_entrance"}},
{"type":"Feature","geometry":{"type":"Point","coordinates":[4.5105912,44.3666262]},"properties":{"name":"Aven de Centura","natural":"cave_entrance"}},
{"type":"Feature","geometry":{"type":"Point","coordinates":[4.5108507,44.3660072]},"properties":{"name":"Aven de Reynaud","natural":"cave_entrance"}},
{"type":"Feature","geometry":{"type":"Point","coordinates":[4.5194588,44.366993]},"properties":{"name":"Aven de Varade","natural":"cave_entrance"}},
{"type":"Feature","geometry":{"type":"Point","coordinates":[4.540615,44.3559525]},"properties":{"name":"Aven de Fontlongue","natural":"cave_entrance"}},
{"type":"Feature","geometry":{"type":"Point","coordinates":[4.5181624,44.3770305]},"properties":{"name":"Aven de l'Arbre Rond","natural":"cave_entrance"}},
{"type":"Feature","geometry":{"type":"Point","coordinates":[4.4868368,44.3725438]},"properties":{"name":"Aven des Costes Chaudes","natural":"cave_entrance"}},
{"type":"Feature","geometry":{"type":"Point","coordinates":[4.4942081,44.3617062]},"properties":{"name":"Aven de Chenivesse","natural":"cave_entrance"}},
{"type":"Feature","geometry":{"type":"Point","coordinates":[4.4925634,44.3394678]},"properties":{"name":"La Cathédrale","natural":"peak"}},
{"type":"Feature","geometry":{"type":"Point","coordinates":[4.4691216,44.3538889]},"properties":{"historic":"archaeological_site","name":"Dolmen du Chanet 2","source":"GPS"}},
{"type":"Feature","geometry":{"type":"Point","coordinates":[4.4795402,44.3502878]},"properties":{"leisure":"picnic_table"}},
{"type":"Feature","geometry":{"type":"Point","coordinates":[4.4661103,44.3481623]},"properties":{"tourism":"viewpoint"}},
{"type":"Feature","geometry":{"type":"Point","coordinates":[4.5198232,44.4163492]},"properties":{"name":"Aven","natural":"cave_entrance"}},
{"type":"Feature","geometry":{"type":"Point","coordinates":[4.5119761,44.4183915]},"properties":{"natural":"cave_entrance"}},
{"type":"Feature","geometry":{"type":"Point","coordinates":[4.4499994,44.3875016]},"properties":{"addr:postcode":"07150","name":"Vieux moulin du Tiourre","tourism":"attraction"}},
{"type":"Feature","geometry":{"type":"Point","coordinates":[4.4763058,44.3854872]},"properties":{"tourism":"picnic_site"}},
{"type":"Feature","geometry":{"type":"Point","coordinates":[4.4943373,44.3381814]},"properties":{"name":"Source du Castor","natural":"cave_entrance"}},
{"type":"Feature","geometry":{"type":"Point","coordinates":[4.468037,44.3397079]},"properties":{"name":"Event de Gournier","natural":"cave_entrance"}},
{"type":"Feature","geometry":{"type":"Point","coordinates":[4.4561465,44.3463195]},"properties":{"direction":"90","tourism":"viewpoint"}},
{"type":"Feature","geometry":{"type":"Point","coordinates":[4.5355685,44.3659078]},"properties":{"leisure":"picnic_table"}},
{"type":"Feature","geometry":{"type":"Point","coordinates":[4.53548,44.3654792]},"properties":{"denomination":"catholic","historic":"wayside_cross","religion":"christian"}},
{"type":"Feature","geometry":{"type":"Point","coordinates":[4.5345278,44.3662635]},"properties":{"natural":"tree"}},
{"type":"Feature","geometry":{"type":"Point","coordinates":[4.5344111,44.3662079]},"properties":{"natural":"tree"}},
{"type":"Feature","geometry":{"type":"Point","coordinates":[4.4535282,44.387095]},"properties":{"intermittent":"yes","name":"Cascade de Pissevieille","waterway":"waterfall"}},
{"type":"Feature","geometry":{"type":"Point","coordinates":[4.4631958,44.3638081]},"properties":{"name":"Gorges de l'Ardèche","natural":"gorge","tourism":"attraction"}},
{"type":"Feature","geometry":{"type":"Point","coordinates":[4.5427336,44.4326985]},"properties":{"ele":"364","ele:signed":"364","hiking":"yes","information":"guidepost","name":"École","survey:date":"2020-03-09","tourism":"information"}},
{"type":"Feature","geometry":{"type":"Point","coordinates":[4.5389096,44.4325247]},"properties":{"ele":"377","ele:signed":"377","hiking":"yes","information":"guidepost","name":"Bouisset","survey:date":"2020-03-09","tourism":"information"}},
{"type":"Feature","geometry":{"type":"Point","coordinates":[4.5306484,44.4332095]},"properties":{"ele":"390","ele:signed":"no","hiking":"yes","information":"guidepost","name":"Bréchon","survey:date":"2020-03-09","tourism":"information"}},
{"type":"Feature","geometry":{"type":"Point","coordinates":[4.5089623,44.4258104]},"properties":{"ele":"525","ele:signed":"no","hiking":"yes","information":"guidepost","name":"Gerles","survey:date":"2020-03-09","tourism":"information"}},
{"type":"Feature","geometry":{"type":"Point","coordinates":[4.4996441,44.4245629]},"properties":{"ele":"605","hiking":"yes","information":"guidepost","name":"Col d'Eyrole","tourism":"information"}},
{"type":"Feature","geometry":{"type":"Point","coordinates":[4.5144016,44.4432263]},"properties":{"ele":"466","ele:signed":"466","hiking":"yes","information":"guidepost","name":"Hameau de Gogne","survey:date":"2020-03-09","tourism":"information"}},
{"type":"Feature","geometry":{"type":"Point","coordinates":[4.5212283,44.4429088]},"properties":{"ele":"435","hiking":"yes","information":"guidepost","name":"Serrelia","survey:date":"2020-03-09","tourism":"information"}},
{"type":"Feature","geometry":{"type":"Point","coordinates":[4.47521,44.42407]},"properties":{"ele":"515","natural":"spring","ref:refuges.info":"4720"}},
{"type":"Feature","geometry":{"type":"Point","coordinates":[4.5112704,44.3694406]},"properties":{"fee":"yes","name":"Musée du Monde Souterrain","source":"BDTopo IGN","tourism":"museum","website":"https://www.aven-marzal.com/mus%C3%A9e"}},
{"type":"Feature","geometry":{"type":"Point","coordinates":[4.5072082,44.3456403]},"properties":{"description":"Belvédère","direction":"225","name":"Belvédère de la Maladrerie","source":"BDTopo IGN","tourism":"viewpoint"}},
{"type":"Feature","geometry":{"type":"Point","coordinates":[4.4509097,44.3639389]},"properties":{"source":"BDTopo IGN","tourism":"viewpoint"}},
{"type":"Feature","geometry":{"type":"Point","coordinates":[4.4849311,44.3410049]},"properties":{"description":"Belvédère","name":"Belvédère de la Cathédrale","source":"BDTopo IGN","tourism":"viewpoint"}},
{"type":"Feature","geometry":{"type":"Point","coordinates":[4.4767671,44.3436406]},"properties":{"name":"Balcon de Gournier","source":"BDTopo IGN","tourism":"viewpoint"}},
{"type":"Feature","geometry":{"type":"Point","coordinates":[4.503907,44.3466248]},"properties":{"direction":"180","name":"Balcon des Templiers","source":"BDTopo IGN","tourism":"viewpoint"}},
{"type":"Feature","geometry":{"type":"Point","coordinates":[4.469845,44.3567372]},"properties":{"source":"BDTopo IGN","tourism":"viewpoint"}},
{"type":"Feature","geometry":{"type":"Point","coordinates":[4.5097992,44.3388766]},"properties":{"direction":"225","source":"BDTopo IGN","tourism":"viewpoint"}},
{"type":"Feature","geometry":{"type":"Point","coordinates":[4.4539274,44.3667625]},"properties":{"source":"BDTopo IGN","tourism":"viewpoint"}},
{"type":"Feature","geometry":{"type":"Point","coordinates":[4.440627,44.3789797]},"properties":{"source":"BDTopo IGN","tourism":"viewpoint"}},
{"type":"Feature","geometry":{"type":"Point","coordinates":[4.4836771,44.3398223]},"properties":{"information":"office","name":"Maison de la Réserve Naturelle des Gorges de l'Ardèche","source":"BDTopo IGN","tourism":"information"}},
{"type":"Feature","geometry":{"type":"Point","coordinates":[4.5296033,44.3372383]},"properties":{"alt_name":"Le Mazet","name":"Centre équestre Le Mazet","phone":"+33 4 75 98 85 51","tourism":"guest_house","website":"https://lemazet.fr/hebergement"}},
{"type":"Feature","geometry":{"type":"Point","coordinates":[4.5025384,44.3928283]},"properties":{"description":"Gîte d'étape","name":"Gîte d'étape de Saint-Remèze","source":"BDTopo IGN","tourism":"hostel","website":"https://www.ardeche-guide.com/hebergement/gites-d-etape-et-de-sejour/gite-d-etape-de-st-remeze-196068"}},
{"type":"Feature","geometry":{"type":"Point","coordinates":[4.4814,44.3976685]},"properties":{"historic":"memorial","memorial":"stele","source":"BDTopo IGN"}},
{"type":"Feature","geometry":{"type":"Point","coordinates":[4.5159005,44.42694]},"properties":{"information":"guidepost","tourism":"information"}},
{"type":"Feature","geometry":{"type":"Point","coordinates":[4.5063891,44.3439237]},"properties":{"direction":"135-290","tourism":"viewpoint"}},
{"type":"Feature","geometry":{"type":"Point","coordinates":[4.4303269,44.3911511]},"properties":{"ele":"285","hiking":"yes","information":"guidepost","name":"Bois du Roi","tourism":"information"}},
{"type":"Feature","geometry":{"type":"Point","coordinates":[4.4304482,44.3946989]},"properties":{"ele":"327","hiking":"yes","information":"guidepost","name":"Pousaras","survey:date":"2023-08-29","tourism":"information"}},
{"type":"Feature","geometry":{"type":"Point","coordinates":[4.4436718,44.4031305]},"properties":{"ele":"421","ele:signed":"no","hiking":"yes","information":"guidepost","name":"Serre de la Desferre","survey:date":"2023-08-29","tourism":"information"}},
{"type":"Feature","geometry":{"type":"Point","coordinates":[4.4345352,44.4032449]},"properties":{"ele":"290","ele:signed":"no","hiking":"yes","information":"guidepost","name":"La Barthe","survey:date":"2023-08-29","tourism":"information"}},
{"type":"Feature","geometry":{"type":"Point","coordinates":[4.5182321,44.4292514]},"properties":{"access":"yes","name":"Grotte de la Vignasse","natural":"cave_entrance","survey:date":"2022-01-29"}},
{"type":"Feature","geometry":{"type":"Point","coordinates":[4.5401353,44.444135]},"properties":{"bench":"yes","leisure":"picnic_table","material":"wood"}},
{"type":"Feature","geometry":{"type":"Point","coordinates":[4.4696447,44.3418504]},"properties":{"leisure":"picnic_table"}},
{"type":"Feature","geometry":{"type":"Point","coordinates":[4.4698868,44.342045]},"properties":{"leisure":"picnic_table"}},
{"type":"Feature","geometry":{"type":"Point","coordinates":[4.4700221,44.3421829]},"properties":{"leisure":"picnic_table"}},
{"type":"Feature","geometry":{"type":"Point","coordinates":[4.4698847,44.3421238]},"properties":{"leisure":"picnic_table"}},
{"type":"Feature","geometry":{"type":"Point","coordinates":[4.4702579,44.3420844]},"properties":{"leisure":"picnic_table"}},
{"type":"Feature","geometry":{"type":"Point","coordinates":[4.4696407,44.3420134]},"properties":{"leisure":"picnic_table"}},
{"type":"Feature","geometry":{"type":"Point","coordinates":[4.4695811,44.3419885]},"properties":{"leisure":"picnic_table"}},
{"type":"Feature","geometry":{"type":"Point","coordinates":[4.5045666,44.3397341]},"properties":{"information":"board","tourism":"information"}},
{"type":"Feature","geometry":{"type":"Point","coordinates":[4.5044043,44.3410401]},"properties":{"tourism":"viewpoint"}},
{"type":"Feature","geometry":{"type":"Point","coordinates":[4.463467,44.3458454]},"properties":{"information":"guidepost","tourism":"information"}},
{"type":"Feature","geometry":{"type":"Point","coordinates":[4.457442,44.3416391]},"properties":{"information":"board","tourism":"information"}},
{"type":"Feature","geometry":{"type":"Point","coordinates":[4.4643134,44.3426902]},"properties":{"information":"guidepost","tourism":"information"}},
{"type":"Feature","geometry":{"type":"Point","coordinates":[4.4632232,44.3424369]},"properties":{"information":"guidepost","tourism":"information"}},
{"type":"Feature","geometry":{"type":"Point","coordinates":[4.4731605,44.340128]},"properties":{"information":"guidepost","name":"La combe du Crau","tourism":"information"}},
{"type":"Feature","geometry":{"type":"Point","coordinates":[4.4989733,44.3403699]},"properties":{"information":"board","tourism":"information"}},
{"type":"Feature","geometry":{"type":"Point","coordinates":[4.4991366,44.3401672]},"properties":{"information":"guidepost","tourism":"information"}},
{"type":"Feature","geometry":{"type":"Point","coordinates":[4.5036716,44.3379893]},"properties":{"direction":"225-135","tourism":"viewpoint"}},
{"type":"Feature","geometry":{"type":"Point","coordinates":[4.5002934,44.3364613]},"properties":{"direction":"230-60","tourism":"viewpoint"}},
{"type":"Feature","geometry":{"type":"Point","coordinates":[4.4397521,44.3573837]},"properties":{"tourism":"viewpoint"}},
{"type":"Feature","geometry":{"type":"Point","coordinates":[4.4340854,44.3605752]},"properties":{"tourism":"viewpoint"}},
{"type":"Feature","geometry":{"type":"Point","coordinates":[4.4410923,44.3552951]},"properties":{"tourism":"viewpoint"}},
{"type":"Feature","geometry":{"type":"Point","coordinates":[4.440714,44.3555761]},"properties":{"tourism":"viewpoint"}},
{"type":"Feature","geometry":{"type":"Point","coordinates":[4.438778,44.3607136]},"properties":{"tourism":"viewpoint"}},
{"type":"Feature","geometry":{"type":"Point","coordinates":[4.4482689,44.3534234]},"properties":{"tourism":"viewpoint"}},
{"type":"Feature","geometry":{"type":"Point","coordinates":[4.5044291,44.3411191]},"properties":{"name":"(Pas)","natural":"rock"}},
{"type":"Feature","geometry":{"type":"Point","coordinates":[4.4699262,44.3421396]},"properties":{"leisure":"picnic_table"}},
{"type":"Feature","geometry":{"type":"Point","coordinates":[4.4700053,44.3422044]},"properties":{"leisure":"picnic_table"}},
{"type":"Feature","geometry":{"type":"Point","coordinates":[4.4701081,44.3421348]},"properties":{"leisure":"picnic_table"}},
{"type":"Feature","geometry":{"type":"Point","coordinates":[4.5006113,44.3380245]},"properties":{"fixme":"A placer plus précisément...","name":"L'Aulagnère","natural":"spring"}},
{"type":"Feature","geometry":{"type":"Point","coordinates":[4.4788436,44.3396706]},"properties":{"fixme":"A placer plus précisément...","name":"Grotte de Midroï","natural":"cave_entrance"}},
{"type":"Feature","geometry":{"type":"Point","coordinates":[4.4761924,44.3410257]},"properties":{"fixme":"A placer plus précisément...","name":"Source de Richemale","natural":"spring"}},
{"type":"Feature","geometry":{"type":"Point","coordinates":[4.4676526,44.3442812]},"properties":{"fixme":"A placer plus précisément...","name":"Aiguille de Gournier","natural":"peak"}},
{"type":"Feature","geometry":{"type":"Point","coordinates":[4.4662291,44.34077]},"properties":{"fixme":"A placer plus précisément...","name":"Le Canal","natural":"spring"}},
{"type":"Feature","geometry":{"type":"Point","coordinates":[4.4579982,44.3422334]},"properties":{"direction":"90","tourism":"viewpoint"}},
{"type":"Feature","geometry":{"type":"Point","coordinates":[4.4667762,44.3586752]},"properties":{"fixme":"A placer plus précisément...","name":"Grotte du Pigeonnier","natural":"cave_entrance"}},
{"type":"Feature","geometry":{"type":"Point","coordinates":[4.4672324,44.3569094]},"properties":{"fixme":"A placer plus précisément...","name":"Source du Platane","natural":"spring"}},
{"type":"Feature","geometry":{"type":"Point","coordinates":[4.4300165,44.3673341]},"properties":{"fixme":"A placer plus précisément...","name":"Source de la Farre","natural":"spring"}},
{"type":"Feature","geometry":{"type":"Point","coordinates":[4.4305651,44.3707767]},"properties":{"fixme":"A placer plus précisément...","name":"Les Cinq Fenêtres","natural":"cave_entrance"}},
{"type":"Feature","geometry":{"type":"Point","coordinates":[4.43579,44.3759996]},"properties":{"fixme":"A placer plus précisément...","name":"Source de l'Aiguille","natural":"spring"}},
{"type":"Feature","geometry":{"type":"Point","coordinates":[4.4355017,44.3754342]},"properties":{"fixme":"A placer plus précisément...","name":"Grotte de l'Aiguille","natural":"cave_entrance"}},
{"type":"Feature","geometry":{"type":"Point","coordinates":[4.4360136,44.3788251]},"properties":{"information":"board","tourism":"information"}},
{"type":"Feature","geometry":{"type":"Point","coordinates":[4.5430672,44.4446141]},"properties":{"historic":"memorial","memorial":"war_memorial","ref:FR:MemorialGenWeb":"6123"}},
{"type":"Feature","geometry":{"type":"Point","coordinates":[4.5048584,44.3924492]},"properties":{"historic":"memorial","memorial":"stele","name":"Stèle F.F.I. 22 août 1944","ref:FR:MemorialGenWeb":"50354","war_memorial":"yes"}},
{"type":"Feature","geometry":{"type":"Point","coordinates":[4.5049067,44.3924837]},"properties":{"historic":"memorial","memorial":"war_memorial","ref:FR:MemorialGenWeb":"959"}},
{"type":"Feature","geometry":{"type":"Point","coordinates":[4.4503945,44.3585849]},"properties":{"board_type":"plants","description:en":"Wire","description:fr":"Filaire Ordinat","information":"board","tourism":"information"}},
{"type":"Feature","geometry":{"type":"Point","coordinates":[4.4492182,44.3593475]},"properties":{"board_type":"plants","description":"La Chene Very ou Yeuse","description:en":"Evergreen oak","information":"board","tourism":"information"}},
{"type":"Feature","geometry":{"type":"Point","coordinates":[4.4497791,44.3595035]},"properties":{"board_type":"plants","description":"Le chene pubescent","description:en":"Pubescent Oak or White Oak","information":"board","tourism":"information"}},
{"type":"Feature","geometry":{"type":"Point","coordinates":[4.4504318,44.3587545]},"properties":{"board_type":"plants","description:en":"Butchers Broom","description:fr":"Dragon Petit houx","information":"board","tourism":"information"}},
{"type":"Feature","geometry":{"type":"Point","coordinates":[4.4508686,44.358563]},"properties":{"board_type":"plants","description":"Le Buis","description:en":"Box","information":"board","tourism":"information"}},
{"type":"Feature","geometry":{"type":"Point","coordinates":[4.4495684,44.3595457]},"properties":{"board_type":"plants","description:en":"Juniper","description:fr":"Genevrier cade","information":"board","tourism":"information"}},
{"type":"Feature","geometry":{"type":"Point","coordinates":[4.4507615,44.3583776]},"properties":{"addr:street":"Pound Street","board_type":"wildlife","description":"Genette","description:en":"Genet","information":"board","tourism":"information"}},
{"type":"Feature","geometry":{"type":"Point","coordinates":[4.4498091,44.3590789]},"properties":{"board_type":"plants","description:fr":"L'alisier Torminal","information":"board","tourism":"information"}},
{"type":"Feature","geometry":{"type":"Point","coordinates":[4.4525205,44.3540719]},"properties":{"tourism":"viewpoint"}},
{"type":"Feature","geometry":{"type":"Point","coordinates":[4.4425744,44.3580288]},"properties":{"name":"La couille suspendue","natural":"stone"}},
{"type":"Feature","geometry":{"type":"Point","coordinates":[4.4323021,44.4345306]},"properties":{"ele":"125","hiking":"yes","information":"guidepost","name":"Vigier","tourism":"information"}},
{"type":"Feature","geometry":{"type":"Point","coordinates":[4.4953528,44.4053715]},"properties":{"ele":"520","hiking":"yes","information":"guidepost","name":"Les Costes 1","survey:date":"2024-01-26","tourism":"information"}},
{"type":"Feature","geometry":{"type":"Point","coordinates":[4.517827,44.3946035]},"properties":{"ele":"370","hiking":"yes","information":"guidepost","name":"Fontaguillon","note":"position du panneau à vérifier","tourism":"information"}},
{"type":"Feature","geometry":{"type":"Point","coordinates":[4.5276774,44.4115423]},"properties":{"ele":"370","hiking":"yes","information":"guidepost","name":"Les Buissières","tourism":"information"}},
{"type":"Feature","geometry":{"type":"Point","coordinates":[4.5074066,44.3966369]},"properties":{"ele":"370","hiking":"yes","information":"guidepost","name":"Croix du Planas","survey:date":"2024-01-26","tourism":"information"}},
{"type":"Feature","geometry":{"type":"Point","coordinates":[4.4917238,44.4043502]},"properties":{"ele":"505","hiking":"yes","information":"guidepost","name":"Les Costes 2","survey:date":"2024-01-26","tourism":"information"}},
{"type":"Feature","geometry":{"type":"Point","coordinates":[4.4958115,44.3947492]},"properties":{"ele":"365","hiking":"yes","information":"guidepost","name":"Combe Grand","survey:date":"2024-01-26","tourism":"information"}},
{"type":"Feature","geometry":{"type":"Point","coordinates":[4.4779587,44.3937775]},"properties":{"ele":"360","hiking":"yes","information":"guidepost","name":"Patroux","survey:date":"2024-01-26","tourism":"information"}},
{"type":"Feature","geometry":{"type":"Point","coordinates":[4.4771862,44.3975549]},"properties":{"ele":"325","hiking":"yes","information":"guidepost","name":"Pont Laval","survey:date":"2024-01-26","tourism":"information"}},
{"type":"Feature","geometry":{"type":"Point","coordinates":[4.4525152,44.4011367]},"properties":{"ele":"410","hiking":"yes","information":"guidepost","name":"Mayres","note":"position du panneau à vérifier","survey:date":"2023-08-29","tourism":"information"}},
{"type":"Feature","geometry":{"type":"Point","coordinates":[4.4935091,44.3375966]},"properties":{"access":"restricted","name":"Grotte aux Points","natural":"cave_entrance","wikidata":"Q3117109","wikipedia":"fr:Grotte aux points d'Aiguèze"}},
{"type":"Feature","geometry":{"type":"Point","coordinates":[4.4518849,44.4016138]},"properties":{"ele":"410","hiking":"yes","information":"guidepost","name":"Le Razal","survey:date":"2029-08-29","tourism":"information"}},
{"type":"Feature","geometry":{"type":"Point","coordinates":[4.5063795,44.3463322]},"properties":{"tourism":"viewpoint"}},
{"type":"Feature","geometry":{"type":"Point","coordinates":[4.4765851,44.3616709]},"properties":{"tourism":"viewpoint"}},
{"type":"Feature","geometry":{"type":"Point","coordinates":[4.5385873,44.4290528]},"properties":{"ele":"360","hiking":"yes","information":"guidepost","name":"Les Prés","tourism":"information"}},
{"type":"Feature","geometry":{"type":"Point","coordinates":[4.5134322,44.3558008]},"properties":{"ele":"295","hiking":"yes","information":"guidepost","name":"Claud de Goudaud","tourism":"information"}},
{"type":"Feature","geometry":{"type":"Point","coordinates":[4.5017123,44.3648359]},"properties":{"ele":"325","hiking":"yes","information":"guidepost","name":"Malbosc","tourism":"information"}},
{"type":"Feature","geometry":{"type":"Point","coordinates":[4.5033511,44.3809887]},"properties":{"ele":"400","hiking":"yes","information":"guidepost","name":"Le Deves","tourism":"information"}},
{"type":"Feature","geometry":{"type":"Point","coordinates":[4.5061715,44.3924014]},"properties":{"ele":"370","hiking":"yes","information":"guidepost","name":"Chapelle Sainte-Anne","survey:date":"2024-01-26","tourism":"information"}},
{"type":"Feature","geometry":{"type":"Point","coordinates":[4.5446062,44.3523861]},"properties":{"ele":"265","hiking":"yes","information":"guidepost","name":"Plaine du Cayre","tourism":"information"}},
{"type":"Feature","geometry":{"type":"Point","coordinates":[4.5284164,44.3666844]},"properties":{"ele":"310","hiking":"yes","information":"guidepost","name":"La Charette","tourism":"information"}},
{"type":"Feature","geometry":{"type":"Point","coordinates":[4.5347705,44.3674983]},"properties":{"ele":"300","hiking":"yes","information":"guidepost","name":"Puits de la Vieille","tourism":"information"}},
{"type":"Feature","geometry":{"type":"Point","coordinates":[4.5408323,44.360575]},"properties":{"ele":"275","hiking":"yes","information":"guidepost","name":"Grand Champ","tourism":"information"}},
{"type":"Feature","geometry":{"type":"Point","coordinates":[4.5002747,44.3928039]},"properties":{"ele":"360","hiking":"yes","information":"guidepost","name":"Place de l'Alambic","tourism":"information"}},
{"type":"Feature","geometry":{"type":"Point","coordinates":[4.5011383,44.3919682]},"properties":{"ele":"360","hiking":"yes","information":"map","map_type":"scheme","name":"Saint-Remèze","survey:date":"2024-01-26","tourism":"information"}},
{"type":"Feature","geometry":{"type":"Point","coordinates":[4.5061545,44.3923863]},"properties":{"information":"name","inscription":"Route de Bourg","support":"wall","tourism":"information"}},
{"type":"Feature","geometry":{"type":"Point","coordinates":[4.5287865,44.4321461]},"properties":{"capacity":"5","caravan_site":"motorhome_stopover","caravan_site:type":"winery","fee":"no","name":"Aire Domaine du Brechon","power_supply":"no","sanitary_dump_station":"no","tents":"no","tourism":"caravan_site","water_point":"yes"}},
{"type":"Feature","geometry":{"type":"Point","coordinates":[4.4761308,44.3847804]},"properties":{"caravan_site":"motorhome_stopover","caravan_site:type":"museum","dog":"yes","fee":"no","name":"Aire de camping-cars Maison de la Lavande","power_supply":"no","sanitary_dump_station":"no","tourism":"caravan_site","website":"https://www.lamaisondelalavande.com/preparer-votre-visite/infos-pratiques"}},
{"type":"Feature","geometry":{"type":"Point","coordinates":[4.5106249,44.3531126]},"properties":{"name":"Aven Rosa","natural":"cave_entrance"}},
{"type":"Feature","geometry":{"type":"Point","coordinates":[4.5051054,44.3925805]},"properties":{"height":"3.5","leaf_type":"broadleaved","natural":"tree"}},
{"type":"Feature","geometry":{"type":"Point","coordinates":[4.5051204,44.3924257]},"properties":{"leaf_type":"broadleaved","natural":"tree"}},
{"type":"Feature","geometry":{"type":"Point","coordinates":[4.5052122,44.3924788]},"properties":{"leaf_type":"broadleaved","natural":"tree"}},
{"type":"Feature","geometry":{"type":"Point","coordinates":[4.5051492,44.3923121]},"properties":{"leaf_type":"needleleaved","natural":"tree"}},
{"type":"Feature","geometry":{"type":"Point","coordinates":[4.5052481,44.3923214]},"properties":{"height":"2.2","leaf_type":"broadleaved","natural":"tree"}},
{"type":"Feature","geometry":{"type":"Point","coordinates":[4.5054387,44.3923263]},"properties":{"height":"2.2","leaf_type":"broadleaved","natural":"tree"}},
{"type":"Feature","geometry":{"type":"Point","coordinates":[4.5051047,44.3923083]},"properties":{"leaf_type":"needleleaved","natural":"tree"}},
{"type":"Feature","geometry":{"type":"Point","coordinates":[4.5053686,44.3923274]},"properties":{"leaf_type":"needleleaved","natural":"tree"}},
{"type":"Feature","geometry":{"type":"Point","coordinates":[4.505493,44.3923269]},"properties":{"leaf_type":"needleleaved","natural":"tree"}},
{"type":"Feature","geometry":{"type":"Point","coordinates":[4.5053384,44.3924387]},"properties":{"leaf_type":"broadleaved","natural":"tree"}},
{"type":"Feature","geometry":{"type":"Point","coordinates":[4.505327,44.392326]},"properties":{"height":"2.2","leaf_type":"broadleaved","natural":"tree"}},
{"type":"Feature","geometry":{"type":"Point","coordinates":[4.50521,44.3924294]},"properties":{"leaf_type":"broadleaved","natural":"tree"}},
{"type":"Feature","geometry":{"type":"LineString","coordinates":[[4.4306225,44.4137445],[4.4311383,44.4119849],[4.43288,44.4119516],[4.4330687,44.4107819],[4.432228,44.410048],[4.4297772,44.4097619],[4.4282398,44.4090413],[4.4269652,44.4091488],[4.4257216,44.4100889],[4.4239342,44.4120391],[4.4216876,44.4109989],[4.4211365,44.4086761],[4.4207339,44.4077341],[4.4206617,44.4075652],[4.4205011,44.4071893],[4.4193304,44.4069619],[4.4178085,44.4066568],[4.4173069,44.4056667],[4.417505,44.4047465],[4.4174743,44.4039138],[4.416087,44.4041077],[4.4153173,44.4052884],[4.4137194,44.4060349],[4.4133855,44.4060584],[4.4131139,44.4064694],[4.4132567,44.4072426],[4.413305,44.4078289],[4.4134572,44.4086039],[4.4140956,44.4091213],[4.414774,44.4094637],[4.4160523,44.4104155],[4.4172839,44.4113322],[4.4190594,44.412215],[4.4217677,44.4131632],[4.4231521,44.4128872],[4.4244329,44.412946],[4.4256378,44.4140892],[4.4295226,44.4154308],[4.4306225,44.4137445]]},"properties":{"CLC:code":"323","CLC:id":"FR-202737","CLC:year":"2006","natural":"scrub","source":"Union européenne - SOeS, CORINE Land Cover, 2006."}},
{"type":"Feature","geometry":{"type":"LineString","coordinates":[[4.5180761,44.4535831],[4.5193547,44.4535577],[4.5204744,44.4524525],[4.5207879,44.4515298],[4.5235481,44.4507259],[4.5267796,44.4500778],[4.5270922,44.449155],[4.5288293,44.4489539],[4.531008,44.4481603],[4.5323863,44.4477167],[4.5333482,44.4485307],[4.5329058,44.4491221],[4.5336517,44.4503565],[4.531706,44.4511455],[4.5303179,44.4513397],[4.5294778,44.4506907],[4.5282195,44.4512152],[4.525453,44.451854],[4.523961,44.4523831],[4.52236,44.4530818],[4.5211073,44.4537736],[4.5201005,44.4547934],[4.5196708,44.4557173],[4.5201941,44.457207],[4.5227603,44.4574056],[4.5248783,44.4580302],[4.5265319,44.4586641],[4.528275,44.4586293],[4.5286883,44.4572874],[4.5272871,44.4571489],[4.5240195,44.4568812],[4.5240936,44.4557968],[4.5234969,44.4553915],[4.5239289,44.4545496],[4.5229865,44.4542355],[4.5243456,44.4532919],[4.5264537,44.4536671],[4.5287746,44.4535364],[4.5310736,44.4528247],[4.5324617,44.4526305],[4.5342079,44.4526788],[4.5359418,44.4523933],[4.5372651,44.4535341],[4.5369395,44.4541231],[4.5397745,44.4552324],[4.5411952,44.4558707],[4.5427028,44.4557572],[4.5425181,44.4540111],[4.5441482,44.4540615],[4.5456721,44.4543649],[4.5460849,44.4530228],[4.547961,44.4534023],[4.5489528,44.455241],[4.5494217,44.4549244],[4.5503512,44.4539139],[4.5514854,44.4539849],[4.5543464,44.4561195],[4.5551277,44.4558806],[4.5565,44.4561695],[4.5582369,44.4550103],[4.5578789,44.4542017],[4.5595554,44.453214],[4.5586878,44.451455],[4.5583284,44.4510146],[4.5581326,44.451074],[4.5576069,44.4506183],[4.5571724,44.4505206],[4.5558903,44.4504402],[4.5556247,44.450333],[4.5550775,44.4504441],[4.5549059,44.4501032],[4.555555,44.4499194],[4.5549756,44.4494063],[4.5546913,44.4490271],[4.5540529,44.4481464],[4.5525455,44.4466375],[4.5520896,44.4458735],[4.5520788,44.4445618],[4.5524114,44.4442267],[4.5524356,44.4447054],[4.552626,44.4450711],[4.5546752,44.4468749],[4.5546859,44.4474915],[4.5554477,44.448131],[4.5558044,44.4477347],[4.5562202,44.4482153],[4.5558983,44.4486404],[4.5562014,44.4490559],[4.5565608,44.4493909],[4.5569846,44.4496418],[4.5585778,44.4500975],[4.5585182,44.4502308],[4.5584732,44.4503311],[4.5587146,44.4504],[4.5588863,44.4504823],[4.5591545,44.4509189],[4.5593905,44.451746],[4.5597553,44.4525808],[4.5603508,44.4531054],[4.5605768,44.4527924],[4.559422,44.4504851],[4.5598385,44.4501626],[4.5595837,44.4501071],[4.559736,44.4495837],[4.560361,44.4490117],[4.5616705,44.4493608],[4.5619584,44.4485368],[4.56114,44.4471161],[4.5597845,44.4464982],[4.5577728,44.4456224],[4.5530409,44.4439663],[4.5520999,44.4432589],[4.5523044,44.4428247],[4.5509602,44.4423349],[4.5499545,44.442666],[4.5495433,44.4426279],[4.5499948,44.4429733],[4.5503381,44.4432989],[4.5505714,44.4434932],[4.5507002,44.4435239],[4.5510918,44.4436943],[4.5516738,44.4439528],[4.5518562,44.4440639],[4.5514646,44.4442745],[4.5511588,44.4443147],[4.550668,44.4440007],[4.5503408,44.4437383],[4.5500457,44.4433563],[4.5498741,44.4429819],[4.549579,44.4427445],[4.5491949,44.4427569],[4.548769,44.4426104],[4.548195,44.4424821],[4.5477766,44.442957],[4.5482486,44.4431141],[4.5479053,44.4436503],[4.5489951,44.4435857],[4.5499805,44.4438695],[4.5503032,44.4445962],[4.5501041,44.4452255],[4.5480263,44.4446309],[4.5485059,44.445427],[4.5493698,44.4471698],[4.5497185,44.4480812],[4.5485705,44.448537],[4.5477551,44.448468],[4.5472991,44.4478438],[4.546591,44.4474302],[4.5456791,44.4474111],[4.5451222,44.4470993],[4.5441103,44.4471474],[4.5440293,44.4480656],[4.5418378,44.4485269],[4.5399823,44.4486473],[4.5392622,44.4480782],[4.5373484,44.4496999],[4.5361729,44.4493895],[4.5372898,44.4482009],[4.5372507,44.447202],[4.5375697,44.4464467],[4.538819,44.4456569],[4.5383341,44.4451808],[4.538179,44.4441842],[4.5374775,44.4436462],[4.5359681,44.4441453],[4.5354032,44.4445739],[4.5333278,44.4450315],[4.5323246,44.4461345],[4.5313815,44.4458205],[4.531336,44.4446553],[4.5309457,44.4435802],[4.5325512,44.4431606],[4.5340534,44.4427679],[4.5363811,44.4428045],[4.5376236,44.4418631],[4.5400699,44.4419804],[4.5433203,44.4418319],[4.5447016,44.4414712],[4.5447948,44.4408857],[4.5445465,44.4399776],[4.5432094,44.4390014],[4.541647,44.4377002],[4.5403524,44.437309],[4.5377896,44.437194],[4.5349208,44.438168],[4.5334941,44.4373633],[4.5353176,44.4364103],[4.5365479,44.4357311],[4.5363809,44.4352279],[4.5354541,44.4344265],[4.5338713,44.4333888],[4.5342758,44.4328414],[4.5337858,44.432812],[4.5333023,44.4327183],[4.5331202,44.4328387],[4.5327754,44.4328636],[4.5323946,44.4326929],[4.5318631,44.4332828],[4.5309906,44.4333029],[4.5299914,44.4330302],[4.5293052,44.4329133],[4.5290373,44.4327781],[4.5286074,44.4326324],[4.5277679,44.4324566],[4.5276881,44.4332529],[4.52719,44.4331232],[4.5264937,44.4330134],[4.5265662,44.4325765],[4.5255671,44.4323328],[4.5253294,44.4319573],[4.5246873,44.4321091],[4.5232322,44.4314401],[4.5222795,44.4295815],[4.5232575,44.4294036],[4.5232316,44.4291015],[4.5235529,44.4282723],[4.5219388,44.428454],[4.5192686,44.4279909],[4.5188819,44.429998],[4.5170293,44.4302012],[4.5156256,44.4299795],[4.515458,44.4286503],[4.5132445,44.4285266],[4.5131742,44.4278432],[4.5112751,44.4280597],[4.5101292,44.4284984],[4.5080606,44.429123],[4.5068082,44.4298135],[4.5070884,44.4310585],[4.5081697,44.4319524],[4.5096606,44.4314236],[4.5093803,44.4301798],[4.5101838,44.4299131],[4.5116906,44.4298001],[4.5121813,44.4304572],[4.5146334,44.4307414],[4.5159437,44.4315486],[4.5169308,44.4330291],[4.5181832,44.4353365],[4.5195291,44.4370595],[4.5215625,44.4385181],[4.5217238,44.439681],[4.5202521,44.44071],[4.5188578,44.4407377],[4.5153591,44.4404744],[4.5132708,44.4405991],[4.5119926,44.4406244],[4.5105404,44.4391542],[4.508665,44.4387741],[4.5082783,44.4377821],[4.5085944,44.4369425],[4.5089984,44.4353523],[4.5076368,44.4332134],[4.5056975,44.4311692],[4.5048079,44.4306031],[4.5037912,44.4299564],[4.5031622,44.4287195],[4.5038208,44.4277067],[4.5041208,44.4264515],[4.5068895,44.4258963],[4.5087452,44.4257764],[4.5110746,44.4258967],[4.5114653,44.426973],[4.5130577,44.4266985],[4.5162195,44.4273014],[4.5161712,44.426053],[4.5141641,44.4252596],[4.514248,44.4244247],[4.5169005,44.4238727],[4.517114,44.4233681],[4.5146453,44.4226682],[4.5151789,44.4214952],[4.5146072,44.4206079],[4.5130529,44.4197848],[4.5114361,44.4190578],[4.5106958,44.4187404],[4.5098322,44.4186626],[4.5086435,44.4187336],[4.5069475,44.4193839],[4.5041713,44.4194863],[4.5023654,44.4190001],[4.5006199,44.4194406],[4.5005298,44.4194633],[4.4995099,44.419522],[4.4994697,44.4194368],[4.49852,44.4188387],[4.4970892,44.4177758],[4.4973086,44.4166407],[4.4973102,44.4166329],[4.4961785,44.4164654],[4.4958563,44.4157877],[4.4954989,44.4160044],[4.49494,44.4169642],[4.4950959,44.4175779],[4.494662,44.4183455],[4.4934905,44.4193009],[4.4929777,44.4210353],[4.4930215,44.4213832],[4.4938211,44.4214625],[4.4947493,44.4215546],[4.4947528,44.4216453],[4.4955123,44.4216707],[4.4957189,44.4226386],[4.4962395,44.4229523],[4.4980465,44.4229167],[4.4989541,44.4244783],[4.4985728,44.4248503],[4.4975362,44.4253195],[4.4966804,44.4264318],[4.497867,44.4270742],[4.4983799,44.4283145],[4.4968986,44.4290926],[4.4955556,44.4304527],[4.4955779,44.4310348],[4.4974913,44.432414],[4.498895,44.432636],[4.5000307,44.4319468],[4.5016037,44.4317156],[4.5023606,44.4325249],[4.5047288,44.4336443],[4.5051162,44.4346363],[4.5042567,44.4364863],[4.5040726,44.4377393],[4.50434,44.4386505],[4.5058832,44.4394533],[4.5059213,44.4399945],[4.5060951,44.4414912],[4.5079219,44.4436209],[4.5097525,44.4428346],[4.5109557,44.4438937],[4.5123534,44.4439504],[4.5126442,44.4454436],[4.5134251,44.447594],[4.5156393,44.4477165],[4.5167429,44.4491947],[4.5168041,44.4507757],[4.5173112,44.4518497],[4.5171589,44.4534709],[4.5180761,44.4535831]]},"properties":{"source":"Union européenne - SOeS, CORINE Land Cover, 2006."}},
{"type":"Feature","geometry":{"type":"LineString","coordinates":[[4.5207298,44.4500319],[4.5230247,44.4492361],[4.5244257,44.4493746],[4.5253944,44.4473559],[4.5271403,44.4474043],[4.5283798,44.4463798],[4.528893,44.4446209],[4.5271172,44.4438231],[4.5250842,44.4423635],[4.5238446,44.4433879],[4.5221077,44.443589],[4.5202975,44.4448755],[4.5210399,44.4460269],[4.5185251,44.4471598],[4.518912,44.4481519],[4.5212141,44.4475224],[4.521934,44.4480917],[4.5202324,44.4492085],[4.5207298,44.4500319]]},"properties":{"CLC:code":"311","CLC:id":"FR-201479","landuse":"forest","leaf_type":"broadleaved","source":"Union européenne - SOeS, CORINE Land Cover, 2006."}},
{"type":"Feature","geometry":{"type":"LineString","coordinates":[[4.504412,44.4249456],[4.505209,44.4245138],[4.5057505,44.4248618],[4.506458,44.4252032],[4.5090588,44.4248537],[4.5091203,44.4234367],[4.5083848,44.4224516],[4.507891,44.4217113],[4.5045384,44.4221948],[4.5036806,44.4210445],[4.5001087,44.421865],[4.5008568,44.423184],[4.4998206,44.4234541],[4.4998685,44.4247024],[4.5005975,44.4255213],[4.5008879,44.4270146],[4.5019362,44.4270771],[4.5024756,44.4259836],[4.504412,44.4249456]]},"properties":{"CLC:code":"311","CLC:id":"FR-202291","landuse":"forest","leaf_type":"broadleaved","source":"Union européenne - SOeS, CORINE Land Cover, 2006."}},
{"type":"Feature","geometry":{"type":"LineString","coordinates":[[4.4294694,44.4484211],[4.4315737,44.4487149],[4.4328702,44.4486902],[4.4332012,44.4486839],[4.4340531,44.446585],[4.4343393,44.444913],[4.4349993,44.4439007],[4.4350357,44.4438834],[4.4359139,44.443466],[4.4371923,44.4434416],[4.4379901,44.4430102],[4.4399376,44.4422228],[4.4393161,44.4411519],[4.4346741,44.4414072],[4.4338516,44.4411732],[4.4332116,44.4396033],[4.4344557,44.4386631],[4.4350924,44.4379991],[4.4353509,44.4377295],[4.4375739,44.438103],[4.4389838,44.4384932],[4.4403874,44.4387159],[4.4427967,44.4378364],[4.4446467,44.4375512],[4.4452901,44.4376911],[4.445009,44.4384995],[4.4439031,44.4395227],[4.4446994,44.4404183],[4.4454856,44.4410408],[4.4457704,44.4418552],[4.4459315,44.442763],[4.4463344,44.4429587],[4.4467041,44.4430214],[4.4479712,44.4429059],[4.4502943,44.442172],[4.4507095,44.4419998],[4.4501993,44.4416526],[4.4500228,44.4415274],[4.4498382,44.4413965],[4.4496378,44.4412545],[4.448412,44.4408395],[4.4485472,44.4406939],[4.449136,44.4400597],[4.4490882,44.4387854],[4.4503005,44.4372135],[4.4540913,44.4365939],[4.4575249,44.4366186],[4.4603369,44.4370197],[4.4626443,44.4375215],[4.4644642,44.4385793],[4.464533,44.4403998],[4.4651031,44.4420283],[4.4658141,44.4440185],[4.4676515,44.4455314],[4.4693481,44.4466826],[4.4712816,44.4473737],[4.473064,44.4474301],[4.4746986,44.4469428],[4.4760271,44.4450951],[4.4759718,44.4436387],[4.4756693,44.4423694],[4.4740003,44.4419465],[4.4723348,44.4416145],[4.4707964,44.4412801],[4.4708786,44.4400943],[4.4708737,44.440067],[4.4711619,44.4400972],[4.4718243,44.4391678],[4.4716609,44.4379205],[4.4707941,44.4365217],[4.4733157,44.4355561],[4.4742449,44.435538],[4.4752428,44.4342692],[4.4765115,44.4339948],[4.4783453,44.4332922],[4.4796139,44.4330178],[4.481315,44.4319016],[4.4827497,44.4306469],[4.4827381,44.4303431],[4.4827104,44.4296158],[4.4825811,44.4288896],[4.4799584,44.429451],[4.4797307,44.4295382],[4.4798322,44.4295972],[4.4775438,44.4305584],[4.4756341,44.4292631],[4.4746332,44.4304487],[4.4738802,44.4320467],[4.4714085,44.4312616],[4.4701336,44.4313696],[4.4695059,44.4332148],[4.4689637,44.4336515],[4.467773,44.4334981],[4.4658513,44.4349512],[4.4641967,44.4342343],[4.4623249,44.4339367],[4.4613549,44.4328726],[4.4598502,44.4330681],[4.4588332,44.4338378],[4.4584879,44.4342317],[4.4565465,44.4342692],[4.4551491,44.4342962],[4.4543732,44.4339468],[4.4545828,44.4327586],[4.4554377,44.4318312],[4.4554035,44.430921],[4.4541127,44.4303994],[4.4519532,44.430441],[4.4503667,44.4322023],[4.4494085,44.4337693],[4.4490752,44.4350509],[4.4483369,44.4357028],[4.4479326,44.4358873],[4.4479531,44.4358211],[4.4454377,44.4350782],[4.444295,44.4346829],[4.4436306,44.4344937],[4.4424404,44.4343299],[4.4420924,44.4344203],[4.4398185,44.4328119],[4.4391027,44.4323252],[4.4376607,44.4317931],[4.4375703,44.4317597],[4.4367603,44.4318585],[4.4370607,44.4336857],[4.4372699,44.4361814],[4.4344132,44.4364448],[4.4341403,44.4363205],[4.4338596,44.4361907],[4.4335076,44.4361709],[4.433306,44.4362387],[4.4326219,44.4360805],[4.4319813,44.4359732],[4.4317069,44.4359383],[4.4313169,44.4358885],[4.4300555,44.4356909],[4.4290839,44.434921],[4.4278286,44.4355398],[4.4276328,44.4365432],[4.4256941,44.4375686],[4.4260805,44.4385721],[4.4267049,44.4397274],[4.4272984,44.440049],[4.4289852,44.4385168],[4.4299269,44.4388328],[4.429848,44.439834],[4.4291028,44.4416811],[4.4292652,44.4429273],[4.4281223,44.4434484],[4.4258039,44.443659],[4.4251314,44.4443386],[4.423627,44.4445337],[4.4222572,44.4452266],[4.4213187,44.4457189],[4.4214866,44.4463961],[4.4238048,44.4461968],[4.4242946,44.4468543],[4.4265271,44.4474775],[4.4280408,44.4475319],[4.4294694,44.4484211]]},"properties":{"CLC:code":"323","CLC:id":"FR-201588","CLC:year":"2006","natural":"scrub","source":"Union européenne - SOeS, CORINE Land Cover, 2006."}},
{"type":"Feature","geometry":{"type":"LineString","coordinates":[[4.5025476,44.4550568],[4.5041681,44.4548584],[4.5042393,44.4536909],[4.5057468,44.4535778],[4.5060349,44.4519888],[4.5048629,44.4517623],[4.5044394,44.4528536],[4.5030192,44.4522159],[4.5017638,44.4528232],[4.5001298,44.452689],[4.4991875,44.4523747],[4.4965271,44.45276],[4.4952742,44.4534515],[4.4939605,44.4525608],[4.4921079,44.4527637],[4.4902672,44.4532991],[4.4884821,44.4522512],[4.4872935,44.4533023],[4.4873841,44.4539393],[4.4895079,44.4547309],[4.491716,44.4546876],[4.4937334,44.4557308],[4.4960353,44.4551019],[4.4979825,44.4543147],[4.4999488,44.4540252],[4.5020473,44.4541513],[4.5025476,44.4550568]]},"properties":{"CLC:code":"321","CLC:id":"FR-201291","CLC:year":"2006","natural":"scrub","source":"Union européenne - SOeS, CORINE Land Cover, 2006."}},
{"type":"Feature","geometry":{"type":"LineString","coordinates":[[4.4213187,44.4457189],[4.4222572,44.4452266],[4.423627,44.4445337],[4.4251314,44.4443386],[4.4258039,44.443659],[4.4281223,44.4434484],[4.4292652,44.4429273],[4.4291028,44.4416811],[4.429848,44.439834],[4.4299269,44.4388328],[4.4289852,44.4385168],[4.4272984,44.440049],[4.4267049,44.4397274],[4.4260805,44.4385721],[4.4256941,44.4375686],[4.4254135,44.436265],[4.4243342,44.4353691],[4.4240488,44.4339576],[4.4255529,44.4337626],[4.4251739,44.4329365],[4.4247648,44.4305776],[4.4233722,44.4313887],[4.4216176,44.4310881],[4.4205479,44.4336081],[4.4225293,44.4337369],[4.4223373,44.4348234],[4.4218785,44.4349986],[4.4219185,44.4360807],[4.4216925,44.436352],[4.4215016,44.4376498],[4.420489,44.4378261],[4.4204813,44.4380838],[4.4204235,44.4388135],[4.4228696,44.4397881],[4.4240472,44.4401817],[4.4242979,44.4406774],[4.425142,44.4413034],[4.424338,44.4417595],[4.4228245,44.4417051],[4.4228399,44.4421209],[4.4213325,44.4422327],[4.4200603,44.4424244],[4.4196229,44.4431817],[4.4196507,44.4439312],[4.4201404,44.4445887],[4.4210759,44.4447374],[4.4213187,44.4457189]]},"properties":{"CLC:code":"321","CLC:id":"FR-201697","CLC:year":"2006","natural":"grassland","source":"Union européenne - SOeS, CORINE Land Cover, 2006."}},
{"type":"Feature","geometry":{"type":"LineString","coordinates":[[4.5148369,44.4094356],[4.5138755,44.4096323],[4.5116113,44.4081771],[4.5102338,44.4086216],[4.5084634,44.4079066],[4.5084313,44.407074],[4.5053955,44.406718],[4.5053539,44.4056359],[4.5027933,44.4055201],[4.502135,44.4065328],[4.5009638,44.4063052],[4.5014871,44.4047959],[4.5007584,44.403977],[4.500352,44.4024849],[4.4981077,44.4015295],[4.4973142,44.4020456],[4.4964951,44.4018953],[4.4973663,44.400378],[4.4964186,44.3998974],[4.4967122,44.3984748],[4.4943681,44.3979384],[4.4946841,44.397099],[4.4933981,44.3968746],[4.492607,44.3974727],[4.4916815,44.3975741],[4.490587,44.3993453],[4.4889618,44.3993772],[4.4864731,44.3980936],[4.486454,44.3975935],[4.4843711,44.397733],[4.4834727,44.3986516],[4.4813701,44.3983599],[4.4811002,44.3973655],[4.4791885,44.3959872],[4.4786345,44.3970517],[4.4777991,44.3976437],[4.4775861,44.3981483],[4.475649,44.3979387],[4.4755741,44.3990242],[4.4755976,44.3996434],[4.4756152,44.4001062],[4.4759852,44.4006815],[4.4763739,44.4011109],[4.4773195,44.4021555],[4.4779351,44.40306],[4.48002,44.4040988],[4.4808549,44.4046661],[4.4804503,44.4062561],[4.4809145,44.4064191],[4.4829242,44.4071242],[4.4836431,44.4076937],[4.4836629,44.4082129],[4.4872886,44.4090257],[4.4890456,44.40917],[4.4891749,44.4091334],[4.4893625,44.4095783],[4.4914145,44.4095854],[4.4926248,44.4100835],[4.4946469,44.4110399],[4.4962759,44.412099],[4.4979529,44.4126827],[4.4993599,44.4131293],[4.5005413,44.4128688],[4.5007876,44.4123896],[4.5019598,44.411892],[4.5033928,44.410938],[4.5040894,44.4104742],[4.5052136,44.4104519],[4.5069349,44.4104653],[4.507486,44.4107449],[4.5074334,44.4113433],[4.5068124,44.4118189],[4.5047476,44.4125266],[4.5045667,44.4125086],[4.5040465,44.4127996],[4.5018895,44.4135064],[4.5011857,44.414137],[4.5022178,44.4151603],[4.5013411,44.4164585],[4.4995371,44.4160197],[4.4983575,44.4163276],[4.4973086,44.4166407],[4.4970892,44.4177758],[4.49852,44.4188387],[4.4994697,44.4194368],[4.4995099,44.419522],[4.5005298,44.4194633],[4.5006199,44.4194406],[4.5023654,44.4190001],[4.5041713,44.4194863],[4.5069475,44.4193839],[4.5086435,44.4187336],[4.5098322,44.4186626],[4.5106958,44.4187404],[4.5114361,44.4190578],[4.5130529,44.4197848],[4.5146072,44.4206079],[4.5151789,44.4214952],[4.5151811,44.4214903],[4.5186819,44.4218379],[4.5211794,44.4202881],[4.5217983,44.4212754],[4.525941,44.4201931],[4.5271675,44.4218352],[4.5280997,44.4218998],[4.5288388,44.422968],[4.5301393,44.4235256],[4.5319884,44.4232378],[4.5330529,44.4237169],[4.5350277,44.4236774],[4.5353603,44.4232546],[4.5388483,44.4232679],[4.5395688,44.423339],[4.5406395,44.4227446],[4.5426238,44.4227048],[4.5430609,44.4220318],[4.5418919,44.4209167],[4.5405263,44.419853],[4.5389352,44.4197901],[4.5379629,44.4186236],[4.5361548,44.4180905],[4.5346683,44.4173138],[4.5351697,44.4165922],[4.536158,44.4164775],[4.537021,44.4156734],[4.5368906,44.4156705],[4.5366418,44.414985],[4.5347773,44.4151303],[4.5331646,44.4154955],[4.5313158,44.4157822],[4.5299286,44.4159775],[4.5283061,44.4160931],[4.5264346,44.4157965],[4.5235312,44.4158544],[4.522489,44.4158153],[4.5224853,44.4151772],[4.5226666,44.4145391],[4.5241763,44.414509],[4.524876,44.4145884],[4.5260445,44.4147214],[4.5280312,44.4150157],[4.5300025,44.4148931],[4.5319705,44.4146862],[4.5353289,44.4143692],[4.5349119,44.4126278],[4.5351252,44.4121243],[4.5362773,44.4119561],[4.5363671,44.4111829],[4.5348113,44.4100479],[4.5328052,44.4092549],[4.5316307,44.4089455],[4.5300473,44.410897],[4.5314638,44.4113292],[4.5324301,44.4116232],[4.5323546,44.4122789],[4.5318186,44.4122458],[4.5308092,44.4130433],[4.5293293,44.4133201],[4.5290976,44.4132486],[4.5290572,44.4130363],[4.5305257,44.4127478],[4.5309837,44.4121719],[4.5308576,44.4120239],[4.5280278,44.411622],[4.5273087,44.4113642],[4.5260117,44.4108897],[4.52606,44.4100948],[4.5237427,44.4092808],[4.5215098,44.4094768],[4.5201089,44.4088191],[4.5200713,44.4077868],[4.5184113,44.4067095],[4.5157822,44.4078447],[4.5157943,44.4091098],[4.5157621,44.4091577],[4.5149333,44.4092535],[4.5148369,44.4094356]]},"properties":{"source":"Union européenne - SOeS, CORINE Land Cover, 2006."}},
{"type":"Feature","geometry":{"type":"LineString","coordinates":[[4.5582783,44.4127406],[4.5593608,44.4121834],[4.558641,44.4116144],[4.557208,44.4106437],[4.5567694,44.4100015],[4.5565912,44.4097397],[4.5552678,44.4086003],[4.553964,44.4079599],[4.5532935,44.4086403],[4.5520683,44.4099976],[4.550758,44.4091908],[4.5501315,44.4080373],[4.548609,44.4077351],[4.5483508,44.4070735],[4.5472922,44.406762],[4.5467989,44.4060219],[4.5449374,44.4059762],[4.5421179,44.4051996],[4.5420658,44.4038681],[4.539382,44.4035892],[4.5388208,44.4040998],[4.5387373,44.4049347],[4.5405186,44.4058986],[4.5424151,44.4068602],[4.5434997,44.4078381],[4.5453841,44.408467],[4.5465677,44.4090256],[4.5461363,44.4098676],[4.5448478,44.4110957],[4.546609,44.4115606],[4.5488187,44.4115993],[4.5523158,44.4118615],[4.5545292,44.4119754],[4.5544639,44.410318],[4.5560928,44.4103694],[4.5562416,44.4111985],[4.5558096,44.4120406],[4.556772,44.4128544],[4.5582783,44.4127406]]},"properties":{"CLC:code":"321","CLC:id":"FR-202742","CLC:year":"2006","natural":"grassland","source":"Union européenne - SOeS, CORINE Land Cover, 2006."}},
{"type":"Feature","geometry":{"type":"LineString","coordinates":[[4.463398,44.4038362],[4.4640917,44.4037562],[4.4658941,44.4031162],[4.4664627,44.4031047],[4.4670635,44.4033155],[4.4672942,44.4037447],[4.4675571,44.4043426],[4.4681418,44.4045687],[4.4685602,44.4044116],[4.4683725,44.4039555],[4.4684046,44.4036834],[4.4686568,44.4034305],[4.4690598,44.4036727],[4.4712569,44.4040932],[4.4714319,44.4031868],[4.4700227,44.4027971],[4.4695199,44.4027556],[4.4692316,44.4027318],[4.468391,44.4026624],[4.4678256,44.4013768],[4.4655571,44.4014681],[4.4648069,44.4000658],[4.4641822,44.3989119],[4.4625193,44.3979445],[4.4621423,44.3972018],[4.4610695,44.3964736],[4.4586341,44.396604],[4.456422,44.3964804],[4.4556909,44.3955781],[4.453717,44.3956162],[4.4529454,44.3936318],[4.4530121,44.3922969],[4.4522686,44.3910619],[4.4512832,44.389582],[4.4497671,44.3879167],[4.4493451,44.3874526],[4.4472244,44.3866613],[4.4457815,44.3853555],[4.4434282,44.3845675],[4.4427224,44.3843314],[4.441794,44.3843493],[4.440721,44.3836199],[4.4394292,44.3832286],[4.4388394,44.3829903],[4.4382247,44.3820856],[4.4378296,44.3808439],[4.4368641,44.3798628],[4.4355208,44.3792217],[4.4332058,44.3794324],[4.4293319,44.3783404],[4.4276984,44.3788113],[4.4268195,44.3801616],[4.4281489,44.381552],[4.4303913,44.3825088],[4.4321143,44.3819766],[4.4347232,44.3834256],[4.4360374,44.3844001],[4.4365671,44.3861396],[4.4394215,44.3879178],[4.4423515,44.3886115],[4.4449618,44.3900603],[4.4459641,44.3905301],[4.448036,44.3915011],[4.4481988,44.3927473],[4.4494068,44.3939733],[4.4521147,44.3949208],[4.4529679,44.3959872],[4.453485,44.397394],[4.4536612,44.3989727],[4.4530114,44.4002346],[4.4521791,44.401148],[4.4520066,44.401338],[4.45002,44.4010423],[4.4495992,44.4005692],[4.4485643,44.399405],[4.4472336,44.4000367],[4.4467382,44.4002723],[4.4475976,44.4015062],[4.4497407,44.4028806],[4.4491002,44.404393],[4.4470318,44.4050153],[4.4435637,44.4054992],[4.4430492,44.4041755],[4.4413264,44.404709],[4.4405253,44.4050572],[4.4397405,44.4058223],[4.4399049,44.4068527],[4.4399279,44.4069972],[4.4430545,44.407424],[4.4450226,44.4072198],[4.4481888,44.4079921],[4.4504108,44.4083664],[4.4521688,44.4087486],[4.4530065,44.4093993],[4.4550938,44.4092757],[4.4580126,44.4096354],[4.4590456,44.4092825],[4.4594814,44.408524],[4.4601688,44.4082611],[4.4589892,44.4077835],[4.4565219,44.4070813],[4.4552843,44.4061934],[4.4540054,44.4050473],[4.4532743,44.404145],[4.4525244,44.4027437],[4.4529571,44.4019021],[4.4534359,44.4014307],[4.4540779,44.4007976],[4.4553446,44.4010973],[4.4570088,44.401491],[4.4598395,44.4026023],[4.4621875,44.4032236],[4.4627279,44.4035168],[4.463398,44.4038362]]},"properties":{"CLC:code":"323","CLC:id":"FR-202912","CLC:year":"2006","natural":"scrub","source":"Union européenne - SOeS, CORINE Land Cover, 2006."}},
{"type":"Feature","geometry":{"type":"LineString","coordinates":[[4.5354119,44.3964754],[4.5361449,44.3953856],[4.5371602,44.3946152],[4.5377766,44.3955193],[4.5386766,44.3947512],[4.5384179,44.3940907],[4.5372022,44.3926982],[4.5377658,44.3922708],[4.5391589,44.3922428],[4.5395596,44.3935673],[4.5405174,44.3942981],[4.5420461,44.3947667],[4.543191,44.3943276],[4.5423426,44.3934282],[4.5424195,44.3924269],[4.541229,44.3917008],[4.5413608,44.3891163],[4.5424723,44.3878446],[4.5423263,44.3868794],[4.5432236,44.3862462],[4.5442679,44.3862252],[4.5442992,44.3863213],[4.5446655,44.3874665],[4.5453718,44.3877019],[4.5461499,44.3897699],[4.5465369,44.3907618],[4.5469345,44.3920031],[4.5489009,44.3917971],[4.5509873,44.3916717],[4.5524327,44.3929751],[4.5535874,44.3927853],[4.5546001,44.3921695],[4.5553457999999999,44.391399],[4.5557706,44.3913807],[4.5559359,44.3917171],[4.5558852,44.3937255],[4.5576869,44.3936188],[4.5579855,44.3923623],[4.557443,44.3903739],[4.5571348,44.388464],[4.5641931,44.3886177],[4.563962,44.3857065],[4.5583837,44.3856533],[4.5550147,44.3847589],[4.5537485,44.3846417],[4.5519285,44.3826791],[4.5499297,44.3820527],[4.5494292,44.3811463],[4.5500832,44.3800502],[4.5497827,44.3783065],[4.5483516,44.3770162],[4.5458264,44.3780581],[4.5434175,44.3786047],[4.5394014,44.3765274],[4.5366674,44.3746733],[4.5297036,44.3741488],[4.5216671,44.3728153],[4.5200084,44.3721918],[4.5198762,44.3724089],[4.5168462,44.3721353],[4.5134645,44.3717864],[4.5164975,44.3781403],[4.5168099,44.3802177],[4.5135629,44.3803655],[4.5122739,44.3800571],[4.5114897,44.3808227],[4.5083465,44.3806353],[4.5068313,44.3804989],[4.5045126,44.380628],[4.5034459,44.3800655],[4.5018021,44.3795987],[4.5017492,44.3812651],[4.5015429,44.381936],[4.50181,44.3828472],[4.4992633,44.3830639],[4.4996718,44.3846391],[4.5016516,44.3847665],[4.5035636,44.3861444],[4.5045336,44.3872081],[4.5057978,44.3868503],[4.5059945,44.3859299],[4.5058369,44.3848502],[4.5065075,44.3842859],[4.5060205,44.383713],[4.5068016,44.3828643],[4.5073525,44.3821034],[4.5093484,44.3826475],[4.5116018,44.3838521],[4.5135142,44.3822308],[4.5134821,44.3813994],[4.5142977,44.3814664],[4.5157452,44.3828533],[4.5183796,44.3848835],[4.5198692,44.3843546],[4.5213749,44.3842414],[4.5217557,44.3850659],[4.5246673,44.3852586],[4.5259092,44.3873164],[4.5274246,44.3874525],[4.528839,44.3867844],[4.5304985,44.385548],[4.5315374,44.3844814],[4.5325331,44.3832122],[4.5375252,44.3861111],[4.5370972,44.3870362],[4.5385097,44.3875071],[4.5384327,44.3885083],[4.5390678,44.3899124],[4.5381784,44.39093],[4.534544,44.3900864],[4.5333861,44.3901929],[4.53198,44.389887],[4.5304496,44.3905575],[4.5311883,44.3916256],[4.530392,44.3920588],[4.5291751,44.3924429],[4.5292107,44.3933587],[4.5291301,44.3944724],[4.5300246,44.3945648],[4.5320568,44.3960242],[4.5342625,44.39598],[4.5354119,44.3964754]]},"properties":{"CLC:code":"321","CLC:id":"FR-203297","CLC:year":"2006","natural":"grassland","source":"Union européenne - SOeS, CORINE Land Cover, 2006."}},
{"type":"Feature","geometry":{"type":"LineString","coordinates":[[4.4967207,44.3865617],[4.4957511,44.3853821],[4.4947901,44.3845678],[4.4929789,44.3852624],[4.4928969,44.3851887],[4.4912434,44.3844712],[4.490199,44.3844917],[4.4889093,44.3841842],[4.4869295,44.3840566],[4.4862648,44.3849029],[4.4839562,44.385281],[4.481989,44.385486],[4.4799217,44.38611],[4.4780578,44.38598],[4.4769628,44.3846678],[4.4767484,44.3844341],[4.4762601,44.3842888],[4.4762415,44.38434],[4.4762027,44.3844469],[4.476011,44.3846271],[4.4762885,44.3847033],[4.4763762,44.3851138],[4.4761462,44.3852668],[4.4756077,44.3853633],[4.4748673,44.3853897],[4.4738235,44.3854893],[4.4729914,44.3871618],[4.4690568,44.387571199999999],[4.4675289,44.3871006],[4.4662456,44.3869591],[4.465358,44.3880592],[4.4680943,44.3897557],[4.4692515,44.38965],[4.4706509,44.3897891],[4.4739017,44.3897258],[4.4748049,44.3890425],[4.4763076,44.3888456],[4.4767343,44.3878376],[4.478237,44.3876419],[4.4809356,44.3883391],[4.4821347,44.3893153],[4.4832172,44.3902938],[4.4830233,44.3912973],[4.4824169,44.3921761],[4.4845312,44.3928836],[4.4877631,44.3923198],[4.4881268,44.3927288],[4.4900974,44.3926069],[4.492539,44.3926421],[4.4929424,44.391052],[4.4931369,44.3900485],[4.4918184,44.3889916],[4.4898844,44.3870302],[4.4907873,44.3863456],[4.4936657,44.3887056],[4.4949205,44.3880972],[4.4949982,44.3870961],[4.4967207,44.3865617]]},"properties":{"CLC:code":"321","CLC:id":"FR-203484","CLC:year":"2006","natural":"grassland","source":"Union européenne - SOeS, CORINE Land Cover, 2006."}},
{"type":"Feature","geometry":{"type":"LineString","coordinates":[[4.4799005,44.3691994],[4.4799006,44.3695681],[4.4798255,44.3698289],[4.4802654,44.3707952],[4.479686,44.3716695],[4.4803405,44.3722217],[4.4813704,44.3719456],[4.482218,44.3735024],[4.4828403,44.3750669],[4.4833338,44.3752126],[4.4832158,44.3756804],[4.4833874,44.3758465],[4.4830811,44.3764676],[4.4826673,44.3778082],[4.4813474,44.3797502],[4.4806795,44.3805133],[4.4806609,44.3805905],[4.4794651,44.3803845],[4.4776681,44.3795996],[4.4770178,44.3792568],[4.4770245,44.3790858],[4.4758383,44.3784421],[4.4732719,44.3781593],[4.4696771,44.3783126],[4.4690558,44.3772418],[4.4719359,44.3766021],[4.4723366,44.3749279],[4.4738737,44.3756479],[4.4745172,44.3773018],[4.4754494,44.3773668],[4.477093,44.377834],[4.4787462,44.3785517],[4.4808785,44.3765939],[4.4822142,44.3750689],[4.481938,44.3739071],[4.4800302,44.3726119],[4.4779444,44.3727359],[4.4788691,44.3695524],[4.4799005,44.3691994]]},"properties":{"CLC:code":"323","CLC:id":"FR-203949","CLC:year":"2006","natural":"scrub","source":"Union européenne - SOeS, CORINE Land Cover, 2006."}},
{"type":"Feature","geometry":{"type":"LineString","coordinates":[[4.564245,44.3489396],[4.5629853,44.3493824],[4.5625152,44.3492244],[4.5619811,44.3504025],[4.5619341,44.352152],[4.5600045,44.3532741],[4.5599312,44.3543584],[4.5583065,44.3543914],[4.5580289,44.3532309],[4.5566105,44.352594],[4.5546087,44.3518845],[4.5534353,44.3515754],[4.5525547,44.3498435],[4.5536823,44.3489874],[4.5546768,44.347718],[4.5551817,44.3457917],[4.5566535,44.3448454],[4.5565688,44.3443165],[4.5565048,44.3440152],[4.5547653,44.3440504],[4.554216,44.3418958],[4.5528111000000008,44.3415913],[4.552422,44.3435142],[4.5506858,44.3436336],[4.5502412,44.3441419],[4.549746,44.3463176],[4.5485261,44.3466583],[4.5481386,44.3467673],[4.5488803,44.3479184],[4.5488567,44.3482666],[4.5488499,44.3483676],[4.5488069,44.3490028],[4.5493071,44.3499091],[4.5486632,44.3512546],[4.5481451,44.3528484],[4.546633,44.3527957],[4.5463328,44.351052],[4.544815,44.350833],[4.5431944,44.3509489],[4.5422918,44.3516327],[4.5416414,44.352813],[4.5401138,44.3523434],[4.5382574,44.3523807],[4.5378415,44.3506393],[4.5370101,44.3501568],[4.536916,44.3477422],[4.5354882,44.3468544],[4.5354396,44.345606],[4.5362157,44.344674],[4.5366118,44.3429175],[4.536122,44.3419533],[4.535983,44.3416797],[4.5343781,44.3422123],[4.5334829,44.3430635],[4.5324263,44.3427507],[4.5324968,44.3415832],[4.5325535,44.3412886],[4.5326513,44.3407798],[4.5326661,44.3407027],[4.5326897,44.3405797],[4.5344007,44.3397954],[4.5339073,44.3390564],[4.5325155,44.3390843],[4.5322352,44.3378395],[4.5304465,44.336626],[4.5295051,44.3362572],[4.5290322,44.3360719],[4.5275246,44.336102],[4.5275472,44.336684],[4.5256977,44.3368874],[4.5257559,44.3383863],[4.5241356,44.3385019],[4.5245509,44.3402433],[4.5247547,44.3424882],[4.525196,44.3448947],[4.5247672,44.3458197],[4.5214201,44.3463037],[4.5217711,44.3493789],[4.5217359,44.3514621],[4.5215904,44.353714],[4.5227927,44.3547729],[4.5226125,44.356109],[4.5207914,44.3570617],[4.5195602,44.358253499999999],[4.5180552,44.3583667],[4.517891,44.3601185],[4.5196568,44.3607502],[4.520015,44.3609927],[4.5201695,44.3619892],[4.5181969,44.3620285],[4.5170556,44.3625516],[4.514967,44.3625932],[4.5144325,44.3637699],[4.5172334,44.3641302],[4.5176134,44.3649559],[4.5196023,44.3653335],[4.5187612,44.3675992],[4.5199469,44.3682424],[4.5197698,44.3696617],[4.5207495,44.3709747],[4.5200084,44.3721918],[4.5216671,44.3728153],[4.5297036,44.3741488],[4.5366674,44.3746733],[4.5394014,44.3765274],[4.5434175,44.3786047],[4.5458264,44.3780581],[4.5483516,44.3770162],[4.547976,44.3766776],[4.5491711,44.3745698],[4.5503156,44.3741306],[4.5518405,44.3745159],[4.5525336,44.3744187],[4.5535581,44.3738986],[4.5538576,44.3726433],[4.5554788,44.3725272],[4.5568878,44.3729148],[4.5587777,44.3737097],[4.5588531,44.3756244],[4.5600296,44.3760166],[4.5612834,44.3754086],[4.5613533,44.37424],[4.5616559,44.3730677],[4.5613781,44.3719073],[4.5611028,44.3708299],[4.5621312,44.370393],[4.5643655,44.3710965],[4.5658707,44.3709827],[4.5671507,44.3710399],[4.5694978,44.3716589],[4.5708112,44.3696328],[4.5730366,44.3675397],[4.5746315,44.3663894],[4.5758185,44.3670308],[4.5757316,44.3677826],[4.5756113,44.36876],[4.575556,44.3692031],[4.5766239,44.3697638],[4.5788684,44.3707176],[4.5791656,44.3704461],[4.5799885,44.369695],[4.5806558,44.3689313],[4.5809538,44.3676758],[4.5813918,44.3670011],[4.5829995,44.366551],[4.5823694,44.3653146],[4.5819819,44.3643228],[4.5826483,44.3635591],[4.5812029,44.3622562],[4.5803511,44.361274],[4.5814943,44.3608334],[4.5827376,44.3599758],[4.5837551,44.3622039],[4.5851607,44.3625079],[4.5872492,44.3624651],[4.5880355,44.3617821],[4.5877365,44.3601228],[4.5885252,44.359523],[4.5890689,44.3585953],[4.5878793,44.3578709],[4.5877228,44.3568744],[4.5890884,44.3561795],[4.5893442,44.3567567],[4.5894867,44.3574207],[4.5912133,44.3570523],[4.5921386,44.35695],[4.5943529,44.3571541],[4.5965337,44.3565255],[4.597936,44.3567473],[4.5991989,44.3563873],[4.6003293,44.355615],[4.6014305,44.3553383]]},"properties":{"CLC:code":"323","CLC:id":"FR-203973","CLC:year":"2006","source":"Union européenne - SOeS, CORINE Land Cover, 2006."}},
{"type":"Feature","geometry":{"type":"LineString","coordinates":[[4.5028794,44.3409194],[4.5029343,44.3408286],[4.5029095,44.3407832],[4.5028255,44.3408215],[4.5027601,44.3408977],[4.5027071,44.340969],[4.5027359,44.340246],[4.5024223,44.3397816],[4.5023467,44.3395482],[4.5021115,44.3393094],[4.5015308,44.3390678],[4.5011553,44.3389206],[4.5007146,44.3388351],[4.5006074,44.3387448],[4.5001369,44.3386918],[4.4998233,44.3386152],[4.499841,44.3385904],[4.4999817,44.3385443],[4.5002185,44.3385617],[4.5004223,44.3385298],[4.5005335,44.3385426],[4.5007162,44.3386046],[4.500804,44.3386587],[4.5009881,44.3387207],[4.5012609,44.3387686],[4.5013686,44.3387535],[4.5016207,44.3388459],[4.5016925,44.3389162],[4.5018908,44.3390002],[4.5020894,44.3391368],[4.5021994,44.3392078],[4.5024308,44.3393223],[4.5025477,44.3394069],[4.5026674,44.3394698],[4.502758,44.3394485],[4.5029521,44.3395252],[4.5032073,44.3398381],[4.5033691,44.3400451],[4.503399,44.3401731],[4.5033899,44.3402824],[4.5033662,44.3404337],[4.5033033,44.3405259],[4.5032197,44.3407205],[4.5031242,44.3407927],[4.5030393,44.3408732],[4.5029173,44.3409694],[4.5028794,44.3409194]]},"properties":{"name":"Plage naturiste des Templiers","natural":"shingle","nudism":"yes"}},
{"type":"Feature","geometry":{"type":"LineString","coordinates":[[4.4448099,44.357168],[4.4445105,44.3573686],[4.444342,44.3574894],[4.4441386,44.3575988],[4.4440273,44.3576792],[4.443927,44.3576936],[4.4439131,44.3577125],[4.4437132,44.3577326],[4.4434877,44.3577426],[4.4434025,44.3577251],[4.443267,44.3576898],[4.4432017,44.3576209],[4.4431477,44.3576492],[4.4430955,44.3577038],[4.4430735,44.3577012],[4.4429365,44.3578481],[4.4428011,44.358006],[4.4426878,44.3580781],[4.442692,44.3581163],[4.4426359,44.3581508],[4.4426307,44.35819],[4.4425868,44.3582342],[4.4425535,44.3583119],[4.4425236,44.3583185],[4.4425315,44.3583806],[4.4425055,44.358417],[4.4425094,44.3584492],[4.4423845,44.3587095],[4.4423328,44.3587485],[4.4423476,44.3587854],[4.4423311,44.3588195],[4.4423564,44.3588849],[4.4423468,44.3589258],[4.4423612,44.3589795],[4.442354,44.3590356],[4.4423249,44.3590894],[4.4423134,44.3591905],[4.4422979,44.3592174],[4.4423368,44.3592597],[4.4423166,44.3593243],[4.4423634,44.3593497],[4.4423808,44.3594114],[4.4423402,44.3594857],[4.4424124,44.3595186],[4.4424137,44.3595864],[4.4424362,44.3596498],[4.4425503,44.3597456],[4.4426106,44.3597837],[4.4426663,44.3598026],[4.4426993,44.3598455],[4.4427281,44.3598503],[4.4427506,44.3598686],[4.4428022,44.359871],[4.4428341,44.3598948],[4.4428291,44.3599145],[4.4428528,44.3599136],[4.4428606,44.3599265],[4.442908,44.359926],[4.4429136,44.3599448],[4.4429438,44.3599503],[4.4429513,44.3599688],[4.4429783,44.3599889],[4.4430053,44.3599932],[4.4430181,44.3600139],[4.4430402,44.3600079],[4.4430488,44.3600206],[4.4430678,44.3600241],[4.4430834,44.3600493],[4.4431083,44.3600578],[4.4431228,44.3600718],[4.4431549,44.3600833],[4.4436902,44.3602709],[4.4438108,44.3603313],[4.4442292,44.3603979],[4.4442498,44.3603664],[4.4443198,44.3603268],[4.4444022,44.3603089],[4.4443714,44.3602575],[4.4449483,44.3602016],[4.4457529,44.3602048],[4.4461674,44.3602765],[4.4462506,44.3603764],[4.446576,44.3605063],[4.4467205,44.3605855],[4.4471117,44.3606779],[4.4474813,44.3608176],[4.4477028,44.3609251],[4.4479359,44.3611774],[4.4480836,44.3614253],[4.4480888,44.3615272],[4.4480078,44.3616323],[4.4481845,44.3618409],[4.4483029,44.3620228],[4.4482674,44.3620964],[4.448105,44.3621518],[4.4479115,44.3622639],[4.4477914,44.3623817],[4.4475478,44.3625038],[4.4472794,44.3626056],[4.4467209,44.3628455],[4.4464335,44.363022],[4.4463402,44.3629691],[4.446026,44.3631071],[4.445583,44.3632489],[4.4453103,44.3633786],[4.4454142,44.3633987],[4.4456191,44.363358],[4.4456998,44.3633689],[4.4456102,44.363475],[4.4455284,44.3636462],[4.4454479,44.3637569],[4.4453607,44.3637815],[4.4452802,44.3637768],[4.4451347,44.3638442],[4.4450501,44.363832],[4.4449919,44.3638046],[4.4447549,44.3638964],[4.4447025,44.3638969],[4.4446184,44.3639277],[4.4445772,44.3639696],[4.4442902,44.3640648],[4.4441942,44.3641466],[4.4440999,44.364178],[4.4439384,44.3643515],[4.443858,44.3644378],[4.4438242,44.3645258],[4.4437237,44.3647867],[4.4435981,44.3649304],[4.4432172,44.3651397],[4.4428437,44.3652115],[4.4424672,44.3652465],[4.442131,44.3652196],[4.4418846,44.3653024],[4.4414431,44.3653831],[4.441227,44.3653869],[4.4411645,44.3653937],[4.4411276,44.3654177],[4.44107,44.3654],[4.4409826,44.3654146],[4.4409722,44.3654451],[4.4409336,44.3654591],[4.4409057,44.3654403],[4.4408481,44.365434],[4.4408088,44.3654593],[4.4408211,44.365485],[4.4408078,44.3655065],[4.4407785,44.3654963],[4.4407484,44.3655051],[4.4407349,44.3654828],[4.4407163,44.3654813],[4.4406646,44.36546],[4.4406026,44.3654216],[4.4405225,44.3654383],[4.4405063,44.3654845],[4.4403848,44.3655007],[4.4403314,44.365478],[4.4402212,44.3655008],[4.4397618,44.3656288],[4.4396261,44.3656355],[4.4392478,44.3656942],[4.4389601,44.3657119],[4.4386509,44.3657943],[4.437906,44.3659145],[4.4378,44.3659039],[4.4376515,44.3659193],[4.4374355,44.3659299],[4.437114,44.3660174],[4.436958,44.3659956],[4.4366725,44.3660704],[4.4364335,44.3660766],[4.4362948,44.3661525],[4.4362742,44.3662629],[4.4363181,44.366281],[4.4363273,44.3663272],[4.4362274,44.3663673],[4.4361453,44.3663743],[4.4358985,44.3664731],[4.4356368,44.3665299],[4.4352377,44.3666647],[4.4345595,44.3669224],[4.4342411,44.3670673],[4.4338763,44.3672048],[4.4335438,44.3673018],[4.4330128,44.3674279],[4.4321775,44.3677151],[4.4314773,44.3678315],[4.4310887,44.3679136],[4.4305834,44.3680365],[4.4304994,44.3680859],[4.4303011,44.3680982],[4.4300731,44.3680766],[4.4299221,44.3680205],[4.4298007,44.3679574],[4.4296266,44.3679056],[4.429764,44.3680199],[4.4295808,44.3680054],[4.4296,44.3679665],[4.4294363,44.3679008],[4.4294893,44.3678588],[4.429328,44.3678195],[4.429269,44.367828],[4.4290781,44.3678195],[4.4288268,44.3677883],[4.4287819,44.3678505],[4.4287086,44.367866],[4.4286502,44.3678527],[4.4285918,44.3678703],[4.4286186,44.3679097],[4.4285119,44.3679204],[4.4284498,44.3679559],[4.4282337,44.367995],[4.4281694,44.3679792],[4.4281089,44.3679816],[4.4280647,44.368037],[4.4280176,44.3680439],[4.4280042,44.3680149],[4.4279533,44.3680449],[4.4279342,44.3680262],[4.4278567,44.3680339],[4.4278512,44.3680619],[4.4277594,44.368077],[4.4277279,44.3680645],[4.4276738,44.3680815],[4.4276275,44.3680703],[4.4276057,44.3681129],[4.4274984,44.3681051],[4.4273772,44.3681199],[4.4273333,44.368155],[4.427261,44.3681521],[4.4272288,44.3681925],[4.4271376,44.3682343],[4.4270162,44.3682533],[4.4268594,44.3683084],[4.4267146,44.3683782],[4.4266759,44.3684529],[4.4265279,44.3685263],[4.4264604,44.3685176],[4.4264146,44.3685791],[4.4261899,44.3686482],[4.4259006,44.3687686],[4.4257921,44.3687893],[4.4257116,44.3688333],[4.4256464,44.3689351],[4.4255381,44.3689982],[4.4253913,44.369065],[4.4253615,44.3691017],[4.425235,44.3691539],[4.4250713,44.3692633],[4.4250019,44.3693446],[4.4249247,44.3693936],[4.4248733,44.3693822],[4.4248446,44.3694243],[4.4248519,44.3694685],[4.4248022,44.3695409],[4.4247524,44.3695498],[4.4247302,44.3696085],[4.4246125,44.3697013],[4.4245283,44.3697885],[4.4244778,44.3699032],[4.4244309,44.3699408],[4.4244411,44.3699672],[4.4243985,44.3700228],[4.4243549,44.3700205],[4.4243113,44.370104],[4.4243343,44.3701106],[4.4243048,44.3701526],[4.4242458,44.3701925],[4.4241721,44.3702245],[4.4241458,44.3702453],[4.4240964,44.3702845],[4.4240107,44.3703734],[4.4239996,44.370423],[4.4239418,44.3704399],[4.4239223,44.3704669],[4.4238952,44.3705045],[4.4238859,44.3706184],[4.4237969,44.370727],[4.4238101,44.3707991],[4.4237686,44.370836],[4.4237429,44.3708911],[4.4236974,44.3709073],[4.423683,44.3709887],[4.4235558,44.370987],[4.4235816,44.3710946],[4.423621,44.3711357],[4.4236181,44.3711888],[4.4236275,44.3712339],[4.4236208,44.3712606],[4.4236022,44.3712751],[4.4235168,44.3713007],[4.4234609,44.3714611],[4.4234813,44.3715309],[4.4234525,44.3715642],[4.4234794,44.3716349],[4.4234247,44.3716558],[4.4235342,44.3718978],[4.4235791,44.3719379],[4.4235788,44.3719767],[4.4236345,44.3721155],[4.4237227,44.3722576],[4.423791,44.3722928],[4.4238943,44.3724672],[4.4239967,44.3725236],[4.4240409,44.3725887],[4.4240938,44.3726364],[4.424182,44.372677],[4.4243278,44.3728064],[4.4244333,44.3728733],[4.4247504,44.3730114],[4.4248178,44.3730498],[4.4248645,44.373114],[4.4249817,44.3731746],[4.4251193,44.3731639],[4.4252399,44.3731171],[4.4253168,44.3730607],[4.4254571,44.3730013],[4.4255899,44.3728961],[4.4255518,44.372883],[4.4255296,44.3728619],[4.4255327,44.3728321],[4.4255789,44.3728071],[4.425744,44.3727305],[4.4258742,44.3726786],[4.4259827,44.3726772],[4.4260676,44.3726411],[4.4263013,44.3725417],[4.4265186,44.3724105],[4.4266532,44.3723548],[4.4267978,44.3722726],[4.4269797,44.372353],[4.4272744,44.3722216],[4.4277399,44.3722472],[4.4279888,44.3722334],[4.428039,44.3721803],[4.4281726,44.3721559],[4.4283401,44.3721165],[4.4284102,44.3720642],[4.4287046,44.3719842],[4.4287509,44.371894],[4.4289762,44.3717884],[4.4293603,44.3716309],[4.429805,44.3715276],[4.4300973,44.3714816],[4.4302878,44.3714797],[4.4306257,44.3714586],[4.4307101,44.3714915],[4.4306903,44.3715625],[4.4311246,44.3715983],[4.4314582,44.3716671],[4.4314313,44.3717288],[4.431882,44.3717173],[4.4321759,44.371731],[4.4324617,44.3717514],[4.4327601,44.3718437],[4.4330502,44.3720396],[4.4330711,44.3720916],[4.4335616,44.3724626],[4.4341056,44.3730489],[4.4341317,44.373218],[4.4342228,44.3734215],[4.4342749,44.3734463],[4.4343452,44.3735949],[4.4343395,44.3736575],[4.4344271,44.3736461],[4.4345656,44.3738421],[4.4345641,44.3740154],[4.434656,44.373936],[4.4347349,44.3739822],[4.4348207,44.3743007],[4.4348668,44.3746759],[4.4348262,44.3749303],[4.4348746,44.3749208],[4.4349262,44.3750675],[4.4348176,44.3751815],[4.4347755,44.374986],[4.4346799,44.3749388],[4.4345036,44.3753305],[4.4345707,44.3754451],[4.4347797,44.3753414],[4.4348012,44.3754751],[4.4347769,44.3755631],[4.4348177,44.3756734],[4.4348046,44.3757645],[4.4348228,44.3758474],[4.4349436,44.3760107],[4.434807,44.3761556],[4.4348247,44.3762974],[4.4347532,44.3762633],[4.4347443,44.3762877],[4.4348177,44.3763747],[4.4348826,44.376489],[4.4349759,44.3765325],[4.4350984,44.3766603],[4.4351672,44.3767962],[4.4352755,44.3768525],[4.4353161,44.3769366],[4.4352972,44.3770388],[4.4352143,44.3771861],[4.4350608,44.3773617],[4.4345792,44.3776224],[4.4342235,44.3777375],[4.4339799,44.3778883],[4.4337779,44.3779588],[4.4334727,44.3779872],[4.4331745,44.3779104],[4.4326095,44.377804],[4.4322934,44.3778453],[4.4319888,44.3778434],[4.4316212,44.3777575],[4.4314504,44.3776024],[4.4311315,44.3773749],[4.431101,44.3775321],[4.4309114,44.3773911],[4.4307337,44.3773184],[4.4307413,44.3772491],[4.4304306,44.3770231],[4.4302397,44.3770033],[4.4300496,44.3769025],[4.4300216,44.376855],[4.4298989,44.3768492],[4.4299353,44.3768043],[4.4298562,44.3767709],[4.4297569,44.3768448],[4.4296191,44.3767273],[4.4294763,44.3766401],[4.4293398,44.3765981],[4.4292629,44.376449],[4.4289205,44.3763766],[4.4287785,44.3762729],[4.4287232,44.376275],[4.428694,44.3762221],[4.4286086,44.376199],[4.4285939,44.3761634],[4.42851,44.3761243],[4.4284476,44.3761195],[4.4284246,44.3760699],[4.4283255,44.3760271],[4.4283074,44.3760495],[4.4282306,44.376],[4.4282154,44.3759624],[4.4280942,44.3759489],[4.4280629,44.3758733],[4.4280268,44.3758529],[4.4279072,44.3757875],[4.4278225,44.37571],[4.4277137,44.3756428],[4.4276705,44.37565],[4.4275524,44.3755588],[4.4274231,44.3754953],[4.4271738,44.3753666],[4.4270691,44.3752794],[4.4269893,44.3752725],[4.4269357,44.3752231],[4.4268657,44.3752062],[4.4268423,44.3752237],[4.4268131,44.3751933],[4.426622,44.3751444],[4.4265671,44.3750864],[4.4265603,44.375111],[4.4265104,44.3750921],[4.4264824,44.374998],[4.4264496,44.3749819],[4.4264563,44.3750717],[4.4264079,44.3750599],[4.426366,44.3749828],[4.4263379,44.3750098],[4.426284,44.375008],[4.4261011,44.3748914],[4.4260211,44.3749076],[4.4259248,44.3748843],[4.4258663,44.3748601],[4.4258045,44.374791],[4.4258176,44.3747591],[4.4257428,44.3747793],[4.4257168,44.3747393],[4.425681,44.3747505],[4.4256349,44.3746836],[4.425478,44.374661],[4.4252805,44.3745652],[4.4250894,44.3744967],[4.4249871,44.3744825],[4.4248898,44.3744478],[4.4247446,44.374471],[4.4247287,44.3743855],[4.4246423,44.3743374],[4.4245843,44.3743391],[4.4245276,44.3743579],[4.4244746,44.3743175],[4.4243982,44.3743125],[4.4243049,44.3742543],[4.4241514,44.3742515],[4.4240347,44.3742103],[4.4238902,44.3741882],[4.4238249,44.3741597],[4.4237914,44.3741612],[4.4236918,44.374177],[4.4235959,44.374151],[4.4235298,44.3741717],[4.4233857,44.3741819],[4.4232568,44.3741695],[4.4230477,44.374073],[4.4228356,44.3741335],[4.4228161,44.3741015],[4.4227408,44.3740803],[4.4226494,44.3740784],[4.4226227,44.3740494],[4.4225287,44.3740892],[4.4225118,44.374078],[4.4225064,44.3740442],[4.422464,44.3740352],[4.4224369,44.3740507],[4.4222976,44.3740009],[4.4221604,44.3739227],[4.4219947,44.3739504],[4.4219127,44.3739449],[4.4217574,44.3738827],[4.4216175,44.3738723],[4.4214593,44.3738926],[4.4214064,44.3739229],[4.4213376,44.3739071],[4.4212333,44.3739439],[4.4211822,44.3739401],[4.4210538,44.3739716],[4.4210285,44.3739609],[4.4209436,44.3739793],[4.4208992,44.374023],[4.4208581,44.3740076],[4.4207916,44.3740276],[4.4207568,44.3739934],[4.4207219,44.3740074],[4.4205888,44.3739818],[4.4205293,44.3740131],[4.4204648,44.3739986],[4.4204638,44.3740285],[4.4202917,44.3740122],[4.420164,44.3740231],[4.420034,44.3741029],[4.419952,44.374086],[4.4199017,44.3741407],[4.4195361,44.3741778],[4.4194603,44.3741315],[4.4194466,44.3740869],[4.4193556,44.3741164],[4.4193002,44.3741514],[4.419239,44.374133],[4.4190687,44.3741508],[4.4189415,44.3742092],[4.4188436,44.3742676],[4.4187751,44.3742756],[4.4186997,44.3742786],[4.4186512,44.3743078],[4.4186357,44.3743452],[4.4185844,44.3743526],[4.4185345,44.3743871],[4.4184939,44.3743806],[4.4184393,44.3743849],[4.4183759,44.3744218],[4.4183467,44.3744827],[4.4183569,44.3745122],[4.4182044,44.3745885],[4.418137,44.3745981],[4.4181039,44.3746249],[4.4180835,44.374622],[4.4180009,44.3746327],[4.417957,44.3746602],[4.4179169,44.3747258],[4.4178767,44.3747281],[4.4178319,44.3747139],[4.4177547,44.3747772],[4.417768,44.3748014],[4.4176358,44.3748553],[4.4176429,44.3749004],[4.4175391,44.3749369],[4.4174504,44.3749571],[4.4174295,44.375036],[4.417377,44.375031],[4.4173354,44.3750992],[4.4172229,44.3751774],[4.4172425,44.3752257],[4.4171123,44.3753118],[4.4171112,44.3753565],[4.417005,44.375396],[4.4169814,44.3753631],[4.4169199,44.3753912],[4.4168971,44.375416800000007],[4.4169228,44.3755012],[4.4168664,44.3755204],[4.4167678,44.3755896],[4.4167221,44.3756616],[4.4167019,44.3757438],[4.4167205,44.3758551],[4.4166922,44.3759024],[4.416552,44.3759595],[4.4165404,44.3759964],[4.4164901,44.375984],[4.4164572,44.37601],[4.4163605,44.3760859],[4.4162727,44.3762858],[4.4162581,44.3764553],[4.4162376,44.3765167],[4.4161642,44.3765533],[4.4161411,44.376628],[4.4161858,44.3767854],[4.4161465,44.376822],[4.4161406,44.3769425],[4.4162098,44.3772734],[4.4162082,44.3774188],[4.4162734,44.3778973],[4.4163306,44.3781756],[4.4163656,44.3784798],[4.4163989,44.3787776],[4.4165312,44.3791107],[4.4167132,44.3794677],[4.4168288,44.3797909],[4.4168696,44.3800859],[4.4169265,44.380076],[4.4170269,44.3800264],[4.4171156,44.3800453],[4.417285,44.3802307],[4.4172817,44.3804558],[4.4173354,44.3805133],[4.4174212,44.3805938],[4.4174829,44.380753],[4.417507,44.3809082],[4.4175768,44.3810079],[4.4175945,44.3810807],[4.417586,44.3812193],[4.4176169,44.3812905],[4.417573,44.3813595],[4.4174797,44.3813712],[4.4174139,44.3814194],[4.4172978,44.3813913],[4.4171959,44.3814066],[4.4170686,44.3814636],[4.416997,44.3815104],[4.4168472,44.3815792],[4.4167629,44.3816557],[4.4165066,44.3816942],[4.4163966,44.3816904],[4.416225,44.3817613],[4.4162987,44.3819108],[4.4164637,44.3820412],[4.4166031,44.382115],[4.4166984,44.38216],[4.4168672,44.3822181],[4.4171374,44.382289],[4.4171584,44.3822405],[4.4171503,44.3821792],[4.4171879,44.3821447],[4.4172683,44.3821083],[4.417491,44.3819894],[4.4176063,44.381884],[4.4176733,44.38179],[4.4177157,44.3817561],[4.4177785,44.3817564],[4.4178164,44.381567],[4.4179642,44.3815345],[4.417988,44.3814962],[4.4180339,44.3814664],[4.4180079,44.3814483],[4.4179958,44.3814165],[4.4180216,44.3813759],[4.4180204,44.3813613],[4.4179958,44.3813687],[4.4179856,44.3813521],[4.4180047,44.3813316],[4.4179748,44.3813012],[4.4180007,44.3812535],[4.4180629,44.3812518],[4.4181016,44.381172],[4.418067,44.3811207],[4.4180733,44.3810816],[4.4180493,44.3810407],[4.4180759,44.3810017],[4.4180564,44.3809652],[4.4180746,44.3809142],[4.4180462,44.3808626],[4.4180392,44.3808054],[4.4180322,44.3807481],[4.4179718,44.380736],[4.4179207,44.3805849],[4.4179639,44.3805482],[4.4179577,44.38052],[4.4179177,44.380517],[4.4178974,44.3804843],[4.4179044,44.3804176],[4.4178773,44.3803869],[4.4178752,44.380313],[4.4179055,44.3802902],[4.4179293,44.3800553],[4.4178808,44.3800028],[4.4178569,44.3799278],[4.4177949,44.3798993],[4.4177858,44.3798794],[4.4177828,44.3798101],[4.417748,44.3797167],[4.4177051,44.3797497],[4.4176587,44.3797633],[4.4176019,44.3796974],[4.417586,44.3796344],[4.4175249,44.3795579],[4.4174836,44.3794852],[4.4175028,44.3794573],[4.4174987,44.3793696],[4.4174641,44.3793245],[4.4174797,44.3792748],[4.4174356,44.379199],[4.4174579,44.3791928],[4.4174095,44.3790999],[4.4173842,44.3790202],[4.4174257,44.378978],[4.417358,44.378905],[4.4172402,44.3789273],[4.4172755,44.3790907],[4.4172514,44.379265],[4.4174026,44.3794271],[4.417315,44.3794866],[4.417067,44.3792539],[4.4170804,44.3791991],[4.4169402,44.3790039],[4.4167719,44.3788353],[4.4167136,44.3787305],[4.4166542,44.3785629],[4.4167184,44.378218],[4.4167211,44.3779292],[4.4166979,44.3776161],[4.4166475,44.3771452],[4.4166483,44.3768915],[4.4166627,44.3767379],[4.4168882,44.3763277],[4.4172024,44.375913],[4.4174105,44.375687],[4.4176937,44.375444],[4.418002,44.3752076],[4.4183731,44.3750215],[4.4185399,44.374892],[4.4185872,44.3747625],[4.4188752,44.3745872],[4.4193009,44.3744529],[4.4199114,44.3744423],[4.4206092,44.3743933],[4.4211923,44.3743382],[4.4214166,44.374367],[4.4217639,44.3743578],[4.4219382,44.3742432],[4.4221583,44.3743253],[4.422328,44.3742907],[4.4226019,44.3743769],[4.4232449,44.3744502],[4.4236537,44.3745207],[4.4240352,44.3745301],[4.424934,44.374811],[4.425688,44.375087],[4.4262298,44.3753794],[4.42645,44.3755178],[4.426422,44.3755592],[4.4265468,44.3756697],[4.4268689,44.375871],[4.4270315,44.3759571],[4.4272047,44.3759722],[4.4273014,44.3760375],[4.4272854,44.3761038],[4.4274611,44.3762184],[4.4275564,44.3762294],[4.4278999,44.3764587],[4.4279961,44.3764927],[4.4280172,44.3765305],[4.4280911,44.3765757],[4.4281532,44.3765767],[4.4282555,44.3766276],[4.428369,44.376696],[4.4289219,44.3770453],[4.4294051,44.3773007],[4.4299519,44.3775532],[4.4301582,44.3776675],[4.4305577,44.3778354],[4.4311491,44.3780954],[4.431691,44.3782288],[4.4322429,44.3784046],[4.4323743,44.3783781],[4.4324369,44.3784336],[4.432918,44.3785293],[4.4331697,44.3784842],[4.4335529,44.3785168],[4.4339856,44.3784304],[4.434062,44.3783351],[4.4340935,44.3782137],[4.434184,44.378121],[4.4343356,44.3780234],[4.4345483,44.3779533],[4.4347657,44.3778918],[4.4348363,44.377911],[4.4348075,44.3779731],[4.4348843,44.3780171],[4.4349893,44.3779559],[4.435093,44.3778833],[4.4352289,44.3777974],[4.4353465,44.3777802],[4.4354348,44.3777476],[4.4355411,44.3777316],[4.4356208,44.3776592],[4.435746,44.3776289],[4.4357914,44.3776014],[4.4358171,44.3774565],[4.4358805,44.3773373],[4.4359361,44.3772091],[4.4359183,44.3771521],[4.4359363,44.3771327],[4.4359158,44.3770857],[4.43595,44.3770556],[4.4359323,44.3769444],[4.4358814,44.3769144],[4.4358628,44.3768672],[4.4358656,44.376829],[4.4359266,44.3768187],[4.4359324,44.376793],[4.4358813,44.376763],[4.4357931,44.376671],[4.4356863,44.3766453],[4.4356392,44.3765557],[4.4355342,44.3764927],[4.4355533,44.3764214],[4.4355283,44.376375],[4.4355594,44.3763203],[4.435522,44.376244],[4.4355539,44.3761711],[4.4354564,44.3760596],[4.4354169,44.3759084],[4.4354349,44.3758709],[4.435405,44.3758236],[4.435404,44.3757493],[4.4353589,44.3757049],[4.4353353,44.3757116],[4.435299,44.3756545],[4.4352825,44.3755728],[4.4352939,44.3754961],[4.4353496,44.3753671],[4.4354141,44.3753259],[4.4354539,44.3752135],[4.4353816,44.3750024],[4.4354104,44.3748887],[4.4353844,44.3746982],[4.4353947,44.3745582],[4.4353038,44.3744278],[4.4352818,44.3743004],[4.4351994,44.3741629],[4.4352179,44.3741024],[4.435157,44.3739886],[4.4351624,44.3739502],[4.4350806,44.373751],[4.4350477,44.3737176],[4.4349653,44.373553],[4.4349615,44.3734863],[4.4348988,44.3733827],[4.4348906,44.3733382],[4.4348471,44.3732886],[4.4347874,44.3731972],[4.4346074,44.3727735],[4.4344527,44.3725783],[4.4343625,44.37253],[4.4343169,44.3724592],[4.4342507,44.3724239],[4.4342088,44.3723346],[4.4341505,44.372322],[4.4341124,44.3722964],[4.4340828,44.3722402],[4.4340371,44.3722229],[4.4340527,44.3721688],[4.4339929,44.3720412],[4.4338383,44.3718901],[4.4334243,44.3716589],[4.4333508,44.3716415],[4.433295,44.371586],[4.4332275,44.3715342],[4.4331094,44.3715166],[4.4329938,44.3715068],[4.4329646,44.3714789],[4.4329124,44.3714763],[4.4329027,44.3714415],[4.4328753,44.3714497],[4.432745,44.3714182],[4.432652,44.3713879],[4.4326227,44.3713648],[4.4325304,44.3713482],[4.4325104,44.3713142],[4.4324567,44.3713233],[4.4322934,44.3712735],[4.4321705,44.3712728],[4.4320108,44.3712219],[4.4319077,44.3711696],[4.4316837,44.3711904],[4.4315688,44.3711779],[4.4315396,44.3711545],[4.4313735,44.3711783],[4.4312978,44.3712148],[4.4312366,44.3711877],[4.4311591,44.3711863],[4.4311176,44.3711665],[4.4310159,44.3711569],[4.4308623,44.3711652],[4.4307318,44.37119],[4.430575,44.3711791],[4.4304738,44.3712155],[4.4303901,44.3712045],[4.4301655,44.3711997],[4.4300783,44.3712299],[4.4300204,44.371227],[4.4299645,44.3712334],[4.4299036,44.3712284],[4.4298507,44.3712485],[4.4297041,44.3712361],[4.4296995,44.3712981],[4.4296612,44.3713],[4.4296219,44.3712647],[4.4296148,44.371301],[4.4295557,44.3713277],[4.4294914,44.3713334],[4.4293661,44.3713274],[4.4292649,44.3713008],[4.4291072,44.3713028],[4.4288568,44.3713524],[4.4287464,44.3714211],[4.428591,44.371411],[4.4284304,44.3714474],[4.4283758,44.3714767],[4.4283225,44.3714742],[4.4281884,44.371487],[4.4281348,44.3714991],[4.4280543,44.3714929],[4.4279816,44.3715201],[4.427991,44.371565],[4.427945,44.3715674],[4.427962,44.3716019],[4.4280379,44.3716284],[4.4280499,44.3716615],[4.4279831,44.3717166],[4.4278313,44.3717424],[4.4276633,44.3718013],[4.4275908,44.3717908],[4.4275644,44.3717523],[4.4274923,44.3717599],[4.4274117,44.3717871],[4.427373,44.3717819],[4.4273479,44.371756],[4.427267,44.3717321],[4.4271918,44.3717484],[4.4271645,44.3717696],[4.4271135,44.3717944],[4.427073,44.3718224],[4.4270352,44.3718453],[4.426943,44.3718646],[4.426873,44.3719198],[4.4267175,44.3719834],[4.426714,44.3720086],[4.4266591,44.3720653],[4.4266151,44.3720879],[4.4266032,44.3721205],[4.4265683,44.3721108],[4.4265388,44.3721434],[4.4265073,44.3721314],[4.4264975,44.3721398],[4.426488,44.3721402],[4.4264785,44.3721359],[4.426463,44.3721403],[4.4264605,44.37215],[4.4264188,44.3721592],[4.426398,44.3721683],[4.4263124,44.3721783],[4.4262783,44.3721729],[4.4262375,44.3721749],[4.4262008,44.372175],[4.4261546,44.3721622],[4.4260727,44.3721743],[4.4260503,44.3721993],[4.4259832,44.372191],[4.4259444,44.3722152],[4.4259274,44.3722536],[4.425888,44.3722821],[4.4257762,44.372286],[4.4257275,44.3722729],[4.4256667,44.3722703],[4.4256004,44.3722931],[4.4255244,44.3723192],[4.4254625,44.3723828],[4.4254357,44.3724422],[4.4252828,44.372494],[4.4251576,44.3725052],[4.4250632,44.3724629],[4.4249882,44.3723844],[4.4248917,44.372328],[4.4247537,44.3722446],[4.4245083,44.3721406],[4.4243443,44.3720319],[4.4242414,44.3719803],[4.4241033,44.3718019],[4.4240743,44.3714429],[4.4241194,44.3713149],[4.4242972,44.3710881],[4.4244022,44.370882],[4.4244046,44.3707068],[4.4245198,44.3705415],[4.4244973,44.370438],[4.4245881,44.3703618],[4.4246462,44.3702037],[4.4247352,44.3700942],[4.4248722,44.3698794],[4.4248006,44.3697161],[4.4253263,44.3693059],[4.4257904,44.3691304],[4.4265215,44.3689029],[4.4272274,44.3686599],[4.427319,44.3685795],[4.4276473,44.3684703],[4.4280151,44.3683817],[4.4282863,44.3683644],[4.4288234,44.3682451],[4.4292959,44.3681899],[4.4296701,44.3681521],[4.4298093,44.3681997],[4.4300853,44.3682485],[4.4303762,44.3682808],[4.4306017,44.3683043],[4.4307708,44.3682988],[4.4308858,44.3681895],[4.4309822,44.3681526],[4.4312626,44.3681264],[4.4313838,44.3680842],[4.4314698,44.3680749],[4.4319399,44.3680146],[4.432179,44.3679573],[4.4324344,44.3679078],[4.4329094,44.3677485],[4.4331787,44.3677265],[4.4335275,44.3676603],[4.4339358,44.3675456],[4.4340167,44.3674937],[4.4340756,44.3674966],[4.4341671,44.3674859],[4.4342369,44.3674229],[4.4342905,44.3673928],[4.4345007,44.3673459],[4.434681,44.3672737],[4.4347515,44.3672605],[4.4348166,44.3672608],[4.4348357,44.3672266],[4.4349501,44.3672202],[4.434967,44.3671925],[4.4352737,44.3671113],[4.4357151,44.366987],[4.4360848,44.3669256],[4.4363296,44.3668593],[4.436389,44.3668603],[4.4364178,44.3668191],[4.4364816,44.3668185],[4.4365127,44.3667975],[4.4366076,44.3667759],[4.4368647,44.3667474],[4.4370701,44.3667071],[4.4375657,44.3665665],[4.4377584,44.366535],[4.4378563,44.3664012],[4.4382528,44.3663164],[4.4384461,44.366294],[4.4386631,44.366302],[4.4385757,44.3663587],[4.4387147,44.3663659],[4.439878,44.3662026],[4.4409008,44.366014],[4.4419675,44.3657831],[4.4420481,44.3657739],[4.4425366,44.3656639],[4.442721,44.3655844],[4.4430271,44.3654962],[4.4433699,44.3654619],[4.4435302,44.3654146],[4.4436054,44.3653642],[4.4439201,44.3652776],[4.4439983,44.3651763],[4.4440466,44.3651692],[4.444154,44.3650466],[4.4441412,44.3650268],[4.4441682,44.3648925],[4.4442452,44.3648874],[4.4443527,44.3648503],[4.4443655,44.3647153],[4.444407,44.3647062],[4.4444003,44.3646658],[4.4443582,44.3646567],[4.4443438,44.3647016],[4.4443035,44.3647024],[4.4442782,44.3647447],[4.4442557,44.3647355],[4.4442418,44.3647081],[4.4442591,44.3646776],[4.4442925,44.3646709],[4.444329,44.3645698],[4.4444054,44.364538],[4.4444133,44.3645106],[4.4444428,44.364482],[4.4446096,44.3644055],[4.4447063,44.3644298],[4.4447043,44.3643784],[4.4447209,44.3643496],[4.4447742,44.364346],[4.4449833,44.3642491],[4.4450643,44.3642342],[4.4451906,44.3641779],[4.445323,44.364141],[4.4453658,44.3641511],[4.445441,44.3641228],[4.4455169,44.3641156],[4.4456705,44.3640377],[4.4457036,44.3639889],[4.44589,44.3639186],[4.4460916,44.3637847],[4.446212,44.3637401],[4.4462325,44.363674],[4.4463248,44.3635932],[4.446382,44.3634948],[4.4463157,44.3632265],[4.4466112,44.3630875],[4.4467284,44.3630083],[4.4468393,44.3629785],[4.4469738,44.3629064],[4.4475225,44.362698],[4.4476057,44.3626972],[4.447689,44.36272],[4.4476862,44.3628216],[4.4476551,44.3629216],[4.4475592,44.3630237],[4.4475967,44.3630655],[4.4477768,44.3629976],[4.4479379,44.3629369],[4.4481486,44.3628266],[4.4483663,44.3625525],[4.448381,44.3623671],[4.4483751,44.3623519],[4.4484424,44.3623165],[4.4484518,44.3623063],[4.4484235,44.3622979],[4.4484082,44.362243],[4.4484613,44.3622278],[4.4483904,44.3622034],[4.4484365,44.3621873],[4.4484943,44.3622034],[4.4485038,44.3621696],[4.4485427,44.362102899999999],[4.4485203,44.3620498],[4.4485215,44.3620042],[4.4485038,44.3619772],[4.4484943,44.3619248],[4.448525,44.3619172],[4.4485545,44.3619029],[4.4485404,44.3618691],[4.4485675,44.3618269],[4.448512,44.3618227],[4.4485498,44.3617906],[4.4485286,44.3617712],[4.4485616,44.3617434],[4.4485132,44.3617138],[4.4484754,44.3617172],[4.4484353,44.3616801],[4.4483857,44.3616953],[4.448342,44.3616683],[4.4484069999999999,44.3615847],[4.4483999,44.3615569],[4.4484459,44.3615104],[4.4484483,44.3614075],[4.4484105,44.3613239],[4.4483397,44.3613045],[4.4483539,44.3612446],[4.4482759,44.3611078],[4.4482299,44.3611053],[4.4481909,44.3610589],[4.4482228,44.360961],[4.4482039,44.3609407],[4.4482016,44.3608968],[4.4480812,44.3608985],[4.4481,44.3608614],[4.4480422,44.3608487],[4.4480528,44.3608015],[4.4481237,44.3607703],[4.4480903,44.3607634],[4.4479888,44.3607034],[4.4477869,44.3606266],[4.4475662,44.3605549],[4.4475579,44.3605287],[4.4474835,44.3605321],[4.4474032,44.3605144],[4.4473336,44.3604916],[4.4471896,44.3604739],[4.4470467,44.3604393],[4.4469641,44.3604165],[4.4468637,44.3603371],[4.4468024,44.360338],[4.4465167,44.3602409],[4.4464647,44.3601911],[4.4463349,44.3602232],[4.446329,44.3601641],[4.4461861,44.3601354],[4.446133,44.3600941],[4.4460527,44.3601008],[4.4459583,44.3600544],[4.445891,44.360051],[4.4457847,44.3600307],[4.4457446,44.3600139],[4.4457068,44.3600409],[4.4455758,44.3600476],[4.4455002,44.360024],[4.4454806,44.3599973],[4.4453934,