{"type":"FeatureCollection","features":[
{"type":"Feature","geometry":{"type":"Point","coordinates":[7.044349,49.1480361]},"properties":{"name":"Auersmacher","traffic_sign":"city_limit"}},
{"type":"Feature","geometry":{"type":"Point","coordinates":[7.0493877,49.1432152]},"properties":{"created_by":"JOSM"}},
{"type":"Feature","geometry":{"type":"Point","coordinates":[6.9167828,49.2231461]},"properties":{"created_by":"JOSM"}},
{"type":"Feature","geometry":{"type":"Point","coordinates":[7.0366725,49.1508382]},"properties":{"description":"Bau 1949-1954; Abriss 1990","generator:source":"fossil","historic":"power:generator","name":"anc. Centrale Thermique"}},
{"type":"Feature","geometry":{"type":"Point","coordinates":[6.9877153,49.1994471]},"properties":{"description":"Grab von Arnold Wiegmann und 5 weiteren Soldaten, gefallen am 6.8.1870 im Deutsch-Französischen Krieg 1870/71, Steinkreuz mit Inschrift auf einem Sockel mit Inschrift","historic":"memorial","inscription":"TREU bis in den TOD|ARNOLD WIEGMANN|Freiw. Unteroff. 39. Reg. 3C|gefallen den 6 AUG. 1870|mit ihm ruhen: Füsl. BODENHEIM 39 R.|Füsl. STEIN 39 R.|Füsl. BOBE 39 R.|Füsl. HECHELMANN 48 R.|Füsl. KÜHL 48 R.","material":"stone","memorial":"war_memorial","memorial:conflict":"Franco-Prussian_War","name":"Arnold Wiegmann et al","wikidata":"Q71569346","wikimedia_commons":"Category:Arnold Wiegmann Memorial"}},
{"type":"Feature","geometry":{"type":"Point","coordinates":[6.9681719,49.1913813]},"properties":{"name":"Hauberge St. Jean","tourism":"hotel"}},
{"type":"Feature","geometry":{"type":"Point","coordinates":[6.9713383,49.2007893]},"properties":{"description:de":"Grab von Ernst August Paul Viehn, gefallen am 6.8.1870 im Deutsch-Französischen Krieg 1870/71, Steinkreuz auf einem Sockel mit Inschrift","historic":"memorial","inscription":"Hier starb den Heldentod am 6. August 1870 der Gefreite im 2ten Brandenbrg. Grenadir Regiment No 12 Ernst August Paul Viehn geboren zu Guben den 22. März 1849","material":"stone","memorial":"cross","memorial:conflict":"Franco-Prussian_War","name":"Ernst August Paul Viehn","wikimedia_commons":"Category:Tombe d'Ernst August Paul Viehn (Hauteurs de Spicheren)"}},
{"type":"Feature","geometry":{"type":"Point","coordinates":[6.9710286,49.2024883]},"properties":{"colour":"black","description:de":"Grabmal von: Sergeant Albert Johann Heinrich JUNKER aus Anklam; Hauptm. Franz MUDRACK aus Berlin; Füs. Heinrich vom ENDE aus Mühlheim a.d. R.; jew. 7.Komp. d. Niederrhein. Füs.-Regt Nr. 39, gusseisernes schwarzes Kreuz auf Sandsteinsockel","description:en":"Grave from the franco-prussian war of 1870–1871","historic":"memorial","inscription":"Hier ruhen A. J. H. Junker Sergeant|Franz Mudrack Hauptmann|H. vom Ende Füsilier.|von der 7. Comp. des Niederrheinischen Füsilier-Regiments No 39|Sie starben den Heldentot für König und Vaterland am 6. August 1870 an dieser Stelle","memorial":"cross","memorial:conflict":"Franco-Prussian_War","name":"Franz Mudrack, Albert Johann Heinrich Junker, Heinrich vom Ende","subject:wikidata":"Q46083","wikidata":"Q71574469","wikimedia_commons":"Category:Memorial Junker - Mudrack - vom Ende"}},
{"type":"Feature","geometry":{"type":"Point","coordinates":[6.9852837,49.2045379]},"properties":{"description":"Grenzstein Deutschland-Frankreich 1830","format":"squared_stone","format:top":"flat","height":"0.8","historic":"boundary_stone","inscription":"F 8 I (?) / N. 9 / D / 1830","length":"0.35","material":"sandstone","start_date":"1850","width":"0.35"}},
{"type":"Feature","geometry":{"type":"Point","coordinates":[6.9844725,49.204915]},"properties":{"description":"Grenzstein Deutschland-Frankreich 1966","format":"squared_stone","format:top":"rounded","height":"0.55","historic":"boundary_stone","inscription":"D / 1966 / F / 8","length":"0.35","material":"sandstone","old_ref":"0.55","start_date":"1966","width":"0.35"}},
{"type":"Feature","geometry":{"type":"Point","coordinates":[6.9824453,49.204173]},"properties":{"backrest":"no","bench":"yes","colour":"brown","covered":"no","leisure":"picnic_table","material":"wood"}},
{"type":"Feature","geometry":{"type":"Point","coordinates":[7.1197,49.16995]},"properties":{"historic":"boundary_stone","source":"49.16995,7.11970"}},
{"type":"Feature","geometry":{"type":"Point","coordinates":[7.1099252,49.1642903]},"properties":{"historic":"boundary_stone"}},
{"type":"Feature","geometry":{"type":"Point","coordinates":[6.8926111,49.2088272]},"properties":{"format":"squared_stone","historic":"boundary_stone","material":"sandstone"}},
{"type":"Feature","geometry":{"type":"Point","coordinates":[7.1172067,49.1684687]},"properties":{"historic":"boundary_stone"}},
{"type":"Feature","geometry":{"type":"Point","coordinates":[7.1079638,49.1635778]},"properties":{"historic":"boundary_stone"}},
{"type":"Feature","geometry":{"type":"Point","coordinates":[7.015715,49.1911839]},"properties":{"format":"triangle","format:top":"flat","height":"0.7","historic":"boundary_stone","inscription":"F A|F G|D 1906 Sa","start_date":"1906"}},
{"type":"Feature","geometry":{"type":"Point","coordinates":[7.1088174,49.1639734]},"properties":{"historic":"boundary_stone"}},
{"type":"Feature","geometry":{"type":"Point","coordinates":[7.1165296,49.1681508]},"properties":{"historic":"boundary_stone"}},
{"type":"Feature","geometry":{"type":"Point","coordinates":[7.114646,49.1518013]},"properties":{"fee":"no","name":"Haus der Dorfgeschichte","opening_hours":"Apr-Dec: Su[3] 14:00-18:00","tourism":"museum","website":"http://www.verein-fuer-dorfgeschichte.de/Haus-der-Dorfgeschichte/","wheelchair":"limited"}},
{"type":"Feature","geometry":{"type":"Point","coordinates":[6.995944,49.1633481]},"properties":{"historic":"boundary_stone"}},
{"type":"Feature","geometry":{"type":"Point","coordinates":[6.9980951,49.166364]},"properties":{"historic":"boundary_stone"}},
{"type":"Feature","geometry":{"type":"Point","coordinates":[6.997662,49.1670999]},"properties":{"historic":"boundary_stone"}},
{"type":"Feature","geometry":{"type":"Point","coordinates":[7.0006879,49.1701908]},"properties":{"description":"liegt komplett ebenerdig","description:de":"umgekippt","format":"squared_stone","format:top":"pyramidal","historic":"boundary_stone","material":"sandstone"}},
{"type":"Feature","geometry":{"type":"Point","coordinates":[7.001252,49.171219]},"properties":{"description:de":"beschädigt","format":"squared_stone","format:top":"flat","historic":"boundary_stone","material":"sandstone"}},
{"type":"Feature","geometry":{"type":"Point","coordinates":[7.0042883,49.1705618]},"properties":{"historic":"boundary_stone"}},
{"type":"Feature","geometry":{"type":"Point","coordinates":[7.0072623,49.1700275]},"properties":{"historic":"boundary_stone","inscription":"1732 GBD"}},
{"type":"Feature","geometry":{"type":"Point","coordinates":[7.0043931,49.1465199]},"properties":{"historic":"boundary_stone"}},
{"type":"Feature","geometry":{"type":"Point","coordinates":[6.9851456,49.1616532]},"properties":{"description:de":"beschädigt","format":"squared_stone","format:top":"flat","historic":"boundary_stone","material":"sandstone"}},
{"type":"Feature","geometry":{"type":"Point","coordinates":[6.994203,49.199723]},"properties":{"description:de":"beschädigt","format":"squared_stone","format:top":"flat","historic":"boundary_stone","inscription":"N.16;D;1830;F","material":"sandstone","ref":"16","year":"1830"}},
{"type":"Feature","geometry":{"type":"Point","coordinates":[6.995331,49.1986116]},"properties":{"description:de":"beschädigt","format":"squared_stone","format:top":"flat","historic":"boundary_stone","inscription":"N.17;D;1830;F","material":"sandstone","ref":"17","year":"1830"}},
{"type":"Feature","geometry":{"type":"Point","coordinates":[6.997272,49.1972669]},"properties":{"description:de":"beschädigt","format":"squared_stone","format:top":"rounded","historic":"boundary_stone","inscription":"N.18;D;1920;F","material":"sandstone","ref":"18","start_date":"1920"}},
{"type":"Feature","geometry":{"type":"Point","coordinates":[6.9990204,49.1944502]},"properties":{"description":"Dreibannstein Saarland, Spichern, Alsting","format":"triangle","format:top":"flat","historic":"boundary_stone","inscription":"D S;F A;F SP","material":"sandstone"}},
{"type":"Feature","geometry":{"type":"Point","coordinates":[7.0295302,49.1662679]},"properties":{"seamark:type":"gate","waterway":"lock_gate"}},
{"type":"Feature","geometry":{"type":"Point","coordinates":[7.0297298,49.1659006]},"properties":{"seamark:type":"gate","waterway":"lock_gate"}},
{"type":"Feature","geometry":{"type":"Point","coordinates":[7.027469,49.1582133]},"properties":{"information":"map","map_size":"city","map_type":"citymap","tourism":"information"}},
{"type":"Feature","geometry":{"type":"Point","coordinates":[7.0020983,49.1885412]},"properties":{"historic":"wayside_cross","inscription":"EN DIEU 1989","material":"concrete","religion":"christian"}},
{"type":"Feature","geometry":{"type":"Point","coordinates":[7.0453922,49.1175473]},"properties":{"seamark:type":"gate","waterway":"lock_gate"}},
{"type":"Feature","geometry":{"type":"Point","coordinates":[7.0355795,49.1552915]},"properties":{"addr:city":"Kleinblittersdorf","addr:country":"DE","addr:housenumber":"51","addr:postcode":"66271","addr:street":"Elsässer Straße","breakfast":"yes","contact:phone":"+49 6805 8659","contact:website":"https://www.hotel-zumdom.de/","internet_access":"wlan","name":"Hotel Zum Dom","rooms":"7","tourism":"hotel","wheelchair":"no"}},
{"type":"Feature","geometry":{"type":"Point","coordinates":[7.0332453,49.1569512]},"properties":{"historic":"memorial","name":"Turbinenrad","wheelchair":"yes"}},
{"type":"Feature","geometry":{"type":"Point","coordinates":[6.9690205,49.2025072]},"properties":{"colour":"green","height":"2.21","historic":"memorial","length":"5.48","memorial":"war_memorial","memorial:conflict":"WW2","name":"Char léger M 24 «Chaffee» américain","name:de":"U.S. M-24 „Chaffee“ Panzer","name:en":"Tank M 24 Chaffee Light","note":"Present to the commune of Spicheren by the 70th infantry division association, dedicated May 8th 1997","start_date":"1997-05-08","width":"2.85","wikimedia_commons":"Category:M24 Chaffee Monument (Spicheren)","year_of_construction":"1943"}},
{"type":"Feature","geometry":{"type":"Point","coordinates":[6.9674982,49.204093]},"properties":{"historic":"memorial","image":"File:Spicheren Memorial 70th Division US Trailblazers 1944–45 (2022-09-15).jpg","inscription:de":"ZUM GEDENKEN ALLER OPFER DER KÄMPFE IM WINTER 1944–1945","inscription:en":"70TH-DIVISION-US TRAILBLAZERS|IN MEMORY OF THE MEN OF THE U.S. 70TH INF. DIV. WHO FOUGHT AND DIED HERE IN WINTER 1944–1945","inscription:fr":"A LA MEMOIRE DE TOUTES LES VICTIMES MILITAIRES ET CIVILES DES COMBATS DE LA LIBERATION DE L’HIVER 1944–1945","lit":"yes","material":"stone","memorial":"war_memorial","memorial:conflict":"WW2","memorial:conflict:wikidata":"Q362","name":"70th Division US Trailblazers","note:inscription":"The complete inscription is too long for a single inscription tag. The order of the inscription on the stone and plate is: 1st English, 2nd French, 3rd German. See images on Wikimedia.","start_date":"1995","subject:wikipedia":"en:70th Infantry Division (United States)","wikimedia_commons":"Category:Memorial for fallen soldiers of the 70th Infantry Division (Spicheren)"}},
{"type":"Feature","geometry":{"type":"Point","coordinates":[6.9681829,49.2031005]},"properties":{"historic":"memorial","inscription":"MONUMENT DE L'EUROPE|EUROPASTEIN|MENHIR D'ALLEMAGNE|DEUTSCHLANDSTEIN|MENHIR DE FRANCE|FRANKREICHSTEIN|ERIGEE DANS L'ANNEE DE L'EUROPE 1993|ERRICHTET IM EUROPAJAHR 1993|PAR/VON|COMMUNE DE SPICHEREN|SAARWALD-VEREIN SAARBRÜCKEN|HALBERG GUSS GMBH","memorial":"stone","name":"Monument de l'Europe / Europastein","name:de":"Europastein","name:fr":"Monument de l'Europe","start_date":"1993","wikidata":"Q98665341","wikimedia_commons":"Category:Europastein (Spicheren)"}},
{"type":"Feature","geometry":{"type":"Point","coordinates":[6.9729631,49.2077056]},"properties":{"description:de":"Ehrenmal für das 5. Brandenburgische Infanterie-Regiment Nr. 48 „Von Stülpnagel“ aus dem Deutsch-Französischen Krieg 1870/71","height":"6","historic":"memorial","memorial":"war_memorial","memorial:conflict":"Franco-Prussian_War","name":"Infanterie Regiment Nr. 48 von Stülpnagel","wikidata":"Q98636652","wikimedia_commons":"Category:Denkmal der 48er (Spicheren)"}},
{"type":"Feature","geometry":{"type":"Point","coordinates":[6.9720149,49.2081591]},"properties":{"description:de":"Ehrenmal für das 1. Hannoversche Infanterie-Regiment Nr. 74 aus dem Deutsch-Französischen Krieg 1870/71","height":"10","historic":"memorial","inscription":"Seinen auf den Schlachtfeldern im Feldzuge 1870/71 gegen Frankreich ehrenvoll gefallenen Kameraden! Das Offiziers-Corps des 1. Hannoverschen Infanterie-Regiments No 74","memorial":"war_memorial","memorial:conflict":"Franco-Prussian_War","name":"1. Hannoversches Infanterie-Regiment Nr. 74","start_date":"1871-08-06","wikidata":"Q98637625","wikimedia_commons":"Category:Denkmal der 74er (Spicheren)"}},
{"type":"Feature","geometry":{"type":"Point","coordinates":[6.9720784,49.2079208]},"properties":{"description:de":"Denkmal am Sterbeort des Général Bruno von François, gefallen am 6.8.1870 im Deutsch-Französischen Krieg 1870/71","historic":"memorial","inscription":"Hier fiel am 6. August 1870 A.D. General Bruno von François","memorial":"war_memorial","memorial:conflict":"Franco-Prussian_War","name":"Général Bruno von François","start_date":"1872","wikidata":"Q98639328","wikimedia_commons":"Category:Bruno von François Memorial"}},
{"type":"Feature","geometry":{"type":"Point","coordinates":[6.9699118,49.205429]},"properties":{"description:de":"Grab von Capitaine Charles-Auguste de Beurmann, gefallen am 8.8.1870 im Deutsch-Französischen Krieg 1870/71 (Grabstein mit Metalltafel mit Inschrift)","historic":"tomb","inscription":"Place du Capitaine Charles-Auguste de BEURMANN tombé à Spicheren le 6/8/1870","name":"Capitaine Charles-Auguste de Beurmann","start_date":"1870","tomb":"war_grave","wikimedia_commons":"Category:Tomb du Capitaine Charles-Auguste de Beurmann (Hauteurs de Spicheren)"}},
{"type":"Feature","geometry":{"type":"Point","coordinates":[6.9671904,49.2040464]},"properties":{"information":"map","map_size":"region","map_type":"toposcope","name":"Situation géographique en 1870","tourism":"information","wikidata":"Q98662415","wikimedia_commons":"Category:Table d'orientation (Spicheren)"}},
{"type":"Feature","geometry":{"type":"Point","coordinates":[6.9366093,49.2021304]},"properties":{"natural":"tree"}},
{"type":"Feature","geometry":{"type":"Point","coordinates":[6.9369792,49.2026129]},"properties":{"natural":"tree"}},
{"type":"Feature","geometry":{"type":"Point","coordinates":[6.9365989,49.201884]},"properties":{"natural":"tree"}},
{"type":"Feature","geometry":{"type":"Point","coordinates":[6.9363385,49.2016792]},"properties":{"natural":"tree"}},
{"type":"Feature","geometry":{"type":"Point","coordinates":[6.9366496,49.2018147]},"properties":{"natural":"tree"}},
{"type":"Feature","geometry":{"type":"Point","coordinates":[6.936479,49.2017846]},"properties":{"natural":"tree"}},
{"type":"Feature","geometry":{"type":"Point","coordinates":[6.9366657,49.2022002]},"properties":{"natural":"tree"}},
{"type":"Feature","geometry":{"type":"Point","coordinates":[6.9364998,49.2018403]},"properties":{"natural":"tree"}},
{"type":"Feature","geometry":{"type":"Point","coordinates":[6.9368685,49.2024728]},"properties":{"natural":"tree"}},
{"type":"Feature","geometry":{"type":"Point","coordinates":[6.9665932,49.2041811]},"properties":{"architect":"Edmond Gresser","description:de":"Gedenkkreuz zu Ehren der am 6. August 1870 gefallenen französischen Soldaten. 1934 errichtet von der Gesellschaft „Le Souvenir français“.","engineer":"Entreprise Dietsch et Cie, Forbach","height":"15 m","historic":"memorial","inscription":"AUX SOLDATS FRANÇAIS MORTS LE 6 AOÛT 1870|ERIGÉ PAR LE SOUVENIR FRANÇAIS 1934","man_made":"cross","material":"concrete","memorial":"war_memorial","memorial:conflict":"Franco-Prussian_War","memorial:conflict:wikidata":"Q46083","name":"Croix du Souvenir Français","name:de":"Kreuz des Souvenir Français","start_date":"1934-09-30","wikidata":"Q98661569","wikimedia_commons":"Category:Battle of Spicheren Memorial Cross"}},
{"type":"Feature","geometry":{"type":"Point","coordinates":[6.9696107,49.2051751]},"properties":{"description:de":"Ehrenmal für das Niederrheinische Füsilier-Regiment Nr. 39 aus dem Deutsch-Französischen Krieg 1870/71","height":"6","historic":"memorial","memorial":"war_memorial","memorial:conflict":"Franco-Prussian_War","name":"Niederrheinisches Füsilierregiment Nr. 39","start_date":"1872","wikidata":"Q98639197","wikimedia_commons":"Category:Denkmal der 39er (Spicheren)"}},
{"type":"Feature","geometry":{"type":"Point","coordinates":[6.9697949,49.2050371]},"properties":{"description:de":"Ehrenmal für das Hohenzollernsche Füsilier-Regiment Nr. 40 aus dem Deutsch-Französischen Krieg 1870/71","historic":"memorial","memorial":"war_memorial","memorial:conflict":"Franco-Prussian_War","name":"Hohenzollersches Füsilierregiment Nr. 40","start_date":"1872","toilets:wheelchair":"yes","wikidata":"Q98662798","wikimedia_commons":"Category:Denkmal der 40er (Spicheren)"}},
{"type":"Feature","geometry":{"type":"Point","coordinates":[6.996994,49.1975278]},"properties":{"historic":"boundary_stone"}},
{"type":"Feature","geometry":{"type":"Point","coordinates":[6.9939593,49.1998111]},"properties":{"historic":"boundary_stone"}},
{"type":"Feature","geometry":{"type":"Point","coordinates":[6.9749974,49.2098325]},"properties":{"hiking":"yes","information":"map","map_size":"region","name":"SaarWanderLand","tourism":"information"}},
{"type":"Feature","geometry":{"type":"Point","coordinates":[6.9719764,49.2045512]},"properties":{"description:de":"Denkmal für das Grenadier-Regiment „Prinz Carl von Preußen“ (2. Brandenburgisches) Nr. 12 aus dem Deutsch-Französischen Krieg 1870/71","historic":"memorial","inscription":"Grenadier Regiment Prinz Carl von Preussen (2. Brandenburgisches) No 12 (...) gewidmet von den Offizieren, Kameraden und Freunden des Regiments. usw.","material":"stone","memorial":"war_memorial","memorial:conflict":"Franco-Prussian_War","name":"Grenadier Regiment Prinz Carl von Preussen","start_date":"1897","wikidata":"Q98636454","wikimedia_commons":"Category:Denkmal der 12er (Spicheren)"}},
{"type":"Feature","geometry":{"type":"Point","coordinates":[6.9538141,49.2098147]},"properties":{"historic":"memorial","inscription":"DEN IM FELDZUG GEGEN FRANKREICH 1870-71 GEFALL. KAMERADEN GEWIDMET|V. 2. HANNOVERSCHEN INFANTERIE REGIMENT N° 77|AM 6.8.1872 IN STIERINGEN LOTHR. ERRICHTET|AM 7.8.1927 ÜBERNOMMEN VON SAARBRÜCKEN","memorial":"war_memorial","memorial:conflict":"Franco-Prussian_War","memorial:conflict:wikidata":"Q46083","name":"77. Infanterie-Regiment","start_date":"1872","wikimedia_commons":"Category:1870er Denkmal am Hauptfriedhof Saarbrücken"}},
{"type":"Feature","geometry":{"type":"Point","coordinates":[6.9009714,49.1870505]},"properties":{"addr:city":"Forbach","addr:housenumber":"57","addr:postcode":"57600","addr:street":"Rue Nationale","contact:email":"info@hotelaladin.fr","contact:fax":"+33 3 87 13 33 58","contact:phone":"+33 3 87 85 08 80","contact:website":"http://www.hotelaladin.fr/","name":"Hôtel Aladin","old_name":"Hôtel de la Poste","tourism":"hotel"}},
{"type":"Feature","geometry":{"type":"Point","coordinates":[6.8933988,49.2231876]},"properties":{"bbq":"no","covered":"no","drinking_water":"no","fireplace":"no","name":"Lauftreff TV Klarenthal","openfire":"no","tourism":"picnic_site"}},
{"type":"Feature","geometry":{"type":"Point","coordinates":[6.9523913,49.2112688]},"properties":{"check_date":"2022-08-07","leaf_cycle":"deciduous","leaf_type":"broadleaved","natural":"tree","species":"Salix alba","species:de":"Silber-Weide"}},
{"type":"Feature","geometry":{"type":"Point","coordinates":[6.8996768,49.1860688]},"properties":{"historic":"memorial","memorial":"statue"}},
{"type":"Feature","geometry":{"type":"Point","coordinates":[6.8960816,49.1863758]},"properties":{"historic":"memorial","memorial":"statue","name":"Général de Gaulle"}},
{"type":"Feature","geometry":{"type":"Point","coordinates":[7.0022596,49.195829]},"properties":{"ele":"325.8","name":"Römischer Kopf","natural":"peak","source":"lib.byu.edu Historic German Maps (PD)"}},
{"type":"Feature","geometry":{"type":"Point","coordinates":[6.9078223,49.1831994]},"properties":{"addr:housenumber":"7","addr:postcode":"57600","addr:street":"Rue Maurice Barrès","amenity":"arts_centre","contact:fax":"+33 3 87 84 66 60","contact:phone":"+33 3 87 87 76 91","culture":"museum","museum:genre":"arts_gallery","name":"Galerie Œil","opening_hours":"Mo-Fr 08:00-17:00","tourism":"gallery"}},
{"type":"Feature","geometry":{"type":"Point","coordinates":[6.8964461,49.1856028]},"properties":{"addr:postcode":"57600","addr:street":"Place Aristide Briand","contact:email":"mediatheque@mairie-forbach.fr","contact:fax":"+33 3 87 84 61 99","contact:phone":"+33 3 87 84 61 90","culture":"museum","description:de":"Jährliches Ausstellungsprogramm im Bereich der zeitgenössischen Kunst","description:fr":"Programmation annuelle d'art contemporain","fee":"no","museum:genre":"arts_gallery","name":"Galerie d'exposition de la Médiathèque","opening_hours":"Tu 09:30-12:00, 13:30-18:00; We 10:00-12:00, 13:30-19:00; Th 14:00-18:00; Fr 09:30-12:00, 13:30-18:00; Sa 10:00-12:00, 13:30-17:00","operator":"Ville de Forbach","tourism":"gallery","website":"https://www.mediatheque-forbach.net/"}},
{"type":"Feature","geometry":{"type":"Point","coordinates":[6.894935,49.1858249]},"properties":{"information":"office","name":"Forbach Tourisme","tourism":"information"}},
{"type":"Feature","geometry":{"type":"Point","coordinates":[6.8918076,49.1793594]},"properties":{"leisure":"sports_centre","sport":"table_tennis"}},
{"type":"Feature","geometry":{"type":"Point","coordinates":[6.8923011,49.1804009]},"properties":{"leisure":"sports_centre"}},
{"type":"Feature","geometry":{"type":"Point","coordinates":[6.8999212,49.1593854]},"properties":{"ele":"370","name":"Hunnenberg","natural":"peak"}},
{"type":"Feature","geometry":{"type":"Point","coordinates":[7.0268019,49.1940095]},"properties":{"access":"private","barrier":"gate","gate:type":"double"}},
{"type":"Feature","geometry":{"type":"Point","coordinates":[7.0267731,49.1939931]},"properties":{"access":"private","barrier":"gate","gate:type":"single","maxwidth":"1"}},
{"type":"Feature","geometry":{"type":"Point","coordinates":[6.9670381,49.2042481]},"properties":{"historic":"battlefield","name":"Bataille de Forbach-Spicheren","name:de":"Schlacht bei Spichern","name:en":"Battle of Spicheren","wikidata":"Q699238","wikipedia":"fr:Bataille de Forbach-Spicheren","wikipedia:de":"Schlacht bei Spichern"}},
{"type":"Feature","geometry":{"type":"Point","coordinates":[6.968104,49.2033381]},"properties":{"check_date":"2022-09-08","leaf_cycle":"deciduous","leaf_type":"broadleaved","natural":"tree","species":"Fraxinus nigra","species:de":"Schwarz-Esche"}},
{"type":"Feature","geometry":{"type":"Point","coordinates":[6.967844,49.2034919]},"properties":{"check_date":"2022-09-08","genus":"Prunus","genus:de":"Kirschbaum","leaf_cycle":"deciduous","leaf_type":"broadleaved","natural":"tree"}},
{"type":"Feature","geometry":{"type":"Point","coordinates":[6.967898,49.2035773]},"properties":{"check_date":"2022-09-08","genus":"Prunus","genus:de":"Kirschbaum","leaf_cycle":"deciduous","leaf_type":"broadleaved","natural":"tree"}},
{"type":"Feature","geometry":{"type":"Point","coordinates":[6.9679626,49.2036792]},"properties":{"check_date":"2022-09-08","genus":"Prunus","genus:de":"Kirschbaum","leaf_cycle":"deciduous","leaf_type":"broadleaved","natural":"tree"}},
{"type":"Feature","geometry":{"type":"Point","coordinates":[6.9673797,49.2037194]},"properties":{"check_date":"2022-09-07","genus":"Tilia","genus:de":"Linde","leaf_cycle":"deciduous","leaf_type":"broadleaved","natural":"tree"}},
{"type":"Feature","geometry":{"type":"Point","coordinates":[6.9675244,49.2037313]},"properties":{"check_date":"2022-09-07","leaf_cycle":"evergreen","leaf_type":"needleleaved","natural":"tree"}},
{"type":"Feature","geometry":{"type":"Point","coordinates":[6.9673853,49.2038632]},"properties":{"check_date":"2022-09-08","genus":"Tilia","genus:de":"Linde","leaf_cycle":"deciduous","leaf_type":"broadleaved","natural":"tree","start_date":"2010-09-16"}},
{"type":"Feature","geometry":{"type":"Point","coordinates":[6.9677678,49.204358]},"properties":{"check_date":"2022-09-08","genus":"Fraxinus","genus:de":"Esche","leaf_cycle":"deciduous","leaf_type":"broadleaved","natural":"tree"}},
{"type":"Feature","geometry":{"type":"Point","coordinates":[6.9682876,49.2043896]},"properties":{"check_date":"2022-09-08","genus":"Prunus","genus:de":"Kirschbaum","leaf_cycle":"deciduous","leaf_type":"broadleaved","natural":"tree"}},
{"type":"Feature","geometry":{"type":"Point","coordinates":[6.9684629,49.2043913]},"properties":{"check_date":"2022-09-08","genus":"Prunus","genus:de":"Kirschbaum","leaf_cycle":"deciduous","leaf_type":"broadleaved","natural":"tree"}},
{"type":"Feature","geometry":{"type":"Point","coordinates":[6.9906523,49.1979067]},"properties":{"drinking_water":"no","natural":"spring"}},
{"type":"Feature","geometry":{"type":"Point","coordinates":[6.9550777,49.2030818]},"properties":{"information":"board","name":"bataille de Spicheren","tourism":"information","traffic_sign":"FR:386.3"}},
{"type":"Feature","geometry":{"type":"Point","coordinates":[7.0001228,49.1796333]},"properties":{"natural":"tree"}},
{"type":"Feature","geometry":{"type":"Point","coordinates":[7.0000101,49.1795824]},"properties":{"natural":"tree"}},
{"type":"Feature","geometry":{"type":"Point","coordinates":[6.9887278,49.2031083]},"properties":{"natural":"cave_entrance","note":"Von Menschenhand angelegtes Stollensystem. Keine Mine. 2 Eingänge, Quergang, 1 Gang zu einer 3 qm Kammer. Deckenhöhe ca. 160 cm."}},
{"type":"Feature","geometry":{"type":"Point","coordinates":[6.9288496,49.2220105]},"properties":{"description":"Gedenkstein für zwei gefallene Soldaten des Deutsch-Französischen Kriegs 1870/71 (beide Gräber rechts daneben)","historic":"memorial","inscription":"In treuem Gedenken den am 6. August 1870 vor dem Feinde gefallenen Husaren|Georg Christian Dithmers der II. Escadron|Michael Kürten der V. Escadron|II. Westfälischen Husaren Regiments No. 11|errichtet von den (...) Reserve- und Landwehr-Offizieren (...)","memorial":"war_memorial","memorial:conflict":"Franco-Prussian_War","name":"1870/71"}},
{"type":"Feature","geometry":{"type":"Point","coordinates":[6.967548,49.1962046]},"properties":{"description":"Steinkreuz mit Metallkruzifix und Heiligenfigur, auf Steinsockel","historic":"wayside_cross","inscription":"Vom jähen und unversehenem Tode bewahre uns o Herr;Dieses Kreuz ist Errichtet worden zur Ehre Gottes durch Peter Stein und Magda Starck 1881;Zu allen zeite wen wir dir bitten erhöre uns o Herr;St. Antoin Priez Pour Nous","material":"stone","name":"Stein/Starck","religion":"christian","start_date":"1881"}},
{"type":"Feature","geometry":{"type":"Point","coordinates":[6.8934779,49.2093453]},"properties":{"format":"squared_stone","historic":"boundary_stone","material":"sandstone"}},
{"type":"Feature","geometry":{"type":"Point","coordinates":[6.8983124,49.2124661]},"properties":{"format":"squared_stone","historic":"boundary_stone","material":"sandstone"}},
{"type":"Feature","geometry":{"type":"Point","coordinates":[6.9279038,49.1844316]},"properties":{"name":"Source Napoleon","natural":"spring"}},
{"type":"Feature","geometry":{"type":"Point","coordinates":[6.9671888,49.1429454]},"properties":{"ele":"365","natural":"peak"}},
{"type":"Feature","geometry":{"type":"Point","coordinates":[6.990848,49.2027285]},"properties":{"cemetery":"grave","colour":"black","description:de":"Gedenkkreuz an einem Grab aus dem Deutsch-Französischen Krieg von 1870–1871","description:en":"Memorial cross at a grave from the franco-prussian war of 1870–1871","historic":"memorial","inscription":"Hier ruhen in Gott 7 tapfere Krieger gestorben den Heldentod am 6 Aug 1870;6 Mann vom Füs. Rgt. 39|1 Franzose","material":"iron;sandstone","memorial":"cross","memorial:conflict":"Franco-Prussian_War","note":"Gusseisernes Kreuz mit Inschrift auf einem Sandsteinsockel mit Inschrift","religion":"christian","wikimedia_commons":"Category:Grave of 7 soldiers 06 Aug 1870 (Stiftswald Sankt Arnual)"}},
{"type":"Feature","geometry":{"type":"Point","coordinates":[6.8937624,49.168399]},"properties":{"ele":"320","name":"Wiesberg","natural":"peak"}},
{"type":"Feature","geometry":{"type":"Point","coordinates":[6.968224,49.2039839]},"properties":{"door":"no","entrance":"main"}},
{"type":"Feature","geometry":{"type":"Point","coordinates":[6.9795928,49.2003987]},"properties":{"description":"Grab von Charles-Marie Duchesne, gefallen am 6.8.1870 im Deutsch-Französischen Krieg 1870/71, Grabkreuz aus Stahl (mit Kruzifix) auf Steinsockel","historic":"memorial","inscription":"Ici repose Charles-Marie DUCHESNE Lieutnant du 2e. Rgt. de ligne né à Versailles le 10 mai 1849 mort à Spicheren le 6 août 1870 pour la France sa patrie. De profundis! Quomodo ceciderunt","memorial":"cross","memorial:conflict":"Franco-Prussian_War","name":"Charles-Marie Duchesne","wikidata":"Q71573269","wikimedia_commons":"Category:Duchesne Memorial"}},
{"type":"Feature","geometry":{"type":"Point","coordinates":[6.9446263,49.1915792]},"properties":{"description":"Sandsteinkreuz","historic":"wayside_cross","inscription":"Dieses Kreuz hat lassen aufrichten Güiring Monet und Elisabeth Wirig zur Ehre Gottes 1873 von Zinzingen","name":"Monet","start_date":"1873"}},
{"type":"Feature","geometry":{"type":"Point","coordinates":[6.9441651,49.1921793]},"properties":{"entrance":"yes"}},
{"type":"Feature","geometry":{"type":"Point","coordinates":[6.9442175,49.1922193]},"properties":{"entrance":"yes"}},
{"type":"Feature","geometry":{"type":"Point","coordinates":[6.9422326,49.1926356]},"properties":{"hiking":"yes","information":"map","map_size":"region","map_type":"scheme","name":"Schalkental","tourism":"information"}},
{"type":"Feature","geometry":{"type":"Point","coordinates":[6.992305,49.2014133]},"properties":{"description":"vermutlich ein übererdeter Bunker (wg. Schützengräben)","historic":"yes","military":"bunker","ruins":"yes"}},
{"type":"Feature","geometry":{"type":"Point","coordinates":[6.9812928,49.2021594]},"properties":{"entrance":"yes"}},
{"type":"Feature","geometry":{"type":"Point","coordinates":[6.9812947,49.202212]},"properties":{"entrance":"yes"}},
{"type":"Feature","geometry":{"type":"Point","coordinates":[6.9872146,49.2024263]},"properties":{"door":"no","entrance":"yes"}},
{"type":"Feature","geometry":{"type":"Point","coordinates":[6.9871362,49.2024385]},"properties":{"door":"no","entrance":"yes"}},
{"type":"Feature","geometry":{"type":"Point","coordinates":[6.9831596,49.2024789]},"properties":{"door":"no","entrance":"yes"}},
{"type":"Feature","geometry":{"type":"Point","coordinates":[6.9831407,49.2025301]},"properties":{"door":"no","entrance":"yes"}},
{"type":"Feature","geometry":{"type":"Point","coordinates":[6.996718,49.1736168]},"properties":{"information":"map","tourism":"information"}},
{"type":"Feature","geometry":{"type":"Point","coordinates":[6.9914209,49.1714884]},"properties":{"ele":"355","name":"Hexen Pool","natural":"peak"}},
{"type":"Feature","geometry":{"type":"Point","coordinates":[6.9595401,49.2055584]},"properties":{"check_date":"2023-03-11","denotation":"natural_monument","description":"Naturdenkmal","genus":"Betula","genus:de":"Birke","leaf_cycle":"deciduous","leaf_type":"broadleaved","monument:natural":"yes","natural":"tree","old_ref":"D 5.08.064","ref:DE-SL":"ND-D_5_08_064","source":"Saarland-Schutzgebietskataster","species:de":"Trauerbirke"}},
{"type":"Feature","geometry":{"type":"Point","coordinates":[6.9805122,49.2085078]},"properties":{"description":"Ehemaliges Naturdenkmal (laut Amtsblatt 1977 „Weide am Kriegerdenkmal“; in Amtsblatt von 2008 nicht mehr enthalten). An der Stelle ist ein dicker Baumstumpf direkt neben einer nicht sehr großen Weide zu sehen","natural":"tree_stump","old_ref":"D 5.08.059","source":"Saarland-Schutzgebietskataster","was:denotation":"natural_monument","was:monument:natural":"yes"}},
{"type":"Feature","geometry":{"type":"Point","coordinates":[6.9337788,49.2224679]},"properties":{"denotation":"natural_monument","description":"Naturdenkmal","fixme":"Resurvey – Stimmt diese Position? (So auf der Karte des Saarland Schutzkastaster angegeben mit diesen Infos von 2008: „südl. Engenberg“, Ø 3,10 m, Höhe 12–15 m, 160 Jahre). Aber 2023-05-22 hier keine solche Buche gefunden. Oder wurde sie gefällt?","leaf_cycle":"deciduous","leaf_type":"broadleaved","monument:natural":"yes","name":"Dick Buch","natural":"tree","old_ref":"D 5.08.069","ref:DE-SL":"ND-D_5_08_069","source":"Saarland-Schutzgebietskataster","species":"Fagus sylvatica","species:de":"Rotbuche","wikimedia_commons":"File:Dick Buch im Alt-Saarbrücker Stadtwald.jpg"}},
{"type":"Feature","geometry":{"type":"Point","coordinates":[6.9334692,49.1702524]},"properties":{"historic":"memorial"}},
{"type":"Feature","geometry":{"type":"Point","coordinates":[6.966938,49.2000645]},"properties":{"description:de":"Metallkreuz auf Steinsockel mit Metalltafel","direction":"SW","historic":"memorial","inscription":"A la Mémoire de Marie-Joseph-Adolphe GANGLOFF|Lieutenant du 40e. Rgt. de Ligne|né à Forbach le 23 juin 1841|tombé à Spicheren le 6 août 1870|pour la France sa patrie.|PRIEZ DIEU POUR EUX","memorial":"cross","memorial:conflict":"Franco-Prussian_War","name":"Marie-Joseph-Adolphe Gangloff","wikidata":"Q98653807","wikimedia_commons":"Category:Monument Gangloff (Spicheren)"}},
{"type":"Feature","geometry":{"type":"Point","coordinates":[6.9577682,49.1941388]},"properties":{"description":"Steinkreuz mit Metalkruzifix auf Steinsockel","historic":"wayside_cross","inscription":"Mein Gott warum hast du mich verlassen Nicola Greff 1839 Barbara Klein","name":"Greff/Klein","start_date":"1839"}},
{"type":"Feature","geometry":{"type":"Point","coordinates":[6.9541175,49.1976563]},"properties":{"building":"bunker","description":"Regelbau 102b, gesprengt","historic":"yes","military":"bunker","ruins":"yes"}},
{"type":"Feature","geometry":{"type":"Point","coordinates":[6.9618258,49.1992178]},"properties":{"building":"bunker","demolished:building":"bunker","description":"Regelbau 102b, gesprengt","historic":"yes","military":"bunker","ruins":"yes"}},
{"type":"Feature","geometry":{"type":"Point","coordinates":[6.963513,49.1999922]},"properties":{"building":"bunker","demolished:building":"bunker","description":"Regelbau 102b, gesprengt","historic":"yes","military":"bunker","ruins":"yes"}},
{"type":"Feature","geometry":{"type":"Point","coordinates":[6.9535511,49.207812]},"properties":{"historic":"memorial","name":"Fliegeropfer"}},
{"type":"Feature","geometry":{"type":"Point","coordinates":[6.9471001,49.1932935]},"properties":{"building":"bunker","description":"vermutlich Regelbau 105 (wg. Schartenplatte 200mm), gesprengt","historic":"yes","military":"bunker","ruins":"yes"}},
{"type":"Feature","geometry":{"type":"Point","coordinates":[6.9968773,49.200532]},"properties":{"description":"Regelbau 51 - Unterstand für Grabenstellung (6 Mann), gesprengt","historic":"yes","military":"bunker","ruins":"yes"}},
{"type":"Feature","geometry":{"type":"Point","coordinates":[7.0329444,49.1865446]},"properties":{"historic":"boundary_stone"}},
{"type":"Feature","geometry":{"type":"Point","coordinates":[7.034577,49.1913854]},"properties":{"historic":"boundary_stone"}},
{"type":"Feature","geometry":{"type":"Point","coordinates":[7.0289838,49.157037]},"properties":{"historic":"memorial","memorial":"war_memorial"}},
{"type":"Feature","geometry":{"type":"Point","coordinates":[6.9018141,49.1607852]},"properties":{"tourism":"viewpoint"}},
{"type":"Feature","geometry":{"type":"Point","coordinates":[6.9581721,49.1468291]},"properties":{"historic":"wayside_cross","inscription":"EN SOUVENIR à Peter Kles décedé le 27 Janu. 1859 à l'age de 21 ans","religion":"christian"}},
{"type":"Feature","geometry":{"type":"Point","coordinates":[6.9204479,49.1891005]},"properties":{"leisure":"pitch","source":"data.gouv.fr:Le ministère des droits des femmes, de la ville, de la jeunesse et des sports - 2014","sport":"table_tennis","surface":"concrete"}},
{"type":"Feature","geometry":{"type":"Point","coordinates":[6.9530935,49.1973699]},"properties":{"building":"bunker","historic":"yes","military":"bunker","name":"RB","ruins":"yes"}},
{"type":"Feature","geometry":{"type":"Point","coordinates":[6.9575373,49.2020647]},"properties":{"building":"bunker","historic":"yes","military":"bunker","name":"RB","ruins":"yes"}},
{"type":"Feature","geometry":{"type":"Point","coordinates":[6.9985285,49.1957222]},"properties":{"historic":"yes","military":"bunker","ruins":"yes"}},
{"type":"Feature","geometry":{"type":"Point","coordinates":[6.9675547,49.2047559]},"properties":{"building":"bunker","historic":"yes","military":"bunker","name":"102","ruins":"yes"}},
{"type":"Feature","geometry":{"type":"Point","coordinates":[6.9462445,49.1879243]},"properties":{"building":"bunker","description":"MG-Ringstand für 1 Mann","disused":"yes","historic":"yes","military":"bunker","name":"Kochbunker"}},
{"type":"Feature","geometry":{"type":"Point","coordinates":[6.9772073,49.2021191]},"properties":{"abandoned":"yes","description":"Grabenunterstand","historic":"yes","military":"bunker"}},
{"type":"Feature","geometry":{"type":"Point","coordinates":[6.9849558,49.2029888]},"properties":{"format":"squared_stone","format:top":"flat","height":"0.35","historic":"boundary_stone","inscription":"25","material":"sandstone"}},
{"type":"Feature","geometry":{"type":"Point","coordinates":[6.9275156,49.1459348]},"properties":{"historic":"wayside_cross","religion":"christian"}},
{"type":"Feature","geometry":{"type":"Point","coordinates":[6.9289873,49.1765446]},"properties":{"leisure":"playground"}},
{"type":"Feature","geometry":{"type":"Point","coordinates":[6.9444556,49.1815744]},"properties":{"format":"squared_stone","format:top":"flat","historic":"boundary_stone","material":"sandstone"}},
{"type":"Feature","geometry":{"type":"Point","coordinates":[6.9443542,49.181638]},"properties":{"format":"squared_stone","format:top":"flat","historic":"boundary_stone","material":"sandstone"}},
{"type":"Feature","geometry":{"type":"Point","coordinates":[6.9435464,49.1850465]},"properties":{"building":"bunker","description":"Ringstand","historic":"yes","military":"bunker"}},
{"type":"Feature","geometry":{"type":"Point","coordinates":[7.009719,49.1919129]},"properties":{"format":"squared_stone","format:top":"flat","historic":"boundary_stone","inscription":"N 7;;1830;;","material":"sandstone","name":"7","year":"1830"}},
{"type":"Feature","geometry":{"type":"Point","coordinates":[7.0401137,49.1449483]},"properties":{"historic":"wayside_cross"}},
{"type":"Feature","geometry":{"type":"Point","coordinates":[7.021885,49.1630906]},"properties":{"historic":"wayside_cross"}},
{"type":"Feature","geometry":{"type":"Point","coordinates":[7.0361384,49.1544193]},"properties":{"historic":"wayside_cross","name":"Lennenkreuz"}},
{"type":"Feature","geometry":{"type":"Point","coordinates":[7.0156642,49.1606991]},"properties":{"historic":"memorial","inscription":"Ô MARIE VIERGE IMMACULÉE Priez pour nous 1948 Inaugurée en août 1949","memorial":"statue","name":"Notre-Dame du Brandenbusch","start_date":"1948"}},
{"type":"Feature","geometry":{"type":"Point","coordinates":[7.0293488,49.1663047]},"properties":{"tourism":"information"}},
{"type":"Feature","geometry":{"type":"Point","coordinates":[7.0151794,49.1609867]},"properties":{"tourism":"picnic_site"}},
{"type":"Feature","geometry":{"type":"Point","coordinates":[7.0158829,49.1606846]},"properties":{"tourism":"viewpoint"}},
{"type":"Feature","geometry":{"type":"Point","coordinates":[7.0223482,49.1502472]},"properties":{"historic":"wayside_cross"}},
{"type":"Feature","geometry":{"type":"Point","coordinates":[7.0137356,49.1469448]},"properties":{"historic":"memorial"}},
{"type":"Feature","geometry":{"type":"Point","coordinates":[7.0273672,49.1546781]},"properties":{"historic":"monument","inscription":"Grosbliederstroff à ses libérateurs américains \"The Trailblazers\" en hommage aux soldats de la 70 th Div. US tombés pour la libération de Grosbliederstroff le 6 et 18 février 1945","name":"Stèle commémorative de la 70th Div. U.S."}},
{"type":"Feature","geometry":{"type":"Point","coordinates":[7.0312497,49.1561434]},"properties":{"tourism":"information"}},
{"type":"Feature","geometry":{"type":"Point","coordinates":[7.0252557,49.1601565]},"properties":{"historic":"wayside_cross"}},
{"type":"Feature","geometry":{"type":"Point","coordinates":[6.9994568,49.1685692]},"properties":{"format":"squared_stone","format:top":"rounded","historic":"boundary_stone","inscription":"Z;;GBL Lothringerkreuz","material":"sandstone"}},
{"type":"Feature","geometry":{"type":"Point","coordinates":[6.9069442,49.1750792]},"properties":{"description":"Metalkreuz u. -Kruzifix auf Steinkörper u. -Sockel in Umzäunung","historic":"wayside_cross","inscription":"Aufgreichtet durch Peter Schowing und Marg. Greff zur Ehre Gottes 1872","name":"Schowing / Greff","start_date":"1872"}},
{"type":"Feature","geometry":{"type":"Point","coordinates":[6.9500182,49.2128396]},"properties":{"artist_name":"PPS","artwork_type":"sculpture","material":"concrete","tourism":"artwork"}},
{"type":"Feature","geometry":{"type":"Point","coordinates":[7.0309223,49.1921906]},"properties":{"check_date":"2023-03-28","denotation":"urban","leaf_cycle":"deciduous","leaf_type":"broadleaved","natural":"tree"}},
{"type":"Feature","geometry":{"type":"Point","coordinates":[7.0298236,49.1924603]},"properties":{"check_date":"2023-03-28","denotation":"urban","leaf_cycle":"evergreen","leaf_type":"needleleaved","natural":"tree"}},
{"type":"Feature","geometry":{"type":"Point","coordinates":[7.0312603,49.1922223]},"properties":{"check_date":"2023-03-28","denotation":"urban","leaf_cycle":"deciduous","leaf_type":"broadleaved","natural":"tree"}},
{"type":"Feature","geometry":{"type":"Point","coordinates":[7.0253168,49.1934524]},"properties":{"tourism":"artwork"}},
{"type":"Feature","geometry":{"type":"Point","coordinates":[7.0343312,49.1584288]},"properties":{"natural":"tree"}},
{"type":"Feature","geometry":{"type":"Point","coordinates":[7.0165737,49.1450964]},"properties":{"abandoned":"yes","historic":"ruins"}},
{"type":"Feature","geometry":{"type":"Point","coordinates":[7.0310207,49.1566573]},"properties":{"backrest":"no","bench":"yes","colour":"brown","leisure":"picnic_table"}},
{"type":"Feature","geometry":{"type":"Point","coordinates":[6.9464252,49.2148377]},"properties":{"colour":"black","description":"Schwarzes Holzkreuz hinter einem Grabsteinsockel (ein Gusskreuz fehlt) – an einem Soldatengrab mit Einfassung aus Natursteinen (aus dem Deutsch-Französischen Krieg von 1870–1871)","historic":"memorial","inscription":"Hier ruhen Deutsche Soldaten gefallen am 6. August 1870","memorial":"cross","memorial:conflict":"Franco-Prussian_War","memorial:conflict:wikidata":"Q46083","start_date":"1870","wikimedia_commons":"Category:1870er Soldatengrab im Deutschmühlental (Saarbrücken)"}},
{"type":"Feature","geometry":{"type":"Point","coordinates":[6.9455015,49.2129323]},"properties":{"format":"squared_stone","format:top":"flat","historic":"boundary_stone","inscription":"2;D;1887;F; Weisung","material":"sandstone","name":"2","year":"1887"}},
{"type":"Feature","geometry":{"type":"Point","coordinates":[6.983864,49.1900529]},"properties":{"natural":"spring"}},
{"type":"Feature","geometry":{"type":"Point","coordinates":[7.0411113,49.1497859]},"properties":{"natural":"tree"}},
{"type":"Feature","geometry":{"type":"Point","coordinates":[7.0097742,49.1566146]},"properties":{"information":"map","tourism":"information"}},
{"type":"Feature","geometry":{"type":"Point","coordinates":[7.1123163,49.1653971]},"properties":{"historic":"boundary_stone"}},
{"type":"Feature","geometry":{"type":"Point","coordinates":[7.1143067,49.1667385]},"properties":{"historic":"boundary_stone"}},
{"type":"Feature","geometry":{"type":"Point","coordinates":[7.1155662,49.1675869]},"properties":{"historic":"boundary_stone"}},
{"type":"Feature","geometry":{"type":"Point","coordinates":[7.0301315,49.1513207]},"properties":{"description":"hohes Steinkreuz mit Kruzifix auf Sandsteinsockel","historic":"wayside_cross","inscription":"1816 Dieses Kreutz hat lassen aufrichten Henrich Karman und sein Ehefrau Bernatha ieck zu Ehre Gottes","name":"Karman","start_date":"1816"}},
{"type":"Feature","geometry":{"type":"Point","coordinates":[6.9925944,49.1581327]},"properties":{"description":"Steinkreuz mit Metallkruzifix auf Sandsteinsockel, Inschriftenplatte aus Marmor – ohne Inschrift, Zustand 2017/12: Steinkreuz steht abgebrochen daneben","heritage":"no","historic":"wayside_cross","religion":"christian"}},
{"type":"Feature","geometry":{"type":"Point","coordinates":[6.9852331,49.1616863]},"properties":{"description:de":"beschädigt","format":"squared_stone","format:top":"flat","historic":"boundary_stone","material":"sandstone"}},
{"type":"Feature","geometry":{"type":"Point","coordinates":[6.9791847,49.1630404]},"properties":{"format":"squared_stone","format:top":"flat","height":"0.4","historic":"boundary_stone","material":"sandstone"}},
{"type":"Feature","geometry":{"type":"Point","coordinates":[6.9527382,49.1781262]},"properties":{"description":"Steinkreuz mit Metalkruzifix","historic":"wayside_chapel"}},
{"type":"Feature","geometry":{"type":"Point","coordinates":[7.1105368,49.1436912]},"properties":{"description":"Betonkreuz mit Metalkruzifix auf SteinSockel","heritage":"no","historic":"wayside_cross","inscription":"Errichtet zur Ehre Gottes 1932 Im Kreuz ist Heil","start_date":"1932"}},
{"type":"Feature","geometry":{"type":"Point","coordinates":[7.0099019,49.1564481]},"properties":{"historic":"wayside_cross","inscription":"Cette croix ??? par Jean Allen et Margueritte ??? de Forbach le ??? 1866"}},
{"type":"Feature","geometry":{"type":"Point","coordinates":[7.0224071,49.1557851]},"properties":{"historic":"wayside_cross","inscription":"CETTE CROIX A ETE ERIGEE PAR FRANÇOIS MARTIN ET JULIE LECOMTE A L'INTENTION DE JOSEPH ALEXIS MARTIN AGE DE 23 ANS MORT SOUS LES DRAPEAUX LE 27 OCTOBRE 1854 QU'IL REPOSE EN PAIX"}},
{"type":"Feature","geometry":{"type":"Point","coordinates":[7.0224584,49.1556055]},"properties":{"natural":"tree"}},
{"type":"Feature","geometry":{"type":"Point","coordinates":[7.0300631,49.1574151]},"properties":{"historic":"wayside_cross","inscription":"CROIX DE MISSION 1855-1972 VICTOIRE! TU REGNERAS! O CROIX! TU NOUS SAUVERAS","name":"Croix de la Mission"}},
{"type":"Feature","geometry":{"type":"Point","coordinates":[7.0817103,49.1421049]},"properties":{"covered":"no","leisure":"picnic_table","material":"wood"}},
{"type":"Feature","geometry":{"type":"Point","coordinates":[6.9984936,49.1426556]},"properties":{"building":"bunker","historic":"yes","military":"bunker","ruins":"yes"}},
{"type":"Feature","geometry":{"type":"Point","coordinates":[6.9982468,49.1431767]},"properties":{"building":"bunker","historic":"yes","military":"bunker","ruins":"yes"}},
{"type":"Feature","geometry":{"type":"Point","coordinates":[7.0037433,49.1451441]},"properties":{"historic":"boundary_stone"}},
{"type":"Feature","geometry":{"type":"Point","coordinates":[7.0011349,49.1459619]},"properties":{"abandoned":"yes","building":"bunker","historic":"yes","military":"bunker"}},
{"type":"Feature","geometry":{"type":"Point","coordinates":[7.0016391,49.1467339]},"properties":{"abandoned":"yes","building":"bunker","historic":"yes","military":"bunker","ruins":"yes"}},
{"type":"Feature","geometry":{"type":"Point","coordinates":[7.0027817,49.1469514]},"properties":{"abandoned":"yes","building":"bunker","historic":"yes","military":"bunker"}},
{"type":"Feature","geometry":{"type":"Point","coordinates":[7.0035435,49.1472392]},"properties":{"abandoned":"yes","building":"bunker","historic":"yes","military":"bunker"}},
{"type":"Feature","geometry":{"type":"Point","coordinates":[7.0240832,49.1553496]},"properties":{"historic":"wayside_cross"}},
{"type":"Feature","geometry":{"type":"Point","coordinates":[6.9409057,49.1910253]},"properties":{"building":"bunker","historic":"yes","military":"bunker","ruins":"yes"}},
{"type":"Feature","geometry":{"type":"Point","coordinates":[6.9401548,49.1914358]},"properties":{"building":"bunker","historic":"yes","military":"bunker","ruins":"yes"}},
{"type":"Feature","geometry":{"type":"Point","coordinates":[7.0085445,49.170533]},"properties":{"tourism":"viewpoint"}},
{"type":"Feature","geometry":{"type":"Point","coordinates":[7.0097723,49.1570215]},"properties":{"leisure":"picnic_table"}},
{"type":"Feature","geometry":{"type":"Point","coordinates":[6.9484968,49.188178]},"properties":{"historic":"wayside_cross","inscription":"ERRIGÉE À LA GLOIRE DE DIEU 1952 MON JESUS MISÉRICORDE","material":"stone","religion":"christian","start_date":"1952"}},
{"type":"Feature","geometry":{"type":"Point","coordinates":[6.9284281,49.201973]},"properties":{"historic":"wayside_shrine"}},
{"type":"Feature","geometry":{"type":"Point","coordinates":[6.9541689,49.1919231]},"properties":{"historic":"wayside_cross","religion":"christian"}},
{"type":"Feature","geometry":{"type":"Point","coordinates":[7.0304512,49.1920127]},"properties":{"check_date":"2023-03-28","denotation":"urban","leaf_cycle":"evergreen","leaf_type":"needleleaved","natural":"tree"}},
{"type":"Feature","geometry":{"type":"Point","coordinates":[6.9224563,49.1994274]},"properties":{"description":"Denkmal zu Ehren der Toten des Grubenunglücks vom 15.3.1907 am Puits Vuillemin","historic":"memorial","inscription":"Erigé par la maison DE WENDEL aux victimes de la catastrophe minière du Puits Vuillemin le 15 nars 1907","memorial":"stone","name":"Grubenunglück 1907 Vuillemin"}},
{"type":"Feature","geometry":{"type":"Point","coordinates":[6.9799483,49.2071344]},"properties":{"access":"yes","historic":"tomb","image":"File:Soldatengrab_Otto_Lehmann_von_1870_(Saarbrücken,_St._Arnualer_Stiftswald,_2022-09-08)_04.jpg","inscription":"Hier ist gefallen Otto Lehmann aus Cottbus-Neu Ruppin am 6. August 1870","name":"Otto Lehmann","start_date":"1870","tomb":"war_grave","wikimedia_commons":"Category:War grave Otto Lehmann 1870 (St. Arnualer Stiftswald)"}},
{"type":"Feature","geometry":{"type":"Point","coordinates":[6.977995,49.2080223]},"properties":{"format":"squared_stone","format:top":"flat","historic":"boundary_stone","inscription":"N;D;1880","material":"sandstone","wikimedia_commons":"Category:Boundary stone 1880 (Almet Sankt Arnual)"}},
{"type":"Feature","geometry":{"type":"Point","coordinates":[6.97959,49.2072318]},"properties":{"format":"squared_stone","format:top":"flat","height":"0.75","historic":"boundary_stone","inscription":"1876/F/N° 4/D","length":"0.35","material":"sandstone","width":"0.35","wikimedia_commons":"Category:Boundary stone 1876 / N 4 (Stiftswald Sankt Arnual)"}},
{"type":"Feature","geometry":{"type":"Point","coordinates":[6.9331218,49.2268456]},"properties":{"format":"obelisk","format:top":"flat","height":"0.7","historic":"boundary_stone","material":"sandstone","note":"Steht etwas schief"}},
{"type":"Feature","geometry":{"type":"Point","coordinates":[6.9426326,49.2150662]},"properties":{"historic":"boundary_stone"}},
{"type":"Feature","geometry":{"type":"Point","coordinates":[6.9713898,49.2049293]},"properties":{"format":"squared_stone","format:top":"rounded","height":"0.2","historic":"boundary_stone"}},
{"type":"Feature","geometry":{"type":"Point","coordinates":[6.9780897,49.2055311]},"properties":{"format":"squared_stone","format:top":"rounded","height":"0.25","historic":"boundary_stone","material":"concrete"}},
{"type":"Feature","geometry":{"type":"Point","coordinates":[6.9792648,49.2059889]},"properties":{"format":"squared_stone","format:top":"rounded","historic":"boundary_stone","material":"concrete","note":"2022-09-13 am Hang liegend gefunden. 72 x 20 x 20 cm"}},
{"type":"Feature","geometry":{"type":"Point","coordinates":[6.9830695,49.2055554]},"properties":{"description":"Grenzstein Deutschland-Frankreich 1876","format":"squared_stone","format:top":"flat","height":"0.8","historic":"boundary_stone","inscription":"1876 / 17","material":"sandstone","wikidata":"Q98649035","wikimedia_commons":"Category:Boundary stone 1876 / 17 (Stiftswald Sankt Arnual)"}},
{"type":"Feature","geometry":{"type":"Point","coordinates":[6.9695973,49.204949]},"properties":{"information":"map","map_size":"region","name":"Zone d'Accueil Pédagogique Transfrontalière","tourism":"information"}},
{"type":"Feature","geometry":{"type":"Point","coordinates":[6.9724959,49.2089887]},"properties":{"description:de":"Grab von 4 Gefallenen vom 74. Regiment aus dem Deutsch-Französischen Krieg 1870/71","historic":"tomb","inscription":"Hier ruhen in Gott die Tapferen des 74-Regiments.|Hauptm. Oloff Präm. Leut. Lehmann Sec. Leut. Grunewald Portep. Fähn. Clauhsen Baring und von Gericke gefallen auf dieser Stelle den 6–August 1870|Friede ihrer Asche!","name":"Grab 74. Regiment","start_date":"1870","tomb":"war_grave","wikimedia_commons":"File:20120324Soldatenfriedhof Spicherer Berg06.jpg"}},
{"type":"Feature","geometry":{"type":"Point","coordinates":[6.9736801,49.2094573]},"properties":{"format":"squared_stone","format:top":"rounded","height":"0.4","historic":"boundary_stone","inscription":"F / 18 / D / 1984","length":"0.3","material":"stone","width":"0.3"}},
{"type":"Feature","geometry":{"type":"Point","coordinates":[7.0331708,49.1570638]},"properties":{"natural":"tree"}},
{"type":"Feature","geometry":{"type":"Point","coordinates":[6.9999767,49.1522544]},"properties":{"historic":"wayside_cross"}},
{"type":"Feature","geometry":{"type":"Point","coordinates":[6.9440694,49.2020204]},"properties":{"natural":"tree"}},
{"type":"Feature","geometry":{"type":"Point","coordinates":[6.9444549,49.2019211]},"properties":{"natural":"tree"}},
{"type":"Feature","geometry":{"type":"Point","coordinates":[6.9446998,49.2018892]},"properties":{"natural":"tree"}},
{"type":"Feature","geometry":{"type":"Point","coordinates":[6.9444746,49.2018058]},"properties":{"natural":"tree"}},
{"type":"Feature","geometry":{"type":"Point","coordinates":[6.9447517,49.2017759]},"properties":{"natural":"tree"}},
{"type":"Feature","geometry":{"type":"Point","coordinates":[6.9442691,49.2019102]},"properties":{"natural":"tree"}},
{"type":"Feature","geometry":{"type":"Point","coordinates":[6.9438896,49.2022476]},"properties":{"natural":"tree"}},
{"type":"Feature","geometry":{"type":"Point","coordinates":[6.944177,49.2021962]},"properties":{"natural":"tree"}},
{"type":"Feature","geometry":{"type":"Point","coordinates":[6.9438422,49.2023912]},"properties":{"natural":"tree"}},
{"type":"Feature","geometry":{"type":"Point","coordinates":[6.943815,49.2023642]},"properties":{"natural":"tree"}},
{"type":"Feature","geometry":{"type":"Point","coordinates":[6.9440439,49.2024891]},"properties":{"natural":"tree"}},
{"type":"Feature","geometry":{"type":"Point","coordinates":[6.9441032,49.2022978]},"properties":{"natural":"tree"}},
{"type":"Feature","geometry":{"type":"Point","coordinates":[6.944241,49.202612]},"properties":{"natural":"tree"}},
{"type":"Feature","geometry":{"type":"Point","coordinates":[6.9438326,49.2027839]},"properties":{"natural":"tree"}},
{"type":"Feature","geometry":{"type":"Point","coordinates":[6.9438526,49.2027222]},"properties":{"natural":"tree"}},
{"type":"Feature","geometry":{"type":"Point","coordinates":[6.9438071,49.2028618]},"properties":{"natural":"tree"}},
{"type":"Feature","geometry":{"type":"Point","coordinates":[6.9439492,49.2024048]},"properties":{"natural":"tree"}},
{"type":"Feature","geometry":{"type":"Point","coordinates":[6.9440264,49.202157]},"properties":{"natural":"tree"}},
{"type":"Feature","geometry":{"type":"Point","coordinates":[6.9439821,49.2022972]},"properties":{"natural":"tree"}},
{"type":"Feature","geometry":{"type":"Point","coordinates":[6.9438748,49.2020849]},"properties":{"natural":"tree"}},
{"type":"Feature","geometry":{"type":"Point","coordinates":[6.9439178,49.2020177]},"properties":{"natural":"tree"}},
{"type":"Feature","geometry":{"type":"Point","coordinates":[6.9439488,49.2017735]},"properties":{"natural":"tree"}},
{"type":"Feature","geometry":{"type":"Point","coordinates":[6.9439681,49.2019412]},"properties":{"natural":"tree"}},
{"type":"Feature","geometry":{"type":"Point","coordinates":[6.9442436,49.2018369]},"properties":{"natural":"tree"}},
{"type":"Feature","geometry":{"type":"Point","coordinates":[6.9442733,49.2017689]},"properties":{"natural":"tree"}},
{"type":"Feature","geometry":{"type":"Point","coordinates":[6.9440561,49.2017401]},"properties":{"natural":"tree"}},
{"type":"Feature","geometry":{"type":"Point","coordinates":[6.9439562,49.2016802]},"properties":{"natural":"tree"}},
{"type":"Feature","geometry":{"type":"Point","coordinates":[6.9440575,49.2015982]},"properties":{"natural":"tree"}},
{"type":"Feature","geometry":{"type":"Point","coordinates":[6.9445739,49.2018504]},"properties":{"natural":"tree"}},
{"type":"Feature","geometry":{"type":"Point","coordinates":[6.9444183,49.2018727]},"properties":{"natural":"tree"}},
{"type":"Feature","geometry":{"type":"Point","coordinates":[6.9447464,49.2018306]},"properties":{"natural":"tree"}},
{"type":"Feature","geometry":{"type":"Point","coordinates":[6.9439634,49.2028018]},"properties":{"natural":"tree"}},
{"type":"Feature","geometry":{"type":"Point","coordinates":[6.9439783,49.2027508]},"properties":{"natural":"tree"}},
{"type":"Feature","geometry":{"type":"Point","coordinates":[6.9441191,49.2027374]},"properties":{"natural":"tree"}},
{"type":"Feature","geometry":{"type":"Point","coordinates":[6.9435935,49.2016791]},"properties":{"natural":"tree"}},
{"type":"Feature","geometry":{"type":"Point","coordinates":[6.94369,49.2017429]},"properties":{"natural":"tree"}},
{"type":"Feature","geometry":{"type":"Point","coordinates":[6.9438013,49.2017177]},"properties":{"natural":"tree"}},
{"type":"Feature","geometry":{"type":"Point","coordinates":[6.9436548,49.2016338]},"properties":{"natural":"tree"}},
{"type":"Feature","geometry":{"type":"Point","coordinates":[6.9437865,49.2018171]},"properties":{"natural":"tree"}},
{"type":"Feature","geometry":{"type":"Point","coordinates":[6.9437513,49.2018809]},"properties":{"natural":"tree"}},
{"type":"Feature","geometry":{"type":"Point","coordinates":[6.9437275,49.2016947]},"properties":{"natural":"tree"}},
{"type":"Feature","geometry":{"type":"Point","coordinates":[6.9438251,49.2017778]},"properties":{"natural":"tree"}},
{"type":"Feature","geometry":{"type":"Point","coordinates":[6.943615,49.2018097]},"properties":{"natural":"tree"}},
{"type":"Feature","geometry":{"type":"Point","coordinates":[6.9436934,49.2019217]},"properties":{"natural":"tree"}},
{"type":"Feature","geometry":{"type":"Point","coordinates":[6.9435344,49.2017399]},"properties":{"natural":"tree"}},
{"type":"Feature","geometry":{"type":"Point","coordinates":[6.9450818,49.2016746]},"properties":{"natural":"tree"}},
{"type":"Feature","geometry":{"type":"Point","coordinates":[6.9449513,49.2016436]},"properties":{"natural":"tree"}},
{"type":"Feature","geometry":{"type":"Point","coordinates":[6.9437615,49.2030056]},"properties":{"natural":"tree"}},
{"type":"Feature","geometry":{"type":"Point","coordinates":[6.9436732,49.2032738]},"properties":{"natural":"tree"}},
{"type":"Feature","geometry":{"type":"Point","coordinates":[6.9437146,49.2031509]},"properties":{"natural":"tree"}},
{"type":"Feature","geometry":{"type":"Point","coordinates":[6.943561,49.2036294]},"properties":{"natural":"tree"}},
{"type":"Feature","geometry":{"type":"Point","coordinates":[6.9436251,49.2034258]},"properties":{"natural":"tree"}},
{"type":"Feature","geometry":{"type":"Point","coordinates":[6.9435931,49.2035283]},"properties":{"natural":"tree"}},
{"type":"Feature","geometry":{"type":"Point","coordinates":[6.9435146,49.203415]},"properties":{"natural":"tree"}},
{"type":"Feature","geometry":{"type":"Point","coordinates":[6.9434196,49.2034829]},"properties":{"natural":"tree"}},
{"type":"Feature","geometry":{"type":"Point","coordinates":[6.943413,49.2035067]},"properties":{"natural":"tree"}},
{"type":"Feature","geometry":{"type":"Point","coordinates":[6.943402,49.2035456]},"properties":{"natural":"tree"}},
{"type":"Feature","geometry":{"type":"Point","coordinates":[6.9433821,49.2036589]},"properties":{"natural":"tree"}},
{"type":"Feature","geometry":{"type":"Point","coordinates":[6.9433909,49.2035853]},"properties":{"natural":"tree"}},
{"type":"Feature","geometry":{"type":"Point","coordinates":[6.9436715,49.2037102]},"properties":{"natural":"tree"}},
{"type":"Feature","geometry":{"type":"Point","coordinates":[6.9436914,49.203638]},"properties":{"natural":"tree"}},
{"type":"Feature","geometry":{"type":"Point","coordinates":[6.943709,49.2035731]},"properties":{"natural":"tree"}},
{"type":"Feature","geometry":{"type":"Point","coordinates":[6.943688,49.2037679]},"properties":{"natural":"tree"}},
{"type":"Feature","geometry":{"type":"Point","coordinates":[6.9437035,49.2037441]},"properties":{"natural":"tree"}},
{"type":"Feature","geometry":{"type":"Point","coordinates":[6.9437852,49.2036063]},"properties":{"natural":"tree"}},
{"type":"Feature","geometry":{"type":"Point","coordinates":[6.9441486,49.2031061]},"properties":{"natural":"tree"}},
{"type":"Feature","geometry":{"type":"Point","coordinates":[6.9441188,49.2032959]},"properties":{"natural":"tree"}},
{"type":"Feature","geometry":{"type":"Point","coordinates":[6.9442326,49.2032548]},"properties":{"natural":"tree"}},
{"type":"Feature","geometry":{"type":"Point","coordinates":[7.1187964,49.1458643]},"properties":{"natural":"tree"}},
{"type":"Feature","geometry":{"type":"Point","coordinates":[6.933336,49.1705286]},"properties":{"natural":"tree","source":"BDOrtho IGN"}},
{"type":"Feature","geometry":{"type":"Point","coordinates":[6.9332783,49.1704751]},"properties":{"natural":"tree","source":"BDOrtho IGN"}},
{"type":"Feature","geometry":{"type":"Point","coordinates":[6.9332307,49.1704278]},"properties":{"natural":"tree","source":"BDOrtho IGN"}},
{"type":"Feature","geometry":{"type":"Point","coordinates":[6.9326124,49.1701156]},"properties":{"natural":"tree","source":"BDOrtho IGN"}},
{"type":"Feature","geometry":{"type":"Point","coordinates":[6.9319171,49.1702147]},"properties":{"natural":"tree","source":"BDOrtho IGN"}},
{"type":"Feature","geometry":{"type":"Point","coordinates":[6.9321585,49.1700236]},"properties":{"natural":"tree","source":"BDOrtho IGN"}},
{"type":"Feature","geometry":{"type":"Point","coordinates":[6.9321464,49.1701156]},"properties":{"natural":"tree","source":"BDOrtho IGN"}},
{"type":"Feature","geometry":{"type":"Point","coordinates":[6.9321504,49.1702059]},"properties":{"natural":"tree","source":"BDOrtho IGN"}},
{"type":"Feature","geometry":{"type":"Point","coordinates":[6.9324133,49.1699249]},"properties":{"natural":"tree","source":"BDOrtho IGN"}},
{"type":"Feature","geometry":{"type":"Point","coordinates":[6.9323985,49.1699683]},"properties":{"natural":"tree","source":"BDOrtho IGN"}},
{"type":"Feature","geometry":{"type":"Point","coordinates":[6.9323871,49.1700117]},"properties":{"natural":"tree","source":"BDOrtho IGN"}},
{"type":"Feature","geometry":{"type":"Point","coordinates":[6.9323831,49.1700573]},"properties":{"natural":"tree","source":"BDOrtho IGN"}},
{"type":"Feature","geometry":{"type":"Point","coordinates":[6.9323811,49.170102]},"properties":{"natural":"tree","source":"BDOrtho IGN"}},
{"type":"Feature","geometry":{"type":"Point","coordinates":[6.9323724,49.1701459]},"properties":{"natural":"tree","source":"BDOrtho IGN"}},
{"type":"Feature","geometry":{"type":"Point","coordinates":[6.9323724,49.1701928]},"properties":{"natural":"tree","source":"BDOrtho IGN"}},
{"type":"Feature","geometry":{"type":"Point","coordinates":[6.9326419,49.1699801]},"properties":{"natural":"tree","source":"BDOrtho IGN"}},
{"type":"Feature","geometry":{"type":"Point","coordinates":[6.9326285,49.1700231]},"properties":{"natural":"tree","source":"BDOrtho IGN"}},
{"type":"Feature","geometry":{"type":"Point","coordinates":[6.9326151,49.1700718]},"properties":{"natural":"tree","source":"BDOrtho IGN"}},
{"type":"Feature","geometry":{"type":"Point","coordinates":[6.9326051,49.1701595]},"properties":{"natural":"tree","source":"BDOrtho IGN"}},
{"type":"Feature","geometry":{"type":"Point","coordinates":[6.932833,49.1701174]},"properties":{"natural":"tree","source":"BDOrtho IGN"}},
{"type":"Feature","geometry":{"type":"Point","coordinates":[6.9329209,49.1704037]},"properties":{"natural":"tree","source":"BDOrtho IGN"}},
{"type":"Feature","geometry":{"type":"Point","coordinates":[6.932945,49.1704541]},"properties":{"natural":"tree","source":"BDOrtho IGN"}},
{"type":"Feature","geometry":{"type":"Point","coordinates":[6.9329859,49.1705045]},"properties":{"natural":"tree","source":"BDOrtho IGN"}},
{"type":"Feature","geometry":{"type":"Point","coordinates":[6.9326527,49.1704203]},"properties":{"natural":"tree","source":"BDOrtho IGN"}},
{"type":"Feature","geometry":{"type":"Point","coordinates":[6.9326346,49.1703778]},"properties":{"natural":"tree","source":"BDOrtho IGN"}},
{"type":"Feature","geometry":{"type":"Point","coordinates":[6.9326232,49.1703361]},"properties":{"natural":"tree","source":"BDOrtho IGN"}},
{"type":"Feature","geometry":{"type":"Point","coordinates":[6.9323811,49.1703695]},"properties":{"natural":"tree","source":"BDOrtho IGN"}},
{"type":"Feature","geometry":{"type":"Point","coordinates":[6.9323898,49.1704164]},"properties":{"natural":"tree","source":"BDOrtho IGN"}},
{"type":"Feature","geometry":{"type":"Point","coordinates":[6.9321551,49.1703855]},"properties":{"natural":"tree","source":"BDOrtho IGN"}},
{"type":"Feature","geometry":{"type":"Point","coordinates":[6.9319452,49.1703728]},"properties":{"natural":"tree","source":"BDOrtho IGN"}},
{"type":"Feature","geometry":{"type":"Point","coordinates":[7.1037706,49.1486726]},"properties":{"description":"Steinkreuz mit Korpus auf Altarsockel","historic":"wayside_cross"}},
{"type":"Feature","geometry":{"type":"Point","coordinates":[7.0883682,49.1507272]},"properties":{"historic":"memorial","inscription":"ERIGÉ PAR LA FAMILLE DE JEAN KANY EN MEMOIRE LE LEUR FILS PIERRE KANY MORT PENDANT LA GUERRE 1914–18 LE 30.3.1915 ET EN SOUVENIR DE TOUS SES CAMARADES DE LA COMMUNE.","material":"stone","memorial":"bust","start_date":"1915"}},
{"type":"Feature","geometry":{"type":"Point","coordinates":[6.9636514,49.1705734]},"properties":{"hiking":"yes","information":"map","map_size":"site","tourism":"information"}},
{"type":"Feature","geometry":{"type":"Point","coordinates":[7.0419181,49.149656]},"properties":{"crossing":"informal"}},
{"type":"Feature","geometry":{"type":"Point","coordinates":[6.9185299,49.1964641]},"properties":{"historic":"wayside_cross"}},
{"type":"Feature","geometry":{"type":"Point","coordinates":[6.9153294,49.1947991]},"properties":{"historic":"wayside_cross"}},
{"type":"Feature","geometry":{"type":"Point","coordinates":[7.1118206,49.1470013]},"properties":{"natural":"tree"}},
{"type":"Feature","geometry":{"type":"Point","coordinates":[7.1121881,49.146975]},"properties":{"natural":"tree"}},
{"type":"Feature","geometry":{"type":"Point","coordinates":[7.1118883,49.1475816]},"properties":{"natural":"tree"}},
{"type":"Feature","geometry":{"type":"Point","coordinates":[7.1119178,49.1479798]},"properties":{"natural":"tree"}},
{"type":"Feature","geometry":{"type":"Point","coordinates":[7.1118722,49.1478307]},"properties":{"natural":"tree"}},
{"type":"Feature","geometry":{"type":"Point","coordinates":[7.1068613,49.1549876]},"properties":{"outlet":"direct","substance":"water"}},
{"type":"Feature","geometry":{"type":"Point","coordinates":[6.9046695,49.1882921]},"properties":{"name":"Pigeon Blanc","tourism":"hotel"}},
{"type":"Feature","geometry":{"type":"Point","coordinates":[6.9011867,49.1868633]},"properties":{"name":"Galerie Têt'de l'Art","tourism":"gallery"}},
{"type":"Feature","geometry":{"type":"Point","coordinates":[6.9157961,49.1810272]},"properties":{"leisure":"playground"}},
{"type":"Feature","geometry":{"type":"Point","coordinates":[6.899947,49.187544]},"properties":{"name":"DM Hotel","tourism":"hotel"}},
{"type":"Feature","geometry":{"type":"Point","coordinates":[7.0081796,49.1901564]},"properties":{"natural":"tree"}},
{"type":"Feature","geometry":{"type":"Point","coordinates":[6.9628671,49.1762794]},"properties":{"natural":"tree"}},
{"type":"Feature","geometry":{"type":"Point","coordinates":[6.9638461,49.1763986]},"properties":{"natural":"tree"}},
{"type":"Feature","geometry":{"type":"Point","coordinates":[7.0336693,49.1575142]},"properties":{"check_date":"2023-10-25","description":"SaarErlebnisLand","information":"map","tourism":"information"}},
{"type":"Feature","geometry":{"type":"Point","coordinates":[7.0034645,49.1576827]},"properties":{"format":"irregular","historic":"boundary_stone"}},
{"type":"Feature","geometry":{"type":"Point","coordinates":[6.9823614,49.1640379]},"properties":{"historic":"boundary_stone"}},
{"type":"Feature","geometry":{"type":"Point","coordinates":[6.9806769,49.1598512]},"properties":{"collection":"no","format":"squared_stone","format:top":"flat","height":"0.25","heritage":"no","historic":"boundary_stone"}},
{"type":"Feature","geometry":{"type":"Point","coordinates":[6.9811544,49.1593022]},"properties":{"collection":"no","format":"squared_stone","format:top":"flat","height":"0.3","heritage":"no","historic":"boundary_stone"}},
{"type":"Feature","geometry":{"type":"Point","coordinates":[6.9801579,49.1590557]},"properties":{"collection":"no","format":"squared_stone","format:top":"flat","height":"0.25","heritage":"no","historic":"boundary_stone"}},
{"type":"Feature","geometry":{"type":"Point","coordinates":[6.9796872,49.1568973]},"properties":{"collection":"no","heritage":"no","historic":"boundary_stone"}},
{"type":"Feature","geometry":{"type":"Point","coordinates":[6.9780618,49.1564781]},"properties":{"heritage":"no","historic":"wayside_cross","inscription":"Errichtet zur Ehre Gottes durch Joseph K??? u. Josephine Frisch (?) 1920","year":"1920"}},
{"type":"Feature","geometry":{"type":"Point","coordinates":[6.9738291,49.2044218]},"properties":{"format":"squared_stone","format:top":"flat","height":"0.5","historic":"boundary_stone","length":"0.25","material":"sandstone","width":"0.25"}},
{"type":"Feature","geometry":{"type":"Point","coordinates":[6.9718686,49.2045185]},"properties":{"format":"squared_stone","format:top":"rounded","height":"0.1","historic":"boundary_stone"}},
{"type":"Feature","geometry":{"type":"Point","coordinates":[7.0309656,49.1551567]},"properties":{"bench":"yes","leisure":"picnic_table","lit":"no","material":"wood"}},
{"type":"Feature","geometry":{"type":"Point","coordinates":[7.031183,49.1554207]},"properties":{"bench":"yes","leisure":"picnic_table","lit":"no","material":"wood"}},
{"type":"Feature","geometry":{"type":"Point","coordinates":[7.0311963,49.155458]},"properties":{"bench":"yes","leisure":"picnic_table","lit":"no","material":"wood"}},
{"type":"Feature","geometry":{"type":"Point","coordinates":[7.0155999,49.1607181]},"properties":{"natural":"tree"}},
{"type":"Feature","geometry":{"type":"Point","coordinates":[6.9013875,49.1499969]},"properties":{"description":"Metalkreuz mit Korpus auf Steinsockel","historic":"wayside_cross"}},
{"type":"Feature","geometry":{"type":"Point","coordinates":[6.9500649,49.1807601]},"properties":{"description":"Ringstand","historic":"yes","military":"bunker"}},
{"type":"Feature","geometry":{"type":"Point","coordinates":[7.0016576,49.1835026]},"properties":{"denomination":"catholic","historic":"wayside_cross","inscription":"INRI|1991|S. Margareta","material":"stone","religion":"christian","start_date":"1991","wikidata":"Q111596739","wikimedia_commons":"Category:S. Margareta Cross (Simbachtal)"}},
{"type":"Feature","geometry":{"type":"Point","coordinates":[6.896733,49.1865734]},"properties":{"artist_name":"L. R. Muller","historic":"memorial","memorial":"statue","name":"A nos mineurs","name:de":"Für unsere Bergleute","start_date":"1982","wikimedia_commons":"Category:Monument A nos mineurs Forbach"}},
{"type":"Feature","geometry":{"type":"Point","coordinates":[6.8959927,49.1863735]},"properties":{"natural":"tree"}},
{"type":"Feature","geometry":{"type":"Point","coordinates":[6.8961375,49.1862684]},"properties":{"natural":"tree"}},
{"type":"Feature","geometry":{"type":"Point","coordinates":[6.8954404,49.1859545]},"properties":{"natural":"tree"}},
{"type":"Feature","geometry":{"type":"Point","coordinates":[7.0389513,49.1519346]},"properties":{"historic":"wayside_cross"}},
{"type":"Feature","geometry":{"type":"Point","coordinates":[7.0349253,49.1575744]},"properties":{"leisure":"tanning_salon","name":"sun"}},
{"type":"Feature","geometry":{"type":"Point","coordinates":[6.9660129,49.1668654]},"properties":{"historic":"wayside_cross","name":"Monuments aux morts"}},
{"type":"Feature","geometry":{"type":"Point","coordinates":[6.9647442,49.1668032]},"properties":{"historic":"wayside_cross","name":"Grotte de Marie"}},
{"type":"Feature","geometry":{"type":"Point","coordinates":[6.9635347,49.170495]},"properties":{"historic":"memorial","memorial":"memorial","name":"Ancien wagon de la mine"}},
{"type":"Feature","geometry":{"type":"Point","coordinates":[6.9634247,49.1707862]},"properties":{"access":"yes","leisure":"playground","name":"Aire de jeux","surface":"asphalt"}},
{"type":"Feature","geometry":{"type":"Point","coordinates":[6.9646869,49.1688124]},"properties":{"historic":"memorial","name":"Monument aux morts"}},
{"type":"Feature","geometry":{"type":"Point","coordinates":[6.9670641,49.1628825]},"properties":{"historic":"memorial","memorial":"war_memorial","name":"Monument aux morts"}},
{"type":"Feature","geometry":{"type":"Point","coordinates":[6.9680427,49.1645526]},"properties":{"historic":"memorial","name":"Monument aux morts"}},
{"type":"Feature","geometry":{"type":"Point","coordinates":[6.9681415,49.1617937]},"properties":{"historic":"memorial","name":"Lavoir de Kerbach"}},
{"type":"Feature","geometry":{"type":"Point","coordinates":[6.9686078,49.1606726]},"properties":{"historic":"memorial","name":"Ancien Wagon de la Mine"}},
{"type":"Feature","geometry":{"type":"Point","coordinates":[6.9635035,49.1707694]},"properties":{"natural":"tree"}},
{"type":"Feature","geometry":{"type":"Point","coordinates":[6.9627578,49.171306]},"properties":{"natural":"tree"}},
{"type":"Feature","geometry":{"type":"Point","coordinates":[6.9627578,49.1712639]},"properties":{"natural":"tree"}},
{"type":"Feature","geometry":{"type":"Point","coordinates":[6.9627471,49.1712324]},"properties":{"natural":"tree"}},
{"type":"Feature","geometry":{"type":"Point","coordinates":[6.9627471,49.1711903]},"properties":{"natural":"tree"}},
{"type":"Feature","geometry":{"type":"Point","coordinates":[6.9627632,49.1711622]},"properties":{"natural":"tree"}},
{"type":"Feature","geometry":{"type":"Point","coordinates":[6.9627578,49.1711412]},"properties":{"natural":"tree"}},
{"type":"Feature","geometry":{"type":"Point","coordinates":[6.9634016,49.1709167]},"properties":{"natural":"tree"}},
{"type":"Feature","geometry":{"type":"Point","coordinates":[6.9631704,49.1708783]},"properties":{"natural":"tree"}},
{"type":"Feature","geometry":{"type":"Point","coordinates":[6.9632187,49.1708221]},"properties":{"natural":"tree"}},
{"type":"Feature","geometry":{"type":"Point","coordinates":[6.9638846,49.1707905]},"properties":{"natural":"tree"}},
{"type":"Feature","geometry":{"type":"Point","coordinates":[6.9638733,49.1707214]},"properties":{"natural":"tree"}},
{"type":"Feature","geometry":{"type":"Point","coordinates":[6.9638685,49.1706325]},"properties":{"natural":"tree"}},
{"type":"Feature","geometry":{"type":"Point","coordinates":[6.9638739,49.1705974]},"properties":{"natural":"tree"}},
{"type":"Feature","geometry":{"type":"Point","coordinates":[6.9638685,49.1705658]},"properties":{"natural":"tree"}},
{"type":"Feature","geometry":{"type":"Point","coordinates":[6.9638846,49.1704359]},"properties":{"natural":"tree"}},
{"type":"Feature","geometry":{"type":"Point","coordinates":[6.9639222,49.1703867]},"properties":{"natural":"tree"}},
{"type":"Feature","geometry":{"type":"Point","coordinates":[6.9650971,49.1674562]},"properties":{"leaf_type":"needleleaved","natural":"tree"}},
{"type":"Feature","geometry":{"type":"Point","coordinates":[6.9660989,49.167058]},"properties":{"natural":"tree"}},
{"type":"Feature","geometry":{"type":"Point","coordinates":[6.9660845,49.1670203]},"properties":{"natural":"tree"}},
{"type":"Feature","geometry":{"type":"Point","coordinates":[6.9650106,49.1674444]},"properties":{"natural":"tree"}},
{"type":"Feature","geometry":{"type":"Point","coordinates":[6.9649349,49.1672559]},"properties":{"leaf_type":"broadleaved","natural":"tree"}},
{"type":"Feature","geometry":{"type":"Point","coordinates":[6.9661736,49.1666643]},"properties":{"natural":"tree"}},
{"type":"Feature","geometry":{"type":"Point","coordinates":[6.9662153,49.1665885]},"properties":{"natural":"tree"}},
{"type":"Feature","geometry":{"type":"Point","coordinates":[6.9659092,49.1666279]},"properties":{"natural":"tree"}},
{"type":"Feature","geometry":{"type":"Point","coordinates":[6.9660205,49.1663884]},"properties":{"natural":"tree"}},
{"type":"Feature","geometry":{"type":"Point","coordinates":[6.9653573,49.1666037]},"properties":{"natural":"tree"}},
{"type":"Feature","geometry":{"type":"Point","coordinates":[6.9616775,49.1663836]},"properties":{"natural":"tree"}},
{"type":"Feature","geometry":{"type":"Point","coordinates":[6.9687551,49.1606939]},"properties":{"natural":"tree"}},
{"type":"Feature","geometry":{"type":"Point","coordinates":[6.968896,49.1602903]},"properties":{"natural":"tree"}},
{"type":"Feature","geometry":{"type":"Point","coordinates":[6.9689161,49.1602026]},"properties":{"natural":"tree"}},
{"type":"Feature","geometry":{"type":"Point","coordinates":[6.9689362,49.160128]},"properties":{"natural":"tree"}},
{"type":"Feature","geometry":{"type":"Point","coordinates":[6.9664192,49.1666243]},"properties":{"natural":"tree"}},
{"type":"Feature","geometry":{"type":"Point","coordinates":[6.9659881,49.1669164]},"properties":{"historic":"tomb","name":"Tombe historique","tomb":"tombstone"}},
{"type":"Feature","geometry":{"type":"Point","coordinates":[6.9659638,49.166897]},"properties":{"historic":"tomb","inscription":"Tombe historique","tomb":"tombstone"}},
{"type":"Feature","geometry":{"type":"Point","coordinates":[6.9659448,49.1668334]},"properties":{"natural":"tree"}},
{"type":"Feature","geometry":{"type":"Point","coordinates":[6.9627639,49.1717018]},"properties":{"historic":"memorial","material":"granite","memorial":"plaque","name":"Plaque commémorative du Record du monde du match de football le plus long"}},
{"type":"Feature","geometry":{"type":"Point","coordinates":[6.9657765,49.1650944]},"properties":{"natural":"tree"}},
{"type":"Feature","geometry":{"type":"Point","coordinates":[6.9657535,49.1650504]},"properties":{"natural":"tree"}},
{"type":"Feature","geometry":{"type":"Point","coordinates":[6.96574,49.1650076]},"properties":{"natural":"tree"}},
{"type":"Feature","geometry":{"type":"Point","coordinates":[6.9656977,49.1649648]},"properties":{"natural":"tree"}},
{"type":"Feature","geometry":{"type":"Point","coordinates":[6.9857965,49.2060782]},"properties":{"colour":"black","description:de":"Gedenkkreuz an einem Grab aus dem Deutsch-Französischen Krieg von 1870–1871","description:en":"Memorial cross at a grave from the franco-prussian war of 1870–1871","historic":"memorial","image":"File:20220913_Gedenkkreuz_1870_Saarbrücken_Stiftswald_St._Arnual_02.jpg","inscription":"Hier ruhen in Gott tapfere Krieger, sie starben den Heldentod am 6. Aug 1870.","material":"metal","memorial":"cross","memorial:conflict":"Franco-Prussian_War","note":"Gusseisernes Kreuz auf einem Sandsteinsockel (ohne Inschrift)","wikidata":"Q71721534","wikimedia_commons":"Category:Grave 8.6.1870 (Stiftswald Sankt Arnual)"}},
{"type":"Feature","geometry":{"type":"Point","coordinates":[6.9823345,49.1925693]},"properties":{"check_date":"2024-10-21","genus":"Malus","genus:de":"Apfelbaum","leaf_cycle":"deciduous","leaf_type":"broadleaved","natural":"tree"}},
{"type":"Feature","geometry":{"type":"Point","coordinates":[6.982202,49.1925914]},"properties":{"check_date":"2024-10-21","genus":"Pyrus","genus:de":"Birne","leaf_cycle":"deciduous","leaf_type":"broadleaved","natural":"tree"}},
{"type":"Feature","geometry":{"type":"Point","coordinates":[6.9847796,49.1920079]},"properties":{"check_date":"2024-10-21","genus":"Malus","genus:de":"Apfelbaum","leaf_cycle":"deciduous","leaf_type":"broadleaved","natural":"tree"}},
{"type":"Feature","geometry":{"type":"Point","coordinates":[6.9770155,49.191549]},"properties":{"check_date":"2024-10-21","genus":"Prunus","genus:de":"Kirschbaum","leaf_cycle":"deciduous","leaf_type":"broadleaved","natural":"tree"}},
{"type":"Feature","geometry":{"type":"Point","coordinates":[6.9768806,49.1918132]},"properties":{"leaf_cycle":"deciduous","leaf_type":"broadleaved","natural":"tree"}},
{"type":"Feature","geometry":{"type":"Point","coordinates":[6.908801,49.1821167]},"properties":{"camera:direction":"180","man_made":"surveillance","surveillance:type":"camera"}},
{"type":"Feature","geometry":{"type":"Point","coordinates":[6.9085845,49.1821174]},"properties":{"entrance":"yes"}},
{"type":"Feature","geometry":{"type":"Point","coordinates":[6.9089278,49.1821164]},"properties":{"entrance":"yes"}},
{"type":"Feature","geometry":{"type":"Point","coordinates":[6.9659425,49.1667081]},"properties":{"historic":"monument","name":"Memorial Jumelage Kerbach Saint-Laurent de Cognac"}},
{"type":"Feature","geometry":{"type":"Point","coordinates":[6.9647892,49.1676443]},"properties":{"natural":"tree"}},
{"type":"Feature","geometry":{"type":"Point","coordinates":[6.9653001,49.1674342]},"properties":{"historic":"memorial","material":"stone","memorial":"plaque","name":"Amitié Kerbach Saint-Laurent de Cognac"}},
{"type":"Feature","geometry":{"type":"Point","coordinates":[6.9200994,49.2026488]},"properties":{"historic":"memorial"}},
{"type":"Feature","geometry":{"type":"Point","coordinates":[6.933261,49.223607]},"properties":{"historic":"bomb_crater","noname":"yes"}},
{"type":"Feature","geometry":{"type":"Point","coordinates":[6.941221,49.219589]},"properties":{"historic":"bomb_crater","noname":"yes"}},
{"type":"Feature","geometry":{"type":"Point","coordinates":[6.939502,49.220695]},"properties":{"historic":"bomb_crater","noname":"yes"}},
{"type":"Feature","geometry":{"type":"Point","coordinates":[6.9376236,49.2224584]},"properties":{"backrest":"yes","bench":"yes","colour":"brown","covered":"no","leisure":"picnic_table","material":"wood"}},
{"type":"Feature","geometry":{"type":"Point","coordinates":[7.0352201,49.1558631]},"properties":{"natural":"tree"}},
{"type":"Feature","geometry":{"type":"Point","coordinates":[7.035165,49.1559337]},"properties":{"natural":"tree"}},
{"type":"Feature","geometry":{"type":"Point","coordinates":[7.0351268,49.1560094]},"properties":{"natural":"tree"}},
{"type":"Feature","geometry":{"type":"Point","coordinates":[7.0350785,49.1560939]},"properties":{"natural":"tree"}},
{"type":"Feature","geometry":{"type":"Point","coordinates":[6.903102,49.1827214]},"properties":{"leisure":"playground"}},
{"type":"Feature","geometry":{"type":"Point","coordinates":[7.1011727,49.154857]},"properties":{"board_type":"nature","information":"board","name":"La faune des milieux aquatiques","name:de":"Die Fauna in Gewässern","name:fr":"La faune des milieux aquatiques","tourism":"information"}},
{"type":"Feature","geometry":{"type":"Point","coordinates":[7.1023395,49.1550914]},"properties":{"information":"map","name":"Le sentier de découverte","name:de":"Der Erlebnispfad","name:fr":"Le sentier de découverte","tourism":"information"}},
{"type":"Feature","geometry":{"type":"Point","coordinates":[7.099625,49.1548344]},"properties":{"information":"map","name":"Le sentier de découverte","name:de":"Der Erlebnispfad","name:fr":"Le sentier de découverte","tourism":"information"}},
{"type":"Feature","geometry":{"type":"Point","coordinates":[7.1018661,49.154154]},"properties":{"information":"map","name":"Le sentier de découverte","name:de":"Der Erlebnispfad","name:fr":"Le sentier de découverte","tourism":"information"}},
{"type":"Feature","geometry":{"type":"Point","coordinates":[7.0985048,49.1540025]},"properties":{"check_date":"2024-10-04","covered":"no","leisure":"picnic_table","material":"wood"}},
{"type":"Feature","geometry":{"type":"Point","coordinates":[7.0995538,49.1540338]},"properties":{"board_type":"nature","information":"board","name":"La Blies, une rivière et des hommes","name:de":"Die Blies, ein Fluss und Menschen","name:fr":"La Blies, une rivière et des hommes","tourism":"information"}},
{"type":"Feature","geometry":{"type":"Point","coordinates":[7.0997953,49.1554129]},"properties":{"board_type":"nature","information":"board","name":"La Ripsylve - Auwald","tourism":"information"}},
{"type":"Feature","geometry":{"type":"Point","coordinates":[7.0985786,49.1540204]},"properties":{"check_date":"2024-10-04","covered":"no","leisure":"picnic_table","material":"wood"}},
{"type":"Feature","geometry":{"type":"Point","coordinates":[7.0998629,49.154854]},"properties":{"covered":"no","leisure":"picnic_table","material":"wood"}},
{"type":"Feature","geometry":{"type":"Point","coordinates":[7.1028491,49.1550626]},"properties":{"tourism":"picnic_site"}},
{"type":"Feature","geometry":{"type":"Point","coordinates":[7.0997802,49.1548819]},"properties":{"covered":"no","leisure":"picnic_table","material":"wood"}},
{"type":"Feature","geometry":{"type":"Point","coordinates":[7.1018838,49.1541789]},"properties":{"check_date":"2024-10-04","information":"map","map_size":"region","map_type":"street","name":"Arboretum Paysage de la Blies","tourism":"information"}},
{"type":"Feature","geometry":{"type":"Point","coordinates":[6.9600891,49.2325842]},"properties":{"fixme":"Ist/bleibt die weg nach Abschluss der Bauarbeiten?","historic":"memorial","inscription":"Auf dem Gebiet der Stadt Saarbrücken befanden sich während des Zweiten Weltkriegs über 50 Lager zur Unterbringung tausender ausländischer Zwangsarbeiterinnen und Zwangsarbeiter, die in Saarbrücker Betrieben eingesetzt wurden. (...)","inscription:2":"(...) Stellvertretend für alle Lagerstandorte wird hier an die Leiden der Zwangsarbeiterinnen und Zwangsarbeiter erinnert. Im Jahr 1950 wurde auf einem Teil des ehemaligen Lagerareals das Messegelände errichtet.","memorial":"plaque","support":"wall"}},
{"type":"Feature","geometry":{"type":"Point","coordinates":[7.1134652,49.1522955]},"properties":{"backrest":"yes","bin":"yes","covered":"no","leisure":"picnic_table"}},
{"type":"Feature","geometry":{"type":"Point","coordinates":[7.0283308,49.1674303]},"properties":{"natural":"tree"}},
{"type":"Feature","geometry":{"type":"Point","coordinates":[6.9698345,49.193097]},"properties":{"historic":"memorial","memorial":"war_memorial","name":"Memoire de Charles Auguste de Beurmann","wikidata":"Q98640367","wikimedia_commons":"Category:Memoire de Charles Auguste de Beurmann"}},
{"type":"Feature","geometry":{"type":"Point","coordinates":[6.9596484,49.205471]},"properties":{"denotation":"urban","leaf_cycle":"evergreen","leaf_type":"needleleaved","natural":"tree"}},
{"type":"Feature","geometry":{"type":"Point","coordinates":[7.0292403,49.1531126]},"properties":{"barrier":"gate","bicycle":"yes","foot":"yes","horse":"no","motor_vehicle":"no","opening_hours":"May-Sep Mo-Su 08:30-21:00; Oct-Apr Mo-Su 08:30-17:00"}},
{"type":"Feature","geometry":{"type":"Point","coordinates":[6.9652592,49.2073374]},"properties":{"denotation":"urban","genus":"Prunus","genus:de":"Kirschbaum","leaf_cycle":"deciduous","leaf_type":"broadleaved","natural":"tree"}},
{"type":"Feature","geometry":{"type":"Point","coordinates":[6.9653335,49.2073583]},"properties":{"check_date":"2022-12-10","denotation":"urban","genus":"Tilia","genus:de":"Linde","leaf_cycle":"deciduous","leaf_type":"broadleaved","natural":"tree"}},
{"type":"Feature","geometry":{"type":"Point","coordinates":[6.9636556,49.2063481]},"properties":{"denotation":"urban","leaf_cycle":"deciduous","leaf_type":"broadleaved","natural":"tree"}},
{"type":"Feature","geometry":{"type":"Point","coordinates":[6.9642913,49.2066771]},"properties":{"check_date":"2022-12-10","denotation":"urban","genus":"Platanus","genus:de":"Platane","leaf_cycle":"deciduous","leaf_type":"broadleaved","natural":"tree"}},
{"type":"Feature","geometry":{"type":"Point","coordinates":[6.9672677,49.2078366]},"properties":{"check_date":"2021-07-05","denotation":"urban","genus":"Platanus","genus:de":"Platane","leaf_cycle":"deciduous","leaf_type":"broadleaved","natural":"tree"}},
{"type":"Feature","geometry":{"type":"Point","coordinates":[6.9670416,49.2077194]},"properties":{"check_date":"2021-07-05","denotation":"urban","genus":"Platanus","genus:de":"Platane","leaf_cycle":"deciduous","leaf_type":"broadleaved","natural":"tree"}},
{"type":"Feature","geometry":{"type":"Point","coordinates":[6.9674838,49.2079487]},"properties":{"check_date":"2021-07-05","denotation":"urban","genus":"Platanus","genus:de":"Platane","leaf_cycle":"deciduous","leaf_type":"broadleaved","natural":"tree"}},
{"type":"Feature","geometry":{"type":"Point","coordinates":[6.9676852,49.2080532]},"properties":{"check_date":"2021-07-05","denotation":"urban","genus":"Platanus","genus:de":"Platane","leaf_cycle":"deciduous","leaf_type":"broadleaved","natural":"tree"}},
{"type":"Feature","geometry":{"type":"Point","coordinates":[6.9685829,49.2085131]},"properties":{"check_date":"2021-07-05","denotation":"urban","genus":"Acer","genus:de":"Ahorn","leaf_cycle":"deciduous","leaf_type":"broadleaved","natural":"tree"}},
{"type":"Feature","geometry":{"type":"Point","coordinates":[6.9683389,49.2083922]},"properties":{"check_date":"2021-07-05","denotation":"urban","genus":"Platanus","genus:de":"Platane","leaf_cycle":"deciduous","leaf_type":"broadleaved","natural":"tree"}},
{"type":"Feature","geometry":{"type":"Point","coordinates":[6.9681493,49.2082939]},"properties":{"check_date":"2021-07-05","denotation":"urban","genus":"Platanus","genus:de":"Platane","leaf_cycle":"deciduous","leaf_type":"broadleaved","natural":"tree"}},
{"type":"Feature","geometry":{"type":"Point","coordinates":[6.9679245,49.2081773]},"properties":{"check_date":"2021-07-05","denotation":"urban","genus":"Platanus","genus:de":"Platane","leaf_cycle":"deciduous","leaf_type":"broadleaved","natural":"tree"}},
{"type":"Feature","geometry":{"type":"Point","coordinates":[6.9668723,49.2076321]},"properties":{"check_date":"2021-07-05","denotation":"urban","genus":"Platanus","genus:de":"Platane","leaf_cycle":"deciduous","leaf_type":"broadleaved","natural":"tree"}},
{"type":"Feature","geometry":{"type":"Point","coordinates":[6.9659119,49.207825]},"properties":{"check_date":"2021-07-05","denotation":"urban","genus":"Tilia","genus:de":"Linde","leaf_cycle":"deciduous","leaf_type":"broadleaved","natural":"tree"}},
{"type":"Feature","geometry":{"type":"Point","coordinates":[6.9656516,49.2077726]},"properties":{"check_date":"2021-07-05","denotation":"urban","genus":"Tilia","genus:de":"Linde","leaf_cycle":"deciduous","leaf_type":"broadleaved","natural":"tree"}},
{"type":"Feature","geometry":{"type":"Point","coordinates":[6.9680844,49.2084447]},"properties":{"check_date":"2021-07-05","denotation":"urban","genus":"Acer","genus:de":"Ahorn","leaf_cycle":"deciduous","leaf_type":"broadleaved","natural":"tree"}},
{"type":"Feature","geometry":{"type":"Point","coordinates":[6.9671031,49.2082463]},"properties":{"check_date":"2021-07-05","denotation":"urban","genus":"Platanus","genus:de":"Platane","leaf_cycle":"deciduous","leaf_type":"broadleaved","natural":"tree"}},
{"type":"Feature","geometry":{"type":"Point","coordinates":[6.966741,49.2081983]},"properties":{"check_date":"2021-07-05","denotation":"urban","genus":"Platanus","genus:de":"Platane","leaf_cycle":"deciduous","leaf_type":"broadleaved","natural":"tree"}},
{"type":"Feature","geometry":{"type":"Point","coordinates":[6.9683888,49.2086687]},"properties":{"denotation":"urban","leaf_cycle":"deciduous","leaf_type":"broadleaved","natural":"tree"}},
{"type":"Feature","geometry":{"type":"Point","coordinates":[6.9748819,49.2098599]},"properties":{"colour":"white","guide_type":"destination;intermediary","hiking":"yes","information":"guidepost","inscription":"Spicheren 1,5 km|St. Arnual 8 km;Gersweiler 8 km|Burbach 10 km","support":"street_lamp","tourism":"information"}},
{"type":"Feature","geometry":{"type":"Point","coordinates":[6.9715295,49.2090021]},"properties":{"description:de":"Station 3 des „Erinnerungswegs“ vom ehemaligen Konzentrationslager der Neuen Bremm zum Kreuz des Souvenir Français auf den Spicherer Höhen (eingeweiht am 8.5.1985). Messingtafel an einer Holzstele mit Texten (Auszug aus einer Friedens-Charta).","description:fr":"Extrait de la Charte de la Paix, échangée sur la frontière entre les habitants de Spicherern et les habitants de Saarbrücken, le 8 mai 1985.","historic":"memorial","memorial":"plaque","name":"Souvenir et avenir a la frontière Station 3","name:de":"Erinnerungsarbeit an der Grenze Station 3","start_date":"1985-05-08"}},
{"type":"Feature","geometry":{"type":"Point","coordinates":[6.9539869,49.1914183]},"properties":{"leaf_cycle":"deciduous","leaf_type":"broadleaved","natural":"tree"}},
{"type":"Feature","geometry":{"type":"Point","coordinates":[6.9548612,49.1919753]},"properties":{"leaf_cycle":"deciduous","leaf_type":"broadleaved","natural":"tree"}},
{"type":"Feature","geometry":{"type":"Point","coordinates":[6.9526605,49.1910188]},"properties":{"leaf_cycle":"deciduous","leaf_type":"broadleaved","natural":"tree"}},
{"type":"Feature","geometry":{"type":"Point","coordinates":[6.9544893,49.1906365]},"properties":{"leaf_cycle":"deciduous","leaf_type":"broadleaved","natural":"tree"}},
{"type":"Feature","geometry":{"type":"Point","coordinates":[6.9540862,49.1908729]},"properties":{"leaf_cycle":"deciduous","leaf_type":"broadleaved","natural":"tree"}},
{"type":"Feature","geometry":{"type":"Point","coordinates":[6.9542193,49.1911819]},"properties":{"leaf_cycle":"deciduous","leaf_type":"broadleaved","natural":"tree"}},
{"type":"Feature","geometry":{"type":"Point","coordinates":[6.954572,49.1908987]},"properties":{"leaf_cycle":"deciduous","leaf_type":"broadleaved","natural":"tree"}},
{"type":"Feature","geometry":{"type":"Point","coordinates":[6.9613864,49.2050541]},"properties":{"description":"Station 2 des „Erinnerungswegs“ vom ehemaligen Konzentrationslager der Neuen Bremm zum Kreuz des Souvenir Français auf den Spicherer Höhen (eingeweiht am 8.5.1985). Text aus einem Brief einer Mutter, während der Deportation aus dem Zug geworfen.","description:fr":"Texte d'une lettre jetée du train de déportation par une mère","historic":"memorial","memorial":"plaque","name":"Erinnerungsarbeit an der Grenze","name:fr":"Souvenir et avenir a la frontière Station 2","note":"Messingtafel an einer Holzstele mit einem Text in Deutsch und Französisch","start_date":"1985-05-08"}},
{"type":"Feature","geometry":{"type":"Point","coordinates":[7.0294905,49.1597215]},"properties":{"historic":"wayside_cross"}},
{"type":"Feature","geometry":{"type":"Point","coordinates":[7.0338539,49.1565231]},"properties":{"denotation":"urban","natural":"tree"}},
{"type":"Feature","geometry":{"type":"Point","coordinates":[7.0338193,49.1563342]},"properties":{"denotation":"urban","natural":"tree"}},
{"type":"Feature","geometry":{"type":"Point","coordinates":[7.0336612,49.1562744]},"properties":{"denotation":"urban","natural":"tree"}},
{"type":"Feature","geometry":{"type":"Point","coordinates":[7.0336464,49.1564553]},"properties":{"denotation":"urban","natural":"tree"}},
{"type":"Feature","geometry":{"type":"Point","coordinates":[6.9760705,49.2037032]},"properties":{"board:title":"L'arbte mort ou la seconde vie d'un arbre","board:title:de":"Der tote Baum oder das zweite Leben eines Baumes","board_type":"nature","information":"board","tourism":"information"}},
{"type":"Feature","geometry":{"type":"Point","coordinates":[6.9751812,49.2037371]},"properties":{"board:title":"Le bousier","board:title:de":"Die Mistkäfer","board_type":"nature","information":"board","tourism":"information"}},
{"type":"Feature","geometry":{"type":"Point","coordinates":[6.9752968,49.2031826]},"properties":{"board:title":"La hêtraie","board:title:de":"Die Buche","board_type":"plants","information":"board","tourism":"information"}},
{"type":"Feature","geometry":{"type":"Point","coordinates":[7.0824704,49.1487781]},"properties":{"historic":"memorial","material":"stone","memorial":"statue","name":"St-Quirin"}},
{"type":"Feature","geometry":{"type":"Point","coordinates":[7.1026725,49.1561334]},"properties":{"door":"hinged","door:wings":"1","entrance":"yes","step_count":"4","wheelchair":"no","wheelchair:description":"4 Stufen bis zur Tür"}},
{"type":"Feature","geometry":{"type":"Point","coordinates":[7.1022767,49.1561679]},"properties":{"access":"customers","door":"hinged","door:wings":"2","entrance":"yes","wheelchair":"yes"}},
{"type":"Feature","geometry":{"type":"Point","coordinates":[7.0929814,49.1536942]},"properties":{"leaf_cycle":"deciduous","leaf_type":"broadleaved","natural":"tree"}},
{"type":"Feature","geometry":{"type":"Point","coordinates":[7.0308973,49.1552272]},"properties":{"leisure":"picnic_table"}},
{"type":"Feature","geometry":{"type":"Point","coordinates":[7.0090475,49.1941408]},"properties":{"historic":"boundary_stone","name":"5"}},
{"type":"Feature","geometry":{"type":"Point","coordinates":[7.0092464,49.193369]},"properties":{"historic":"boundary_stone","name":"6"}},
{"type":"Feature","geometry":{"type":"Point","coordinates":[6.8992132,49.1782872]},"properties":{"addr:city":"Forbach","addr:housenumber":"70","addr:postcode":"57600","addr:street":"Rue Félix Barth","brand":"Mercure","brand:wikidata":"Q1709809","brand:wikipedia":"en:Mercure (hotel)","contact:email":"H1976@accor.com","internet_access":"wlan","name":"Mercure","phone":"+33387870606","tourism":"hotel","website":"https://all.accor.com/hotel/1976/index.fr.shtml"}},
{"type":"Feature","geometry":{"type":"Point","coordinates":[7.106467,49.154973]},"properties":{"description":"Only for canoes and kayaks.","fee":"no","leisure":"slipway","whitewater":"put_in;egress"}},
{"type":"Feature","geometry":{"type":"Point","coordinates":[6.9671242,49.2074662]},"properties":{"access":"private","door":"hinged","door:wings":"2","entrance":"yes","ramp":"no","step_count":"1","wheelchair":"no","wheelchair:description":"1 hohe Stufe"}},
{"type":"Feature","geometry":{"type":"Point","coordinates":[6.967139,49.2074921]},"properties":{"access":"private","door":"hinged","door:wings":"2","entrance":"yes","ramp":"no","step_count":"1","wheelchair":"no","wheelchair:description":"1 hohe Stufe"}},
{"type":"Feature","geometry":{"type":"Point","coordinates":[6.9663927,49.2065755]},"properties":{"format":"squared_stone","format:top":"flat","height":"0.9","historic":"boundary_stone","inscription":"D/1830/F/N. 11","length":"0.38","material":"sandstone","note":"Steht leicht schief. 2022-12-10","start_date":"1830","width":"0.38"}},
{"type":"Feature","geometry":{"type":"Point","coordinates":[6.9778023,49.208592]},