{"type":"FeatureCollection","features":[
{"type":"Feature","geometry":{"type":"Point","coordinates":[6.5294056,44.0679372]},"properties":{"alt_name":"Montagne de Cordeil;Montagne de Cordeuil","ele":"2115","name":"Montagne de Cordœil","natural":"peak","wikidata":"Q3322276","wikipedia":"fr:Montagne de Cordœil"}},
{"type":"Feature","geometry":{"type":"Point","coordinates":[6.5902138,44.0210876]},"properties":{"ele":"1996","name":"Puy de Rent","natural":"peak","ref:refuges.info":"1485","wikidata":"Q16802229"}},
{"type":"Feature","geometry":{"type":"Point","coordinates":[6.6526287,44.1871753]},"properties":{"information":"map","name":"Site nordique de Ratery","nordic":"yes","tourism":"information"}},
{"type":"Feature","geometry":{"type":"Point","coordinates":[6.4441972,44.0071745]},"properties":{"ele":"1225","mountain_pass":"yes","name":"Col du Castellet","natural":"saddle"}},
{"type":"Feature","geometry":{"type":"Point","coordinates":[6.4237105,44.2044821]},"properties":{"source":"cadastre-dgi-fr source : Direction Générale des Impôts - Cadastre ; mise à jour : 2009"}},
{"type":"Feature","geometry":{"type":"Point","coordinates":[6.4268125,44.0543709]},"properties":{"ele":"1230","mountain_pass":"yes","name":"Col du Défens","natural":"saddle"}},
{"type":"Feature","geometry":{"type":"Point","coordinates":[6.4435835,44.0780486]},"properties":{"ele":"1387","mountain_pass":"yes","name":"Col de Séoune","natural":"saddle"}},
{"type":"Feature","geometry":{"type":"Point","coordinates":[6.4658409,44.1619221]},"properties":{"historic":"wayside_shrine","religion":"christian"}},
{"type":"Feature","geometry":{"type":"Point","coordinates":[6.6393751,44.0858068]},"properties":{"ele":"2157","name":"Le Courradour","natural":"peak"}},
{"type":"Feature","geometry":{"type":"Point","coordinates":[6.6170025,44.0679084]},"properties":{"historic":"memorial","memorial":"war_memorial","name":"Monument aux Morts"}},
{"type":"Feature","geometry":{"type":"Point","coordinates":[6.6230501,44.0650913]},"properties":{"natural":"spring"}},
{"type":"Feature","geometry":{"type":"Point","coordinates":[6.6134511,44.0686939]},"properties":{"tourism":"viewpoint"}},
{"type":"Feature","geometry":{"type":"Point","coordinates":[6.6136183,44.0689555]},"properties":{"tourism":"artwork"}},
{"type":"Feature","geometry":{"type":"Point","coordinates":[6.6136242,44.0690926]},"properties":{"historic":"wayside_cross"}},
{"type":"Feature","geometry":{"type":"Point","coordinates":[6.6393673,44.0857982]},"properties":{"historic":"wayside_cross"}},
{"type":"Feature","geometry":{"type":"Point","coordinates":[6.6002627,44.0456043]},"properties":{"ele":"1540","name":"Montruvel","natural":"peak"}},
{"type":"Feature","geometry":{"type":"Point","coordinates":[6.5095146,44.0676607]},"properties":{"alt_name":"Le Petit Cordeil;Le Petit Cordeuil","ele":"1780","name":"Le Petit Cordœil","natural":"peak"}},
{"type":"Feature","geometry":{"type":"Point","coordinates":[6.5292497,44.0116209]},"properties":{"ele":"1770","name":"Sommet de Maurel","natural":"peak","wikidata":"Q3322281"}},
{"type":"Feature","geometry":{"type":"Point","coordinates":[6.4492108,44.072542]},"properties":{"ele":"1694","name":"Sommet de Séoune","natural":"peak"}},
{"type":"Feature","geometry":{"type":"Point","coordinates":[6.6329008,44.0603446]},"properties":{"name":"Source de la Vaïre","natural":"spring"}},
{"type":"Feature","geometry":{"type":"Point","coordinates":[6.489524,44.162536]},"properties":{"ele":"1901","mountain_pass":"yes","name":"Col de Lachen","natural":"saddle"}},
{"type":"Feature","geometry":{"type":"Point","coordinates":[6.5985619,44.215464]},"properties":{"ele":"2426","name":"L'Autapie","natural":"peak"}},
{"type":"Feature","geometry":{"type":"Point","coordinates":[6.6274363,44.1808548]},"properties":{"information":"office","name":"Office du Tourisme - Parc National du Mercantour","opening_hours":"Mo-Sa 09:00-12:00,14:00-18:00; Su,PH 09:30-12:30,14:00-18:00","tourism":"information"}},
{"type":"Feature","geometry":{"type":"Point","coordinates":[6.6293777,44.1830427]},"properties":{"historic":"wayside_cross"}},
{"type":"Feature","geometry":{"type":"Point","coordinates":[6.6285847,44.1831356]},"properties":{"tourism":"viewpoint"}},
{"type":"Feature","geometry":{"type":"Point","coordinates":[6.630252,44.18358]},"properties":{"historic":"wayside_shrine"}},
{"type":"Feature","geometry":{"type":"Point","coordinates":[6.6273739,44.1820408]},"properties":{"barrier":"sally_port","historic":"city_gate","name":"Porte de Savoie"}},
{"type":"Feature","geometry":{"type":"Point","coordinates":[6.6260952,44.1816847]},"properties":{"addr:street":"Rue Saint-Joseph","check_date":"2024-05-09","email":"gite.gassendi@gmail.com","name":"Caserne de Gassendi","note":"c'est une ancienne caserne, devenue gite d'étape","operator":"Christelle et Eric Dini","phone":"+33 9 64 48 07 04","tourism":"hostel"}},
{"type":"Feature","geometry":{"type":"Point","coordinates":[6.6270963,44.1809877]},"properties":{"barrier":"sally_port","foot":"yes","historic":"city_gate","name":"Porte des Gracis"}},
{"type":"Feature","geometry":{"type":"Point","coordinates":[6.6446067,44.1215222]},"properties":{"natural":"spring"}},
{"type":"Feature","geometry":{"type":"Point","coordinates":[6.6256802,44.1806478]},"properties":{"addr:street":"Place de France","contact:email":"kfelefrance@gmail.com","contact:phone":"+33 4 92 83 42 93","contact:website":"http://www.hotel-lefrance-colmars.com/","email":"kfelefrance@gmail.com","name":"Le France","phone":"+33 4 92 83 42 93","stars":"2","tourism":"hotel","url":"http://www.hotel-lefrance-colmars.com/","website":"http://www.hotel-lefrance-colmars.com/"}},
{"type":"Feature","geometry":{"type":"Point","coordinates":[6.5027117,44.0904473]},"properties":{"name":"La Ferme du Villard","tourism":"guest_house"}},
{"type":"Feature","geometry":{"type":"Point","coordinates":[6.6357607,44.1447973]},"properties":{"ele":"2432","name":"Le Laupon","natural":"peak"}},
{"type":"Feature","geometry":{"type":"Point","coordinates":[6.4238144,44.1270058]},"properties":{"ele":"2323","name":"Cheval Blanc","natural":"peak","wikidata":"Q3322316","wikipedia":"fr:Montagne du Cheval Blanc"}},
{"type":"Feature","geometry":{"type":"Point","coordinates":[6.4732951,44.1414003]},"properties":{"ele":"1869","mountain_pass":"yes","name":"Col de Talon","natural":"saddle"}},
{"type":"Feature","geometry":{"type":"Point","coordinates":[6.5171358,44.1781354]},"properties":{"ele":"2034","mountain_pass":"yes","name":"Col de Chalufy","natural":"saddle"}},
{"type":"Feature","geometry":{"type":"Point","coordinates":[6.5078211,44.1612394]},"properties":{"beds":"3","capacity":"15","description":"2021-03 : Table, bancs. Bat-flanc sur deux niveaux, quelques matelas. Scie, hache, bidons pour l'eau, bois.","ele":"1698","fireplace":"no","name":"Refuge de Boules","ref:refuges.info":"1481","stove":"yes","tourism":"wilderness_hut"}},
{"type":"Feature","geometry":{"type":"Point","coordinates":[6.5330131,44.1620482]},"properties":{"information":"guidepost","tourism":"information"}},
{"type":"Feature","geometry":{"type":"Point","coordinates":[6.5079262,44.1613149]},"properties":{"hiking":"yes","information":"guidepost","mtb":"yes","name":"Refuge de Boules","operator":"Communauté de communes Alpes Provence Verdon","ref":"Thorame Basse 13","source":"PDIPR 04","tourism":"information"}},
{"type":"Feature","geometry":{"type":"Point","coordinates":[6.6267632,44.0534411]},"properties":{"name":"Grotte du Cul de Boeuf","natural":"cave_entrance","wikidata":"Q48754143","wikipedia":"fr:Grotte du Cul de Bœuf"}},
{"type":"Feature","geometry":{"type":"Point","coordinates":[6.6324563,44.0214194]},"properties":{"name":"Trou Miette","natural":"cave_entrance","wikidata":"Q48755749","wikipedia":"fr:Trou Miette"}},
{"type":"Feature","geometry":{"type":"Point","coordinates":[6.6258357,44.0331661]},"properties":{"name":"Grotte du Trou-Madame","natural":"cave_entrance","wikidata":"Q48755993","wikipedia":"fr:Grotte du Trou-Madame"}},
{"type":"Feature","geometry":{"type":"Point","coordinates":[6.6103716,44.0755983]},"properties":{"name":"Grotte de la Graou","natural":"cave_entrance"}},
{"type":"Feature","geometry":{"type":"Point","coordinates":[6.4361731,44.1090603]},"properties":{"description":"2020-12: Attention, peut être à sec en automne ! il est recommandé de prendre des pastilles de purification, etc.","name":"Source du Cheval Blanc","natural":"spring","ref:refuges.info":"7365"}},
{"type":"Feature","geometry":{"type":"Point","coordinates":[6.5204905,44.0466837]},"properties":{"name":"Grottes d'Argens","natural":"cave_entrance"}},
{"type":"Feature","geometry":{"type":"Point","coordinates":[6.5538248,44.0966971]},"properties":{"leisure":"playground","tourism":"picnic_site"}},
{"type":"Feature","geometry":{"type":"Point","coordinates":[6.5065772,44.0726057]},"properties":{"tourism":"picnic_site"}},
{"type":"Feature","geometry":{"type":"Point","coordinates":[6.5914478,44.1654215]},"properties":{"ele":"1668","name":"Croix du Puy","tourism":"viewpoint"}},
{"type":"Feature","geometry":{"type":"Point","coordinates":[6.6290675,44.0323611]},"properties":{"name":"Pertuis de Méailles","natural":"cave_entrance","wikidata":"Q48755803","wikipedia":"fr:Pertuis de Méailles"}},
{"type":"Feature","geometry":{"type":"Point","coordinates":[6.6276277,44.182115]},"properties":{"hiking":"yes","information":"guidepost","name":"Porte de Savoie","operator":"Communauté de communes Alpes Provence Verdon","ref":"Colmars 30","source":"PDIPR 04","tourism":"information"}},
{"type":"Feature","geometry":{"type":"Point","coordinates":[6.6302619,44.1835187]},"properties":{"hiking":"yes","information":"guidepost","tourism":"information"}},
{"type":"Feature","geometry":{"type":"Point","coordinates":[6.6526819,44.1871831]},"properties":{"ele":"1680","hiking":"yes","information":"guidepost","name":"Ratery","tourism":"information"}},
{"type":"Feature","geometry":{"type":"Point","coordinates":[6.6215868,44.1385941]},"properties":{"ele":"2147","name":"Le Couguyon","natural":"peak"}},
{"type":"Feature","geometry":{"type":"Point","coordinates":[6.6215886,44.1386285]},"properties":{"historic":"wayside_cross","name":"Le Couguyon"}},
{"type":"Feature","geometry":{"type":"Point","coordinates":[6.6062328,44.1671029]},"properties":{"addr:street":"Quartier le Pradas","amenity":"restaurant","cuisine":"french","name":"Le Martagon","phone":"+33 4 92 83 14 26","tourism":"hotel","website":"https://www.le-martagon.com/"}},
{"type":"Feature","geometry":{"type":"Point","coordinates":[6.5980585,44.1525844]},"properties":{"tourism":"picnic_site"}},
{"type":"Feature","geometry":{"type":"Point","coordinates":[6.5645141,44.0416322]},"properties":{"information":"board","name":"Horaires des transports","tourism":"information"}},
{"type":"Feature","geometry":{"type":"Point","coordinates":[6.6279989,44.0236411]},"properties":{"name":"Exposition","tourism":"museum"}},
{"type":"Feature","geometry":{"type":"Point","coordinates":[6.5329086,44.2009089]},"properties":{"ele":"2511","name":"Le Mourre de Simance","natural":"peak"}},
{"type":"Feature","geometry":{"type":"Point","coordinates":[6.5356764,44.1880923]},"properties":{"ele":"2361","name":"Montagne de Vachière","natural":"peak"}},
{"type":"Feature","geometry":{"type":"Point","coordinates":[6.5368407,44.210361]},"properties":{"ele":"2559","name":"Sangraure","natural":"peak"}},
{"type":"Feature","geometry":{"type":"Point","coordinates":[6.526777,44.1787398]},"properties":{"ele":"2401","name":"Sommet de Denjuan","natural":"peak"}},
{"type":"Feature","geometry":{"type":"Point","coordinates":[6.5004206,44.1736085]},"properties":{"ele":"2391","name":"Montagne de Boules","natural":"peak"}},
{"type":"Feature","geometry":{"type":"Point","coordinates":[6.4598935,44.1815424]},"properties":{"ele":"2123","name":"Montagne du Carton","natural":"peak"}},
{"type":"Feature","geometry":{"type":"Point","coordinates":[6.6277785,44.0237867]},"properties":{"leisure":"picnic_table"}},
{"type":"Feature","geometry":{"type":"Point","coordinates":[6.6277528,44.0237951]},"properties":{"leisure":"picnic_table"}},
{"type":"Feature","geometry":{"type":"Point","coordinates":[6.4949259,44.2005959]},"properties":{"ele":"2099","name":"Mourre Gros","natural":"peak"}},
{"type":"Feature","geometry":{"type":"Point","coordinates":[6.5072954,44.1963558]},"properties":{"ele":"2083","name":"Tête de l'Adrech de Vachière","natural":"peak"}},
{"type":"Feature","geometry":{"type":"Point","coordinates":[6.5039802,44.2159943]},"properties":{"ele":"2057","name":"Montagne de Mourréen","natural":"peak"}},
{"type":"Feature","geometry":{"type":"Point","coordinates":[6.5931728,44.0469604]},"properties":{"amenity":"post_box"}},
{"type":"Feature","geometry":{"type":"Point","coordinates":[6.6403033,44.1794634]},"properties":{"name":"La Colletta","tourism":"viewpoint"}},
{"type":"Feature","geometry":{"type":"Point","coordinates":[6.6207078,44.2424501]},"properties":{"ford":"yes"}},
{"type":"Feature","geometry":{"type":"Point","coordinates":[6.4606835,44.0475754]},"properties":{"ele":"1742","name":"Sommet de Meunier","natural":"peak"}},
{"type":"Feature","geometry":{"type":"Point","coordinates":[6.5560756,44.1949225]},"properties":{"natural":"spring"}},
{"type":"Feature","geometry":{"type":"Point","coordinates":[6.5761964,44.0615056]},"properties":{"name":"Grotte de Font Gaillarde","natural":"cave_entrance","wikidata":"Q48755041","wikipedia":"fr:Système de la Font Gaillarde"}},
{"type":"Feature","geometry":{"type":"Point","coordinates":[6.4551323,43.9896778]},"properties":{"denomination":"catholic","historic":"wayside_shrine","religion":"christian"}},
{"type":"Feature","geometry":{"type":"Point","coordinates":[6.4403073,44.0428807]},"properties":{"denomination":"catholic","historic":"wayside_shrine","religion":"christian"}},
{"type":"Feature","geometry":{"type":"Point","coordinates":[6.4406538,44.0540407]},"properties":{"ele":"1145","hiking":"yes","information":"guidepost","name":"Les Iscles","operator":"Communauté de communes Alpes Provence Verdon","ref":"Lambruisse 3","tourism":"information"}},
{"type":"Feature","geometry":{"type":"Point","coordinates":[6.610593,44.0703456]},"properties":{"name":"Source de la Cagole","natural":"spring"}},
{"type":"Feature","geometry":{"type":"Point","coordinates":[6.5702843,44.1827969]},"properties":{"name":"Grotte de Juan","natural":"cave_entrance"}},
{"type":"Feature","geometry":{"type":"Point","coordinates":[6.5821985,43.9949043]},"properties":{"name":"Grotte de la Moutière","natural":"cave_entrance"}},
{"type":"Feature","geometry":{"type":"Point","coordinates":[6.6505823,44.0153179]},"properties":{"hiking":"yes","information":"guidepost","tourism":"information"}},
{"type":"Feature","geometry":{"type":"Point","coordinates":[6.6005555,44.0882224]},"properties":{"name":"Grotte de Serpeigier","natural":"cave_entrance"}},
{"type":"Feature","geometry":{"type":"Point","coordinates":[6.6011796,44.0101496]},"properties":{"name":"Doline du Puy de Rent","natural":"sinkhole","sinkhole":"doline"}},
{"type":"Feature","geometry":{"type":"Point","coordinates":[6.4562139,44.2077769]},"properties":{"name":"Source de Fenbruan","natural":"spring"}},
{"type":"Feature","geometry":{"type":"Point","coordinates":[6.6175588,44.0668966]},"properties":{"tourism":"viewpoint"}},
{"type":"Feature","geometry":{"type":"Point","coordinates":[6.6174827,44.0672356]},"properties":{"genus":"Tilia","genus:fr":"Tilleul","leaf_cycle":"deciduous","leaf_type":"broadleaved","natural":"tree"}},
{"type":"Feature","geometry":{"type":"Point","coordinates":[6.6175951,44.0672711]},"properties":{"genus":"Tilia","genus:fr":"Tilleul","leaf_cycle":"deciduous","leaf_type":"broadleaved","natural":"tree"}},
{"type":"Feature","geometry":{"type":"Point","coordinates":[6.6270746,44.1812343]},"properties":{"fee":"yes","name":"La Maison Musée","tourism":"museum"}},
{"type":"Feature","geometry":{"type":"Point","coordinates":[6.438688,44.1493542]},"properties":{"addr:postcode":"04420","name":"L'Ichtyosaure","opening_hours":"24/7","tourism":"attraction"}},
{"type":"Feature","geometry":{"type":"Point","coordinates":[6.6385494,44.1861807]},"properties":{"natural":"spring"}},
{"type":"Feature","geometry":{"type":"Point","coordinates":[6.4471933,44.2153412]},"properties":{"description":"Via Ferrata Falaise de Meichira","natural":"cliff","sport":"via_ferrata","via_ferrata":"start"}},
{"type":"Feature","geometry":{"type":"Point","coordinates":[6.6289037,44.1976963]},"properties":{"natural":"spring"}},
{"type":"Feature","geometry":{"type":"Point","coordinates":[6.5524246,44.0309502]},"properties":{"name":"Grotte Jean-Louis","natural":"cave_entrance"}},
{"type":"Feature","geometry":{"type":"Point","coordinates":[6.6289985,44.1967293]},"properties":{"tourism":"viewpoint"}},
{"type":"Feature","geometry":{"type":"Point","coordinates":[6.5769433,44.0520163]},"properties":{"tourism":"viewpoint"}},
{"type":"Feature","geometry":{"type":"Point","coordinates":[6.6135034,44.1253265]},"properties":{"information":"board","tourism":"information"}},
{"type":"Feature","geometry":{"type":"Point","coordinates":[6.6147445,44.1246733]},"properties":{"leisure":"picnic_table"}},
{"type":"Feature","geometry":{"type":"Point","coordinates":[6.6147566,44.1246863]},"properties":{"leisure":"picnic_table"}},
{"type":"Feature","geometry":{"type":"Point","coordinates":[6.6147298,44.1246839]},"properties":{"leisure":"picnic_table"}},
{"type":"Feature","geometry":{"type":"Point","coordinates":[6.6260118,44.1807142]},"properties":{"barrier":"sally_port","historic":"city_gate","name":"Porte de France"}},
{"type":"Feature","geometry":{"type":"Point","coordinates":[6.627003,44.1821603]},"properties":{"natural":"tree"}},
{"type":"Feature","geometry":{"type":"Point","coordinates":[6.6271435,44.1821063]},"properties":{"natural":"tree"}},
{"type":"Feature","geometry":{"type":"Point","coordinates":[6.6270158,44.1806203]},"properties":{"natural":"tree"}},
{"type":"Feature","geometry":{"type":"Point","coordinates":[6.627166,44.1806787]},"properties":{"natural":"tree"}},
{"type":"Feature","geometry":{"type":"Point","coordinates":[6.6272258,44.1804725]},"properties":{"natural":"tree"}},
{"type":"Feature","geometry":{"type":"Point","coordinates":[6.6272131,44.1803511]},"properties":{"natural":"tree"}},
{"type":"Feature","geometry":{"type":"Point","coordinates":[6.62597,44.1820227]},"properties":{"natural":"tree"}},
{"type":"Feature","geometry":{"type":"Point","coordinates":[6.6261331,44.1819102]},"properties":{"natural":"tree"}},
{"type":"Feature","geometry":{"type":"Point","coordinates":[6.5995553,44.1286612]},"properties":{"covered":"yes","natural":"spring"}},
{"type":"Feature","geometry":{"type":"Point","coordinates":[6.6281193,44.179084]},"properties":{"description:fr":"3 tables à l'ombre sous les pins et tout près de la rivière","tourism":"picnic_site"}},
{"type":"Feature","geometry":{"type":"Point","coordinates":[6.6066322,44.1687169]},"properties":{"leisure":"playground"}},
{"type":"Feature","geometry":{"type":"Point","coordinates":[6.4435177,44.0473957]},"properties":{"leisure":"playground"}},
{"type":"Feature","geometry":{"type":"Point","coordinates":[6.4453751,44.0429893]},"properties":{"access":"private","leisure":"picnic_table"}},
{"type":"Feature","geometry":{"type":"Point","coordinates":[6.5050811,44.0994534]},"properties":{"leisure":"picnic_table"}},
{"type":"Feature","geometry":{"type":"Point","coordinates":[6.6320448,44.0248593]},"properties":{"leisure":"picnic_table"}},
{"type":"Feature","geometry":{"type":"Point","coordinates":[6.598033,44.1532446]},"properties":{"tourism":"picnic_site"}},
{"type":"Feature","geometry":{"type":"Point","coordinates":[6.4828106,44.0864354]},"properties":{"leisure":"picnic_table"}},
{"type":"Feature","geometry":{"type":"Point","coordinates":[6.5538262,44.0960122]},"properties":{"leisure":"picnic_table"}},
{"type":"Feature","geometry":{"type":"Point","coordinates":[6.6331606,44.2011338]},"properties":{"leisure":"picnic_table"}},
{"type":"Feature","geometry":{"type":"Point","coordinates":[6.6317853,44.0239292]},"properties":{"leisure":"picnic_table"}},
{"type":"Feature","geometry":{"type":"Point","coordinates":[6.636972,44.1811422]},"properties":{"leisure":"picnic_table"}},
{"type":"Feature","geometry":{"type":"Point","coordinates":[6.5940298,44.0475065]},"properties":{"leisure":"picnic_table"}},
{"type":"Feature","geometry":{"type":"Point","coordinates":[6.6283205,44.1816798]},"properties":{"covered":"no","leisure":"picnic_table"}},
{"type":"Feature","geometry":{"type":"Point","coordinates":[6.6451976,44.0014066]},"properties":{"covered":"no","leisure":"picnic_table"}},
{"type":"Feature","geometry":{"type":"Point","coordinates":[6.6050228,44.1691853]},"properties":{"leisure":"picnic_table"}},
{"type":"Feature","geometry":{"type":"Point","coordinates":[6.6079465,44.167841]},"properties":{"leisure":"picnic_table"}},
{"type":"Feature","geometry":{"type":"Point","coordinates":[6.5170538,44.0940613]},"properties":{"leisure":"picnic_table"}},
{"type":"Feature","geometry":{"type":"Point","coordinates":[6.5926552,44.1430028]},"properties":{"covered":"no","leisure":"picnic_table"}},
{"type":"Feature","geometry":{"type":"Point","coordinates":[6.5946262,44.0473728]},"properties":{"information":"map","name":"Site nordique de La Colle Saint Michel","nordic":"yes","tourism":"information"}},
{"type":"Feature","geometry":{"type":"Point","coordinates":[6.6196089,44.1996615]},"properties":{"drinking_water":"yes","intermittent":"no","natural":"spring"}},
{"type":"Feature","geometry":{"type":"Point","coordinates":[6.5207289,44.0466658]},"properties":{"name":"Grotte Profonde","natural":"cave_entrance"}},
{"type":"Feature","geometry":{"type":"Point","coordinates":[6.5206743,44.0563135]},"properties":{"name":"Grotte d'Argens n°1","natural":"cave_entrance"}},
{"type":"Feature","geometry":{"type":"Point","coordinates":[6.5227989,44.0545235]},"properties":{"name":"Grotte d'Argens n°4","natural":"cave_entrance"}},
{"type":"Feature","geometry":{"type":"Point","coordinates":[6.5200189,44.0541639]},"properties":{"name":"Grotte d'Argens n°5","natural":"cave_entrance"}},
{"type":"Feature","geometry":{"type":"Point","coordinates":[6.5389836,44.0343677]},"properties":{"name":"Grotte des Fontaniers","natural":"cave_entrance"}},
{"type":"Feature","geometry":{"type":"Point","coordinates":[6.5520016,44.0292877]},"properties":{"name":"Grotte du Scorpion","natural":"cave_entrance"}},
{"type":"Feature","geometry":{"type":"Point","coordinates":[6.6369726,44.1810271]},"properties":{"historic":"wayside_shrine","name":"Oaratoire de St Jean"}},
{"type":"Feature","geometry":{"type":"Point","coordinates":[6.5753636,43.9957308]},"properties":{"ele":"1005","historic":"wayside_shrine"}},
{"type":"Feature","geometry":{"type":"Point","coordinates":[6.5722201,44.0002226]},"properties":{"ele":"1000","hiking":"yes","information":"guidepost","name":"La Tuillière","operator":"Communauté de communes Alpes Provence Verdon","ref":"Allons 15","tourism":"information"}},
{"type":"Feature","geometry":{"type":"Point","coordinates":[6.5625856,44.0091165]},"properties":{"ele":"960","hiking":"yes","information":"guidepost","name":"Vauclause","operator":"Communauté de communes Alpes Provence Verdon","ref":"Allons 10","source":"PDIPR 04","tourism":"information"}},
{"type":"Feature","geometry":{"type":"Point","coordinates":[6.5007996,44.0386114]},"properties":{"ele":"1430","natural":"peak"}},
{"type":"Feature","geometry":{"type":"Point","coordinates":[6.6139641,44.0691381]},"properties":{"ele":"1536","hiking":"yes","information":"guidepost","name":"Rocher de Saint-Restitut","operator":"Communauté de communes Alpes Provence Verdon","ref":"Thorame Haute 22","tourism":"information"}},
{"type":"Feature","geometry":{"type":"Point","coordinates":[6.6137174,44.0691709]},"properties":{"ele":"1536","historic":"wayside_shrine"}},
{"type":"Feature","geometry":{"type":"Point","coordinates":[6.5932763,44.0468539]},"properties":{"ele":"1431","hiking":"yes","information":"guidepost","name":"La Colle Saint-Michel","operator":"Communauté de communes Alpes Provence Verdon","ref":"Thorame Haute 15","tourism":"information"}},
{"type":"Feature","geometry":{"type":"Point","coordinates":[6.5927513,44.1432196]},"properties":{"leisure":"sports_centre","sport":"climbing"}},
{"type":"Feature","geometry":{"type":"Point","coordinates":[6.6401622,44.0041001]},"properties":{"ele":"830","hiking":"yes","information":"guidepost","name":"Le Pont du Fugeret","operator":"Communauté de communes Alpes Provence Verdon","ref":"Le Fugeret 3","source":"PDIPR 04","tourism":"information"}},
{"type":"Feature","geometry":{"type":"Point","coordinates":[6.6261244,44.0237883]},"properties":{"ele":"920","hiking":"yes","information":"guidepost","name":"Passerelle de la Vaïre","operator":"Communauté de communes Alpes Provence Verdon","ref":"Méailles 10","tourism":"information"}},
{"type":"Feature","geometry":{"type":"Point","coordinates":[6.6273072,44.0242511]},"properties":{"ele":"950","hiking":"yes","information":"guidepost","name":"La Gare","operator":"Communauté de communes Alpes Provence Verdon","ref":"Méailles 11","source":"PDIPR 04","tourism":"information"}},
{"type":"Feature","geometry":{"type":"Point","coordinates":[6.6291018,44.032687]},"properties":{"ele":"1085","information":"guidepost","tourism":"information"}},
{"type":"Feature","geometry":{"type":"Point","coordinates":[6.6464932,44.0310228]},"properties":{"ele":"1385","information":"guidepost","tourism":"information"}},
{"type":"Feature","geometry":{"type":"Point","coordinates":[6.605585,44.0518873]},"properties":{"ele":"1395","information":"guidepost","tourism":"information"}},
{"type":"Feature","geometry":{"type":"Point","coordinates":[6.5906645,44.0456328]},"properties":{"ele":"1415","information":"guidepost","tourism":"information"}},
{"type":"Feature","geometry":{"type":"Point","coordinates":[6.5655815,44.0434383]},"properties":{"ele":"1015","information":"guidepost","tourism":"information"}},
{"type":"Feature","geometry":{"type":"Point","coordinates":[6.5656464,44.0434131]},"properties":{"ele":"1015","historic":"wayside_shrine"}},
{"type":"Feature","geometry":{"type":"Point","coordinates":[6.6275075,43.9843983]},"properties":{"ele":"1335","information":"guidepost","name":"43","tourism":"information"}},
{"type":"Feature","geometry":{"type":"Point","coordinates":[6.6320174,44.023391]},"properties":{"ele":"1030","hiking":"yes","information":"guidepost","name":"Meailles (le lavoir)","operator":"Communauté de communes Alpes Provence Verdon","ref":"Méailles 5","tourism":"information"}},
{"type":"Feature","geometry":{"type":"Point","coordinates":[6.6333558,44.0222493]},"properties":{"ele":"1020","hiking":"yes","information":"guidepost","name":"La Condamine","operator":"Communauté de communes Alpes Provence Verdon","ref":"Méailles 7","tourism":"information"}},
{"type":"Feature","geometry":{"type":"Point","coordinates":[6.6270381,43.9846715]},"properties":{"ele":"1340","name":"Source de Roncharel","natural":"water","note":"source captée"}},
{"type":"Feature","geometry":{"type":"Point","coordinates":[6.6067224,44.1682684]},"properties":{"name":"Kiosque Demontzey","tourism":"information"}},
{"type":"Feature","geometry":{"type":"Point","coordinates":[6.5918938,44.1432161]},"properties":{"bus":"yes","highway":"bus_stop","name":"Beauvezer - Place du Village","public_transport":"stop_position"}},
{"type":"Feature","geometry":{"type":"Point","coordinates":[6.6054913,44.149358]},"properties":{"name":"Rochasse Chardaï","natural":"cliff"}},
{"type":"Feature","geometry":{"type":"Point","coordinates":[6.4579218,44.0584716]},"properties":{"ele":"1691","name":"Montagne de Charvet","natural":"peak"}},
{"type":"Feature","geometry":{"type":"Point","coordinates":[6.6305296,44.1980953]},"properties":{"natural":"tree"}},
{"type":"Feature","geometry":{"type":"Point","coordinates":[6.6223945,44.2068476]},"properties":{"name":"Cascade de Chaumie","waterway":"waterfall"}},
{"type":"Feature","geometry":{"type":"Point","coordinates":[6.43044,43.988]},"properties":{"ele":"1593","name":"Sommet de Mouchon","natural":"peak","ref:refuges.info":"5901"}},
{"type":"Feature","geometry":{"type":"Point","coordinates":[6.45355,44.02184]},"properties":{"ele":"1790","name":"Sommet de l'Allier","natural":"peak","ref:refuges.info":"5892"}},
{"type":"Feature","geometry":{"type":"Point","coordinates":[6.5086598,44.1672268]},"properties":{"ele":"1770","name":"Source de Boules","natural":"spring","ref:refuges.info":"4025"}},
{"type":"Feature","geometry":{"type":"Point","coordinates":[6.4819047,44.1765728]},"properties":{"ele":"1758","mountain_pass":"yes","name":"Col de la Baisse","natural":"saddle"}},
{"type":"Feature","geometry":{"type":"Point","coordinates":[6.4225603,44.1454499]},"properties":{"name":"Sources de Chanolles","natural":"spring"}},
{"type":"Feature","geometry":{"type":"Point","coordinates":[6.4956022,44.065054]},"properties":{"leisure":"picnic_table"}},
{"type":"Feature","geometry":{"type":"Point","coordinates":[6.6124617,44.0004561]},"properties":{"ele":"1690","information":"guidepost","name":"Les Gorgettes","tourism":"information"}},
{"type":"Feature","geometry":{"type":"Point","coordinates":[6.6084813,44.0034621]},"properties":{"ele":"1710","information":"guidepost","tourism":"information"}},
{"type":"Feature","geometry":{"type":"Point","coordinates":[6.6068773,44.0084858]},"properties":{"ele":"1737","information":"guidepost","tourism":"information"}},
{"type":"Feature","geometry":{"type":"Point","coordinates":[6.5925972,44.0184856]},"properties":{"ele":"1960","information":"guidepost","tourism":"information"}},
{"type":"Feature","geometry":{"type":"Point","coordinates":[6.5903132,44.0211256]},"properties":{"ele":"1996","hiking":"yes","information":"guidepost","name":"Puy de Rent","operator":"Communauté de communes Alpes Provence Verdon","ref":"Thorame Haute 18","source":"PDIPR 04","tourism":"information"}},
{"type":"Feature","geometry":{"type":"Point","coordinates":[6.6062869,44.0067294]},"properties":{"ele":"1725","hiking":"yes","information":"guidepost","name":"Coulet de Saint-Domnin","operator":"Communauté de communes Alpes Provence Verdon","ref":"Allons 12","tourism":"information"}},
{"type":"Feature","geometry":{"type":"Point","coordinates":[6.6381982,44.008818]},"properties":{"ele":"880","information":"guidepost","tourism":"information"}},
{"type":"Feature","geometry":{"type":"Point","coordinates":[6.6312419,44.0231535]},"properties":{"ele":"1045","information":"guidepost","tourism":"information"}},
{"type":"Feature","geometry":{"type":"Point","coordinates":[6.5830377,44.0110845]},"properties":{"ele":"1460","information":"guidepost","name":"Les Baquières","note":"l'altitude 1500m indiquée sur le panneau est fausse","tourism":"information"}},
{"type":"Feature","geometry":{"type":"Point","coordinates":[6.5453619,44.1685333]},"properties":{"ele":"2368","name":"La Gande-Croix","natural":"peak"}},
{"type":"Feature","geometry":{"type":"Point","coordinates":[6.5323228,44.1629762]},"properties":{"historic":"memorial"}},
{"type":"Feature","geometry":{"type":"Point","coordinates":[6.6224648,44.0470364]},"properties":{"information":"guidepost","ref":"Méailles 13","tourism":"information"}},
{"type":"Feature","geometry":{"type":"Point","coordinates":[6.6208617,44.0517304]},"properties":{"ele":"1350","information":"guidepost","name":"Rocher du Brec","ref":"Méailles 14","tourism":"information"}},
{"type":"Feature","geometry":{"type":"Point","coordinates":[6.650866,44.1146115]},"properties":{"historic":"memorial","memorial":"plaque","name":"Christian Marty"}},
{"type":"Feature","geometry":{"type":"Point","coordinates":[6.4324937,44.1083068]},"properties":{"hiking":"yes","information":"guidepost","name":"Cabane du Cheval Blanc","operator":"Communauté de communes Alpes Provence Verdon","ref":"Thorame Basse 7","source":"PDIPR 04","tourism":"information"}},
{"type":"Feature","geometry":{"type":"Point","coordinates":[6.5143812,44.0576481]},"properties":{"hiking":"yes","information":"guidepost","name":"La Coulette","operator":"Communauté de communes Alpes Provence Verdon","ref":"La Mure Argens13","source":"PDIPR 04","tourism":"information"}},
{"type":"Feature","geometry":{"type":"Point","coordinates":[6.642117,44.1797988]},"properties":{"hiking":"yes","information":"guidepost","name":"Bois du la Colletta","operator":"Communauté de communes Alpes Provence Verdon","ref":"Colmars 32","source":"PDIPR 04","tourism":"information"}},
{"type":"Feature","geometry":{"type":"Point","coordinates":[6.5987898,44.215566]},"properties":{"hiking":"yes","information":"guidepost","name":"Sommet de l'Autapie","operator":"Communauté de communes Alpes Provence Verdon","ref":"Colmars 65","source":"PDIPR 04","tourism":"information"}},
{"type":"Feature","geometry":{"type":"Point","coordinates":[6.6534372,44.184208]},"properties":{"hiking":"yes","information":"guidepost","name":"Chapelle Saint Jean","operator":"Communauté de communes Alpes Provence Verdon","ref":"Colmars 39","source":"PDIPR 04","tourism":"information"}},
{"type":"Feature","geometry":{"type":"Point","coordinates":[6.4350557,44.1076713]},"properties":{"hiking":"yes","information":"guidepost","name":"Ravin de l'Ajasson","operator":"Communauté de communes Alpes Provence Verdon","ref":"Thorame Basse 6","source":"PDIPR 04","tourism":"information"}},
{"type":"Feature","geometry":{"type":"Point","coordinates":[6.5869271,44.1453066]},"properties":{"hiking":"yes","information":"guidepost","name":"Chapelle Notre Dame","operator":"Communauté de communes Alpes Provence Verdon","ref":"Beauvezer 17","source":"PDIPR 04","tourism":"information"}},
{"type":"Feature","geometry":{"type":"Point","coordinates":[6.5480354,43.9888536]},"properties":{"hiking":"yes","information":"guidepost","name":"Clot Pallet","operator":"Communauté de communes Alpes Provence Verdon","ref":"La Mure 7","source":"PDIPR 04","tourism":"information"}},
{"type":"Feature","geometry":{"type":"Point","coordinates":[6.572327,44.2025941]},"properties":{"hiking":"yes","information":"guidepost","name":"Les Sagnes","operator":"Communauté de communes Alpes Provence Verdon","ref":"Villars Colmars 27","source":"PDIPR 04","tourism":"information"}},
{"type":"Feature","geometry":{"type":"Point","coordinates":[6.6541893,44.197464]},"properties":{"hiking":"yes","information":"guidepost","name":"Les Costes","operator":"Communauté de communes Alpes Provence Verdon","ref":"Colmars 42","source":"PDIPR 04","tourism":"information"}},
{"type":"Feature","geometry":{"type":"Point","coordinates":[6.503467,44.0732109]},"properties":{"hiking":"yes","information":"guidepost","name":"Champ Blanc","operator":"Communauté de communes Alpes Provence Verdon","ref":"Thorame Basse 29","source":"PDIPR 04","tourism":"information"}},
{"type":"Feature","geometry":{"type":"Point","coordinates":[6.4946319,44.0910063]},"properties":{"hiking":"yes","information":"guidepost","name":"Chemin de Croix","operator":"Communauté de communes Alpes Provence Verdon","ref":"Thorame Basse 36","source":"PDIPR 04","tourism":"information"}},
{"type":"Feature","geometry":{"type":"Point","coordinates":[6.6006345,44.200133]},"properties":{"hiking":"yes","information":"guidepost","name":"Crête de l'Autapie","operator":"Communauté de communes Alpes Provence Verdon","ref":"Colmars 64","source":"PDIPR 04","tourism":"information"}},
{"type":"Feature","geometry":{"type":"Point","coordinates":[6.5463768,44.0903587]},"properties":{"hiking":"yes","information":"guidepost","name":"Pra Jourdane","operator":"Communauté de communes Alpes Provence Verdon","ref":"Thorame Haute 14","source":"PDIPR 04","tourism":"information"}},
{"type":"Feature","geometry":{"type":"Point","coordinates":[6.5561997,44.1949214]},"properties":{"hiking":"yes","information":"guidepost","name":"Cabane de Chabaud","operator":"Communauté de communes Alpes Provence Verdon","ref":"Villars Colmars 29","source":"PDIPR 04","tourism":"information"}},
{"type":"Feature","geometry":{"type":"Point","coordinates":[6.6142816,44.1849533]},"properties":{"hiking":"yes","information":"guidepost","name":"Adroit des Espiniers","operator":"Communauté de communes Alpes Provence Verdon","ref":"Colmars 61","source":"PDIPR 04","tourism":"information"}},
{"type":"Feature","geometry":{"type":"Point","coordinates":[6.6186223,44.0671188]},"properties":{"hiking":"yes","information":"guidepost","name":"Peyresq","operator":"Communauté de communes Alpes Provence Verdon","ref":"Thorame Haute 24","source":"PDIPR 04","tourism":"information"}},
{"type":"Feature","geometry":{"type":"Point","coordinates":[6.6555553,44.1573577]},"properties":{"hiking":"yes","information":"guidepost","name":"Pont de la Serre","operator":"Communauté de communes Alpes Provence Verdon","ref":"Colmars 1","source":"PDIPR 04","tourism":"information"}},
{"type":"Feature","geometry":{"type":"Point","coordinates":[6.6033699,44.1414614]},"properties":{"hiking":"yes","information":"guidepost","name":"Forêt de la Pinatelle","operator":"Communauté de communes Alpes Provence Verdon","ref":"Beauvezer 13","source":"PDIPR 04","tourism":"information"}},
{"type":"Feature","geometry":{"type":"Point","coordinates":[6.5199597,44.1743101]},"properties":{"hiking":"yes","information":"guidepost","name":"Barre de Boules","operator":"Communauté de communes Alpes Provence Verdon","ref":"Thorame Basse 14","source":"PDIPR 04","tourism":"information"}},
{"type":"Feature","geometry":{"type":"Point","coordinates":[6.6302798,44.1637348]},"properties":{"hiking":"yes","information":"guidepost","name":"Champ de la Bravaïre","operator":"Communauté de communes Alpes Provence Verdon","ref":"Colmars 25","source":"PDIPR 04","tourism":"information"}},
{"type":"Feature","geometry":{"type":"Point","coordinates":[6.5539123,44.0964066]},"properties":{"hiking":"yes","information":"guidepost","name":"Thorame Haute","operator":"Communauté de communes Alpes Provence Verdon","ref":"Thorame Haute 13","source":"PDIPR 04","tourism":"information"}},
{"type":"Feature","geometry":{"type":"Point","coordinates":[6.5763423,44.1495536]},"properties":{"hiking":"yes","information":"guidepost","name":"Saint Martin","operator":"Communauté de communes Alpes Provence Verdon","ref":"Beauvezer 33","source":"PDIPR 04","tourism":"information"}},
{"type":"Feature","geometry":{"type":"Point","coordinates":[6.5912133,44.1656995]},"properties":{"hiking":"yes","information":"guidepost","name":"Croix du Puy","operator":"Communauté de communes Alpes Provence Verdon","ref":"Villars Colmars 8","source":"PDIPR 04","tourism":"information"}},
{"type":"Feature","geometry":{"type":"Point","coordinates":[6.6410024,44.1274955]},"properties":{"hiking":"yes","information":"guidepost","name":"Chabanal","operator":"Communauté de communes Alpes Provence Verdon","ref":"Beauvezer 6","source":"PDIPR 04","tourism":"information"}},
{"type":"Feature","geometry":{"type":"Point","coordinates":[6.4853778,44.0871643]},"properties":{"hiking":"yes","information":"guidepost","name":"Le Pilon","operator":"Communauté de communes Alpes Provence Verdon","ref":"Thorame Basse 40","source":"PDIPR 04","tourism":"information"}},
{"type":"Feature","geometry":{"type":"Point","coordinates":[6.6277386,44.1811815]},"properties":{"hiking":"yes","information":"guidepost","name":"Le Pré","operator":"Communauté de communes Alpes Provence Verdon","ref":"Colmars 29","source":"PDIPR 04","tourism":"information"}},
{"type":"Feature","geometry":{"type":"Point","coordinates":[6.6225294,43.9845345]},"properties":{"hiking":"yes","information":"guidepost","name":"Basse d'Allons","operator":"Communauté de communes Alpes Provence Verdon","ref":"Annot 17","source":"PDIPR 04","tourism":"information"}},
{"type":"Feature","geometry":{"type":"Point","coordinates":[6.5865468,44.1794295]},"properties":{"hiking":"yes","information":"guidepost","name":"Cabanes du Puy","operator":"Communauté de communes Alpes Provence Verdon","ref":"Villars Colmars 10","source":"PDIPR 04","tourism":"information"}},
{"type":"Feature","geometry":{"type":"Point","coordinates":[6.6052353,44.1791681]},"properties":{"hiking":"yes","information":"guidepost","name":"Bois des Espiniers","operator":"Communauté de communes Alpes Provence Verdon","ref":"Colmars 56","source":"PDIPR 04","tourism":"information"}},
{"type":"Feature","geometry":{"type":"Point","coordinates":[6.5161853,43.9870787]},"properties":{"hiking":"yes","information":"guidepost","name":"La Serrière","operator":"Communauté de communes Alpes Provence Verdon","ref":"La Mure 11","source":"PDIPR 04","tourism":"information"}},
{"type":"Feature","geometry":{"type":"Point","coordinates":[6.5928906,44.1432897]},"properties":{"hiking":"yes","information":"guidepost","name":"Beauvezer","operator":"Communauté de communes Alpes Provence Verdon","ref":"Beauvezer 25","source":"PDIPR 04","tourism":"information"}},
{"type":"Feature","geometry":{"type":"Point","coordinates":[6.4370696,44.0718515]},"properties":{"hiking":"yes","information":"guidepost","name":"Les Terres","operator":"Communauté de communes Alpes Provence Verdon","ref":"Lambruisse 2","source":"PDIPR 04","tourism":"information"}},
{"type":"Feature","geometry":{"type":"Point","coordinates":[6.6134351,44.1253314]},"properties":{"hiking":"yes","information":"guidepost","name":"Gorges de Saint Pierre","operator":"Communauté de communes Alpes Provence Verdon","ref":"Beauvezer 3","source":"PDIPR 04","tourism":"information"}},
{"type":"Feature","geometry":{"type":"Point","coordinates":[6.4859674,44.0894335]},"properties":{"hiking":"yes","information":"guidepost","name":"Forêt de Piégut","operator":"Communauté de communes Alpes Provence Verdon","ref":"Thorame Basse 39","source":"PDIPR 04","tourism":"information"}},
{"type":"Feature","geometry":{"type":"Point","coordinates":[6.5918791,44.1722708]},"properties":{"hiking":"yes","information":"guidepost","name":"Bois du Puy","operator":"Communauté de communes Alpes Provence Verdon","ref":"Villars Colmars 6","source":"PDIPR 04","tourism":"information"}},
{"type":"Feature","geometry":{"type":"Point","coordinates":[6.6000023,44.1632403]},"properties":{"hiking":"yes","information":"guidepost","name":"La Tête","operator":"Communauté de communes Alpes Provence Verdon","ref":"Villars Colmars 3","source":"PDIPR 04","tourism":"information"}},
{"type":"Feature","geometry":{"type":"Point","coordinates":[6.6127515,44.0003296]},"properties":{"hiking":"yes","information":"guidepost","name":"Les gorgettes","operator":"Communauté de communes Alpes Provence Verdon","ref":"Le Fugeret 1","source":"PDIPR 04","tourism":"information"}},
{"type":"Feature","geometry":{"type":"Point","coordinates":[6.4577582,44.0558326]},"properties":{"hiking":"yes","information":"guidepost","name":"Crête de Charvet","operator":"Communauté de communes Alpes Provence Verdon","ref":"Lambruisse 8","source":"PDIPR 04","tourism":"information"}},
{"type":"Feature","geometry":{"type":"Point","coordinates":[6.6293745,44.1871416]},"properties":{"hiking":"yes","information":"guidepost","name":"Canal de l'Adroit","operator":"Communauté de communes Alpes Provence Verdon","ref":"Colmars 60","source":"PDIPR 04","tourism":"information"}},
{"type":"Feature","geometry":{"type":"Point","coordinates":[6.6437841,44.1980611]},"properties":{"hiking":"yes","information":"guidepost","name":"Clignon Haut Parking","operator":"Communauté de communes Alpes Provence Verdon","ref":"Colmars 44","source":"PDIPR 04","tourism":"information"}},
{"type":"Feature","geometry":{"type":"Point","coordinates":[6.6215383,44.1385861]},"properties":{"hiking":"yes","information":"guidepost","name":"Le Cougouyon","operator":"Communauté de communes Alpes Provence Verdon","ref":"Beauvezer 11","source":"PDIPR 04","tourism":"information"}},
{"type":"Feature","geometry":{"type":"Point","coordinates":[6.5613213,44.0817463]},"properties":{"hiking":"yes","information":"guidepost","name":"Le Rompuas","operator":"Communauté de communes Alpes Provence Verdon","ref":"Thorame Haute 39","source":"PDIPR 04","tourism":"information"}},
{"type":"Feature","geometry":{"type":"Point","coordinates":[6.488162,44.0909628]},"properties":{"hiking":"yes","information":"guidepost","name":"Tour ruinée","operator":"Communauté de communes Alpes Provence Verdon","ref":"Thorame Basse 38","source":"PDIPR 04","tourism":"information"}},
{"type":"Feature","geometry":{"type":"Point","coordinates":[6.4964199,44.0084917]},"properties":{"hiking":"yes","information":"guidepost","name":"Passerelle de l'Auragnier","operator":"Communauté de communes Alpes Provence Verdon","ref":"St André les Alpes 2","source":"PDIPR 04","tourism":"information"}},
{"type":"Feature","geometry":{"type":"Point","coordinates":[6.4602737,44.0377539]},"properties":{"hiking":"yes","information":"guidepost","name":"La Pinée","operator":"Communauté de communes Alpes Provence Verdon","ref":"Lambruisse 5","source":"PDIPR 04","tourism":"information"}},
{"type":"Feature","geometry":{"type":"Point","coordinates":[6.4953348,44.0086095]},"properties":{"hiking":"yes","information":"guidepost","name":"Ravin de l'Auragnier","operator":"Communauté de communes Alpes Provence Verdon","ref":"St André les Alpes 3","source":"PDIPR 04","tourism":"information"}},
{"type":"Feature","geometry":{"type":"Point","coordinates":[6.5021361,43.9965788]},"properties":{"hiking":"yes","information":"guidepost","name":"L'Issole","operator":"Communauté de communes Alpes Provence Verdon","ref":"St André 1","source":"PDIPR 04","tourism":"information"}},
{"type":"Feature","geometry":{"type":"Point","coordinates":[6.5889207,44.1836848]},"properties":{"hiking":"yes","information":"guidepost","name":"Chasse","operator":"Communauté de communes Alpes Provence Verdon","ref":"Villars Colmars 17","source":"PDIPR 04","tourism":"information"}},
{"type":"Feature","geometry":{"type":"Point","coordinates":[6.6291661,44.1856837]},"properties":{"hiking":"yes","information":"guidepost","name":"L'Adroit","operator":"Communauté de communes Alpes Provence Verdon","ref":"Colmars 48","source":"PDIPR 04","tourism":"information"}},
{"type":"Feature","geometry":{"type":"Point","coordinates":[6.6257377,44.0224382]},"properties":{"hiking":"yes","information":"guidepost","name":"La Clap","operator":"Communauté de communes Alpes Provence Verdon","ref":"Méailles 9","source":"PDIPR 04","tourism":"information"}},
{"type":"Feature","geometry":{"type":"Point","coordinates":[6.564272,44.0416686]},"properties":{"hiking":"yes","information":"guidepost","name":"Thorame Haute Gare","operator":"Communauté de communes Alpes Provence Verdon","ref":"Thorame Haute 34","source":"PDIPR 04","tourism":"information"}},
{"type":"Feature","geometry":{"type":"Point","coordinates":[6.6273484,44.1807893]},"properties":{"hiking":"yes","information":"guidepost","name":"Colmars","operator":"Communauté de communes Alpes Provence Verdon","ref":"Colmars 9","source":"PDIPR 04","tourism":"information"}},
{"type":"Feature","geometry":{"type":"Point","coordinates":[6.5439454,44.1502379]},"properties":{"hiking":"yes","information":"guidepost","name":"Plaine de Jassaud","operator":"Communauté de communes Alpes Provence Verdon","ref":"Thorame Basse 16","source":"PDIPR 04","tourism":"information"}},
{"type":"Feature","geometry":{"type":"Point","coordinates":[6.606748,44.1682471]},"properties":{"hiking":"yes","information":"guidepost","name":"Villars Colmars","operator":"Communauté de communes Alpes Provence Verdon","ref":"Villars Colmars 1","source":"PDIPR 04","tourism":"information"}},
{"type":"Feature","geometry":{"type":"Point","coordinates":[6.6396345,44.1606625]},"properties":{"hiking":"yes","information":"guidepost","name":"La Pluhautière","operator":"Communauté de communes Alpes Provence Verdon","ref":"Colmars 19","source":"PDIPR 04","tourism":"information"}},
{"type":"Feature","geometry":{"type":"Point","coordinates":[6.5450771,44.0627213]},"properties":{"hiking":"yes","information":"guidepost","name":"Cabane de Cordeil","operator":"Communauté de communes Alpes Provence Verdon","ref":"Thorame Haute 40","source":"PDIPR 04","tourism":"information"}},
{"type":"Feature","geometry":{"type":"Point","coordinates":[6.4441144,44.1041151]},"properties":{"hiking":"yes","information":"guidepost","name":"Bois de Favier","operator":"Communauté de communes Alpes Provence Verdon","ref":"Thorame Basse 5","source":"PDIPR 04","tourism":"information"}},
{"type":"Feature","geometry":{"type":"Point","coordinates":[6.5560999,44.1791323]},"properties":{"hiking":"yes","information":"guidepost","name":"Cirque de Juan","operator":"Communauté de communes Alpes Provence Verdon","ref":"Villars Colmars 14","source":"PDIPR 04","tourism":"information"}},
{"type":"Feature","geometry":{"type":"Point","coordinates":[6.5224397,44.0447239]},"properties":{"hiking":"yes","information":"guidepost","name":"Argens","operator":"Communauté de communes Alpes Provence Verdon","ref":"La Mure Argens 10","source":"PDIPR 04","tourism":"information"}},
{"type":"Feature","geometry":{"type":"Point","coordinates":[6.5028551,44.0234264]},"properties":{"hiking":"yes","information":"guidepost","name":"Le Seuil","operator":"Communauté de communes Alpes Provence Verdon","ref":"St André les Alpes 38","source":"PDIPR 04","tourism":"information"}},
{"type":"Feature","geometry":{"type":"Point","coordinates":[6.5734321,44.1827259]},"properties":{"hiking":"yes","information":"guidepost","name":"Passerelle des chasseurs","operator":"Communauté de communes Alpes Provence Verdon","ref":"Villars Colmars 11","source":"PDIPR 04","tourism":"information"}},
{"type":"Feature","geometry":{"type":"Point","coordinates":[6.5373523,44.0892436]},"properties":{"hiking":"yes","information":"guidepost","name":"Lac des Sagnes","operator":"Communauté de communes Alpes Provence Verdon","ref":"Thorame Haute 44","source":"PDIPR 04","tourism":"information"}},
{"type":"Feature","geometry":{"type":"Point","coordinates":[6.4789308,44.0822864]},"properties":{"hiking":"yes","information":"guidepost","name":"Serveton","operator":"Communauté de communes Alpes Provence Verdon","ref":"Thorame Basse 2","source":"PDIPR 04","tourism":"information"}},
{"type":"Feature","geometry":{"type":"Point","coordinates":[6.6417342,44.0033166]},"properties":{"hiking":"yes","information":"guidepost","name":"Le Fugeret","operator":"Communauté de communes Alpes Provence Verdon","ref":"Le Fugeret 4","source":"PDIPR 04","tourism":"information"}},
{"type":"Feature","geometry":{"type":"Point","coordinates":[6.5955554,44.1787941]},"properties":{"hiking":"yes","information":"guidepost","name":"Les Coulettes","operator":"Communauté de communes Alpes Provence Verdon","ref":"Villars Colmars 21","source":"PDIPR 04","tourism":"information"}},
{"type":"Feature","geometry":{"type":"Point","coordinates":[6.587878,44.1876349]},"properties":{"hiking":"yes","information":"guidepost","name":"Adroit de Chasse","operator":"Communauté de communes Alpes Provence Verdon","ref":"Villars Colmars 19","source":"PDIPR 04","tourism":"information"}},
{"type":"Feature","geometry":{"type":"Point","coordinates":[6.592368,44.129934]},"properties":{"hiking":"yes","information":"guidepost","name":"Le Plan","operator":"Communauté de communes Alpes Provence Verdon","ref":"Beauvezer 7","source":"PDIPR 04","tourism":"information"}},
{"type":"Feature","geometry":{"type":"Point","coordinates":[6.6358187,44.1448077]},"properties":{"hiking":"yes","information":"guidepost","name":"Le Laupon","operator":"Communauté de communes Alpes Provence Verdon","ref":"Colmars 28","source":"PDIPR 04","tourism":"information"}},
{"type":"Feature","geometry":{"type":"Point","coordinates":[6.6019269,44.164195]},"properties":{"hiking":"yes","information":"guidepost","name":"Parking des Pénitents","operator":"Communauté de communes Alpes Provence Verdon","ref":"Villars Colmars 2","source":"PDIPR 04","tourism":"information"}},
{"type":"Feature","geometry":{"type":"Point","coordinates":[6.4438558,44.2175761]},"properties":{"hiking":"yes","information":"guidepost","name":"Prads Haute Bléone","operator":"Provence Alpes Agglomération","ref":"Prads 16","source":"PDIPR 04","tourism":"information"}},
{"type":"Feature","geometry":{"type":"Point","coordinates":[6.6529454,44.1426678]},"properties":{"hiking":"yes","information":"guidepost","name":"Cabane pastorale du Lançonet","operator":"Communauté de communes Alpes Provence Verdon","ref":"Colmars 16","source":"PDIPR 04","tourism":"information"}},
{"type":"Feature","geometry":{"type":"Point","coordinates":[6.6244956,44.1396219]},"properties":{"hiking":"yes","information":"guidepost","name":"Col du Cougouyon","operator":"Communauté de communes Alpes Provence Verdon","ref":"Beauvezer 10","source":"PDIPR 04","tourism":"information"}},
{"type":"Feature","geometry":{"type":"Point","coordinates":[6.570047,44.2078801]},"properties":{"hiking":"yes","information":"guidepost","name":"Cabane Marie-Louise","operator":"Communauté de communes Alpes Provence Verdon","ref":"Villars Colmars 33","source":"PDIPR 04","tourism":"information"}},
{"type":"Feature","geometry":{"type":"Point","coordinates":[6.603324,44.0646059]},"properties":{"hiking":"yes","information":"guidepost","name":"La Coueste","operator":"Communauté de communes Alpes Provence Verdon","ref":"Thorame Haute 28","source":"PDIPR 04","tourism":"information"}},
{"type":"Feature","geometry":{"type":"Point","coordinates":[6.5763691,44.1977227]},"properties":{"hiking":"yes","information":"guidepost","name":"Les Echats","operator":"Communauté de communes Alpes Provence Verdon","ref":"Villars Colmars 25","source":"PDIPR 04","tourism":"information"}},
{"type":"Feature","geometry":{"type":"Point","coordinates":[6.6062203,44.1689447]},"properties":{"hiking":"yes","information":"guidepost","name":"Mairie de Villars Colmars","operator":"Communauté de communes Alpes Provence Verdon","ref":"Villars Colmars 36","source":"PDIPR 04","tourism":"information"}},
{"type":"Feature","geometry":{"type":"Point","coordinates":[6.4994155,44.0908056]},"properties":{"hiking":"yes","information":"guidepost","name":"Thorame Basse","operator":"Communauté de communes Alpes Provence Verdon","ref":"Thorame Basse 24","source":"PDIPR 04","tourism":"information"}},
{"type":"Feature","geometry":{"type":"Point","coordinates":[6.4991171,44.0916942]},"properties":{"hiking":"yes","information":"guidepost","name":"Église de Thorame Basse","operator":"Communauté de communes Alpes Provence Verdon","ref":"Thorame Basse 23","source":"PDIPR 04","tourism":"information"}},
{"type":"Feature","geometry":{"type":"Point","coordinates":[6.5581442,43.9956166]},"properties":{"hiking":"yes","information":"guidepost","name":"Le Haut de la Barre","operator":"Communauté de communes Alpes Provence Verdon","ref":"La Mure 8","source":"PDIPR 04","tourism":"information"}},
{"type":"Feature","geometry":{"type":"Point","coordinates":[6.4448447,44.2148827]},"properties":{"hiking":"yes","information":"guidepost","name":"Canal de Linard","operator":"Provence Alpes Agglomération","ref":"Prads 21","source":"PDIPR 04","tourism":"information"}},
{"type":"Feature","geometry":{"type":"Point","coordinates":[6.5204028,44.1249714]},"properties":{"hiking":"yes","information":"guidepost","name":"Les Villars","operator":"Communauté de communes Alpes Provence Verdon","ref":"Thorame Basse 18","source":"PDIPR 04","tourism":"information"}},
{"type":"Feature","geometry":{"type":"Point","coordinates":[6.5737317,44.1443275]},"properties":{"hiking":"yes","information":"guidepost","name":"Bois des Fabres","operator":"Communauté de communes Alpes Provence Verdon","ref":"Beauvezer 20","source":"PDIPR 04","tourism":"information"}},
{"type":"Feature","geometry":{"type":"Point","coordinates":[6.4920486,44.0160702]},"properties":{"hiking":"yes","information":"guidepost","name":"Le Coulet","operator":"Communauté de communes Alpes Provence Verdon","ref":"St André les Alpes 6","source":"PDIPR 04","tourism":"information"}},
{"type":"Feature","geometry":{"type":"Point","coordinates":[6.5700531,44.1817096]},"properties":{"hiking":"yes","information":"guidepost","name":"Ravin de Juan","operator":"Communauté de communes Alpes Provence Verdon","ref":"Villars Colmars 12","source":"PDIPR 04","tourism":"information"}},
{"type":"Feature","geometry":{"type":"Point","coordinates":[6.6519866,44.1869596]},"properties":{"hiking":"yes","information":"guidepost","name":"Ratery","operator":"Communauté de communes Alpes Provence Verdon","ref":"Colmars 38","source":"PDIPR 04","tourism":"information"}},
{"type":"Feature","geometry":{"type":"Point","coordinates":[6.5714357,44.1863146]},"properties":{"hiking":"yes","information":"guidepost","name":"Cabane de Michard","operator":"Communauté de communes Alpes Provence Verdon","ref":"Villars Colmars 13","source":"PDIPR 04","tourism":"information"}},
{"type":"Feature","geometry":{"type":"Point","coordinates":[6.6165553,44.068167]},"properties":{"hiking":"yes","information":"guidepost","name":"Les Lauves","operator":"Communauté de communes Alpes Provence Verdon","ref":"Thorame Haute 23","source":"PDIPR 04","tourism":"information"}},
{"type":"Feature","geometry":{"type":"Point","coordinates":[6.5587183,44.1476365]},"properties":{"hiking":"yes","information":"guidepost","name":"Pic de Mal Ubac","operator":"Communauté de communes Alpes Provence Verdon","ref":"Beauvezer 24","source":"PDIPR 04","tourism":"information"}},
{"type":"Feature","geometry":{"type":"Point","coordinates":[6.5912537,44.1158586]},"properties":{"hiking":"yes","information":"guidepost","name":"Ondres","operator":"Communauté de communes Alpes Provence Verdon","ref":"Thorame Haute 8","source":"PDIPR 04","tourism":"information"}},
{"type":"Feature","geometry":{"type":"Point","coordinates":[6.6413342,44.179707]},"properties":{"hiking":"yes","information":"guidepost","name":"La Colletta","operator":"Communauté de communes Alpes Provence Verdon","ref":"Colmars 33","source":"PDIPR 04","tourism":"information"}},
{"type":"Feature","geometry":{"type":"Point","coordinates":[6.5507334,44.2027272]},"properties":{"hiking":"yes","information":"guidepost","name":"Cabane de joyeux","operator":"Communauté de communes Alpes Provence Verdon","ref":"Villars Colmars 30","source":"PDIPR 04","tourism":"information"}},
{"type":"Feature","geometry":{"type":"Point","coordinates":[6.6257974,44.1792359]},"properties":{"hiking":"yes","information":"guidepost","name":"Pont de la Lance","operator":"Communauté de communes Alpes Provence Verdon","ref":"Colmars 21","source":"PDIPR 04","tourism":"information"}},
{"type":"Feature","geometry":{"type":"Point","coordinates":[6.4958925,44.0210292]},"properties":{"hiking":"yes","information":"guidepost","name":"L'Issole","operator":"Communauté de communes Alpes Provence Verdon","ref":"St André les Alpes 36","source":"PDIPR 04","tourism":"information"}},
{"type":"Feature","geometry":{"type":"Point","coordinates":[6.6416339,44.1853977]},"properties":{"hiking":"yes","information":"guidepost","name":"Les Bosquets","operator":"Communauté de communes Alpes Provence Verdon","ref":"Colmars 36","source":"PDIPR 04","tourism":"information"}},
{"type":"Feature","geometry":{"type":"Point","coordinates":[6.4720039,44.0781575]},"properties":{"hiking":"yes","information":"guidepost","name":"Plan de Saint Thomas","operator":"Communauté de communes Alpes Provence Verdon","ref":"Thorame Basse 3","source":"PDIPR 04","tourism":"information"}},
{"type":"Feature","geometry":{"type":"Point","coordinates":[6.5992838,44.1280644]},"properties":{"hiking":"yes","information":"guidepost","name":"Villars Heyssier","operator":"Communauté de communes Alpes Provence Verdon","ref":"Beauvezer 1","source":"PDIPR 04","tourism":"information"}},
{"type":"Feature","geometry":{"type":"Point","coordinates":[6.4916407,44.0909339]},"properties":{"hiking":"yes","information":"guidepost","name":"Chapelle Saint Jean","operator":"Communauté de communes Alpes Provence Verdon","ref":"Thorame Basse 37","source":"PDIPR 04","tourism":"information"}},
{"type":"Feature","geometry":{"type":"Point","coordinates":[6.6495231,44.0061849]},"properties":{"hiking":"yes","information":"guidepost","name":"Les Laouves","operator":"Communauté de communes Alpes Provence Verdon","ref":"Le Fugeret 7","source":"PDIPR 04","tourism":"information"}},
{"type":"Feature","geometry":{"type":"Point","coordinates":[6.5553895,44.1482517]},"properties":{"hiking":"yes","information":"guidepost","name":"Gorge de Groum","operator":"Communauté de communes Alpes Provence Verdon","ref":"Beauvezer 23","source":"PDIPR 04","tourism":"information"}},
{"type":"Feature","geometry":{"type":"Point","coordinates":[6.6198902,44.1472566]},"properties":{"hiking":"yes","information":"guidepost","name":"Barre des Chabrières","operator":"Communauté de communes Alpes Provence Verdon","ref":"Beauvezer 12","source":"PDIPR 04","tourism":"information"}},
{"type":"Feature","geometry":{"type":"Point","coordinates":[6.5836172,44.1507583]},"properties":{"hiking":"yes","information":"guidepost","name":"La Combe","operator":"Communauté de communes Alpes Provence Verdon","ref":"Beauvezer 32","source":"PDIPR 04","tourism":"information"}},
{"type":"Feature","geometry":{"type":"Point","coordinates":[6.5012944,44.0210037]},"properties":{"hiking":"yes","information":"guidepost","name":"Les Bastides du Seuil","operator":"Communauté de communes Alpes Provence Verdon","ref":"St André les Alpes 37","source":"PDIPR 04","tourism":"information"}},
{"type":"Feature","geometry":{"type":"Point","coordinates":[6.6027024,44.1911342]},"properties":{"hiking":"yes","information":"guidepost","name":"Belvédère de la Gardette","operator":"Communauté de communes Alpes Provence Verdon","ref":"Colmars 66","source":"PDIPR 04","tourism":"information"}},
{"type":"Feature","geometry":{"type":"Point","coordinates":[6.5169148,44.1786379]},"properties":{"hiking":"yes","information":"guidepost","name":"Col de Vachière","operator":"Provence Alpes Agglomération","ref":"Thorame Basse 15","source":"PDIPR 04","tourism":"information"}},
{"type":"Feature","geometry":{"type":"Point","coordinates":[6.514788,43.98445]},"properties":{"hiking":"yes","information":"guidepost","name":"Les Fontettes","operator":"Communauté de communes Alpes Provence Verdon","ref":"La Mure 3","source":"PDIPR 04","tourism":"information"}},
{"type":"Feature","geometry":{"type":"Point","coordinates":[6.4483246,44.0593994]},"properties":{"hiking":"yes","information":"guidepost","name":"Le Haut de Serre Guillen","operator":"Communauté de communes Alpes Provence Verdon","ref":"Lambruisse 7","source":"PDIPR 04","tourism":"information"}},
{"type":"Feature","geometry":{"type":"Point","coordinates":[6.5177977,44.092738]},"properties":{"hiking":"yes","information":"guidepost","name":"Le Moustier","operator":"Communauté de communes Alpes Provence Verdon","ref":"Thorame Basse 31","source":"PDIPR 04","tourism":"information"}},
{"type":"Feature","geometry":{"type":"Point","coordinates":[6.4279546,44.1896358]},"properties":{"hiking":"yes","information":"guidepost","name":"Heyre","operator":"Provence Alpes Agglomération","ref":"Prads 22","source":"PDIPR 04","tourism":"information"}},
{"type":"Feature","geometry":{"type":"Point","coordinates":[6.5173198,44.1336536]},"properties":{"hiking":"yes","information":"guidepost","name":"La Valette","operator":"Communauté de communes Alpes Provence Verdon","ref":"Thorame Basse 10","source":"PDIPR 04","tourism":"information"}},
{"type":"Feature","geometry":{"type":"Point","coordinates":[6.6364031,44.1221607]},"properties":{"hiking":"yes","information":"guidepost","name":"Ravin de Saint Pierre","operator":"Communauté de communes Alpes Provence Verdon","ref":"Beauvezer 5","source":"PDIPR 04","tourism":"information"}},
{"type":"Feature","geometry":{"type":"Point","coordinates":[6.6135331,44.0424086]},"properties":{"hiking":"yes","information":"guidepost","name":"Halte de Peyresc (gare)","operator":"Communauté de communes Alpes Provence Verdon","ref":"Thorame Haute 36","source":"PDIPR 04","tourism":"information"}},
{"type":"Feature","geometry":{"type":"Point","coordinates":[6.4795326,44.0858297]},"properties":{"hiking":"yes","information":"guidepost","name":"Château Garnier","operator":"Communauté de communes Alpes Provence Verdon","ref":"Thorame Basse 1","source":"PDIPR 04","tourism":"information"}},
{"type":"Feature","geometry":{"type":"Point","coordinates":[6.5292396,44.0123173]},"properties":{"hiking":"yes","information":"guidepost","name":"Sommet de Maurel","operator":"Communauté de communes Alpes Provence Verdon","ref":"La Mure 12","source":"PDIPR 04","tourism":"information"}},
{"type":"Feature","geometry":{"type":"Point","coordinates":[6.6269338,44.1792917]},"properties":{"hiking":"yes","information":"guidepost","name":"Parking de la Lance","operator":"Communauté de communes Alpes Provence Verdon","ref":"Colmars 10","source":"PDIPR 04","tourism":"information"}},
{"type":"Feature","geometry":{"type":"Point","coordinates":[6.6438442,44.0876554]},"properties":{"hiking":"yes","information":"guidepost","name":"Plan du Rieu","operator":"Communauté de communes Alpes Provence Verdon","ref":"Thorame Haute 4","source":"PDIPR 04","tourism":"information"}},
{"type":"Feature","geometry":{"type":"Point","coordinates":[6.6196155,44.1796172]},"properties":{"hiking":"yes","information":"guidepost","name":"La Chapelle","operator":"Communauté de communes Alpes Provence Verdon","ref":"Colmars 59","source":"PDIPR 04","tourism":"information"}},
{"type":"Feature","geometry":{"type":"Point","coordinates":[6.5962637,44.1426116]},"properties":{"ele":"1152","hiking":"yes","information":"guidepost","name":"Pont de Villars Heyssier","operator":"Communauté de communes Alpes Provence Verdon","ref":"Beauvezer 9","source":"PDIPR 04","tourism":"information"}},
{"type":"Feature","geometry":{"type":"Point","coordinates":[6.5843208,44.1877219]},"properties":{"hiking":"yes","information":"guidepost","name":"Passerelle de Chasse","operator":"Communauté de communes Alpes Provence Verdon","ref":"Villars Colmars 16","source":"PDIPR 04","tourism":"information"}},
{"type":"Feature","geometry":{"type":"Point","coordinates":[6.6295935,44.2052328]},"properties":{"hiking":"yes","information":"guidepost","name":"Chaumie Haut","operator":"Communauté de communes Alpes Provence Verdon","ref":"Colmars 52","source":"PDIPR 04","tourism":"information"}},
{"type":"Feature","geometry":{"type":"Point","coordinates":[6.640119,44.1586536]},"properties":{"hiking":"yes","information":"guidepost","name":"Les Crouès","operator":"Communauté de communes Alpes Provence Verdon","ref":"Colmars 18","source":"PDIPR 04","tourism":"information"}},
{"type":"Feature","geometry":{"type":"Point","coordinates":[6.6448808,44.1218604]},"properties":{"hiking":"yes","information":"guidepost","name":"Cabane de Congerman","operator":"Communauté de communes Alpes Provence Verdon","ref":"Thorame Haute 1","source":"PDIPR 04","tourism":"information"}},
{"type":"Feature","geometry":{"type":"Point","coordinates":[6.5564087,43.9866084]},"properties":{"hiking":"yes","information":"guidepost","name":"La Villaute","operator":"Communauté de communes Alpes Provence Verdon","ref":"La mure 9","source":"PDIPR 04","tourism":"information"}},
{"type":"Feature","geometry":{"type":"Point","coordinates":[6.5907728,44.1606243]},"properties":{"hiking":"yes","information":"guidepost","name":"Ravin de Rioufleiran","operator":"Communauté de communes Alpes Provence Verdon","ref":"Beauvezer 26","source":"PDIPR 04","tourism":"information"}},
{"type":"Feature","geometry":{"type":"Point","coordinates":[6.5670006,44.2024072]},"properties":{"hiking":"yes","information":"guidepost","name":"Bois des Sagnes","operator":"Communauté de communes Alpes Provence Verdon","ref":"Villars Colmars 28","source":"PDIPR 04","tourism":"information"}},
{"type":"Feature","geometry":{"type":"Point","coordinates":[6.6436488,44.1494802]},"properties":{"hiking":"yes","information":"guidepost","name":"Cabane pastorale de la Sagne","operator":"Communauté de communes Alpes Provence Verdon","ref":"Colmars 17","source":"PDIPR 04","tourism":"information"}},
{"type":"Feature","geometry":{"type":"Point","coordinates":[6.504964,44.0980307]},"properties":{"hiking":"yes","information":"guidepost","name":"Chastel","operator":"Communauté de communes Alpes Provence Verdon","ref":"Thorame Basse 20","source":"PDIPR 04","tourism":"information"}},
{"type":"Feature","geometry":{"type":"Point","coordinates":[6.5005088,44.0942638]},"properties":{"hiking":"yes","information":"guidepost","name":"Les Condamines","operator":"Communauté de communes Alpes Provence Verdon","ref":"Thorame Basse 42","source":"PDIPR 04","tourism":"information"}},
{"type":"Feature","geometry":{"type":"Point","coordinates":[6.6551719,44.1565729]},"properties":{"hiking":"yes","information":"guidepost","name":"Le Bois Noir","operator":"Communauté de communes Alpes Provence Verdon","ref":"Colmars 15","source":"PDIPR 04","tourism":"information"}},
{"type":"Feature","geometry":{"type":"Point","coordinates":[6.6225717,44.2068697]},"properties":{"hiking":"yes","information":"guidepost","name":"Cascade de Chaumie","operator":"Communauté de communes Alpes Provence Verdon","ref":"Colmars 55","source":"PDIPR 04","tourism":"information"}},
{"type":"Feature","geometry":{"type":"Point","coordinates":[6.4916856,44.1783519]},"properties":{"historic":"memorial"}},
{"type":"Feature","geometry":{"type":"Point","coordinates":[6.6294899,44.0282311]},"properties":{"waterway":"waterfall"}},
{"type":"Feature","geometry":{"type":"Point","coordinates":[6.5727515,44.0557967]},"properties":{"historic":"ruins"}},
{"type":"Feature","geometry":{"type":"Point","coordinates":[6.5726442,44.0555576]},"properties":{"historic":"ruins"}},
{"type":"Feature","geometry":{"type":"Point","coordinates":[6.5725852,44.0552222]},"properties":{"historic":"ruins"}},
{"type":"Feature","geometry":{"type":"Point","coordinates":[6.5725423,44.0550757]},"properties":{"historic":"ruins"}},
{"type":"Feature","geometry":{"type":"Point","coordinates":[6.5654858,44.0827513]},"properties":{"leisure":"horse_riding","name":"Les sabots du verdon","tourism":"trail_riding_station"}},
{"type":"Feature","geometry":{"type":"Point","coordinates":[6.6198178,44.1759544]},"properties":{"name":"Les Ronds de sorcières","tourism":"guest_house"}},
{"type":"Feature","geometry":{"type":"Point","coordinates":[6.6282709,44.1813092]},"properties":{"historic":"monument","name":"Le ciel enfantin"}},
{"type":"Feature","geometry":{"type":"Point","coordinates":[6.6312535,44.1637404]},"properties":{"hiking":"yes","information":"guidepost","tourism":"information"}},
{"type":"Feature","geometry":{"type":"Point","coordinates":[6.6282645,44.1693068]},"properties":{"hiking":"yes","information":"guidepost","tourism":"information"}},
{"type":"Feature","geometry":{"type":"Point","coordinates":[6.6282206,44.1692774]},"properties":{"hiking":"yes","information":"guidepost","tourism":"information"}},
{"type":"Feature","geometry":{"type":"Point","coordinates":[6.6282488,44.1692657]},"properties":{"hiking":"yes","information":"guidepost","tourism":"information"}},
{"type":"Feature","geometry":{"type":"Point","coordinates":[6.6133226,44.0886126]},"properties":{"ele":"1779","fixme":"position à affiner / improve position","hiking":"yes","information":"guidepost","name":"Le Pré de Thorame","operator":"Communauté de communes Alpes Provence Verdon","ref":"Thorame Haute 6","tourism":"information"}},
{"type":"Feature","geometry":{"type":"Point","coordinates":[6.5289978,44.0879093]},"properties":{"ele":"1161","fixme":"position à affiner / improve position","information":"guidepost","name":"Début du KV du Gd Cordoeil","tourism":"information"}},
{"type":"Feature","geometry":{"type":"Point","coordinates":[6.5355696,44.089269]},"properties":{"leisure":"picnic_table","material":"wood"}},
{"type":"Feature","geometry":{"type":"Point","coordinates":[6.6424536,44.0030261]},"properties":{"ele":"830","information":"guidepost","name":"Le Fugeret","ref":"LeFugeret 6","survey:date":"2022-10-23","tourism":"information"}},
{"type":"Feature","geometry":{"type":"Point","coordinates":[6.6424786,44.0029328]},"properties":{"natural":"tree","survey:date":"2022-10-23"}},
{"type":"Feature","geometry":{"type":"Point","coordinates":[6.6424028,44.0029871]},"properties":{"natural":"tree","survey:date":"2022-10-23"}},
{"type":"Feature","geometry":{"type":"Point","coordinates":[6.6422898,44.0030791]},"properties":{"natural":"tree","survey:date":"2022-10-23"}},
{"type":"Feature","geometry":{"type":"Point","coordinates":[6.642174,44.0031586]},"properties":{"natural":"tree","survey:date":"2022-10-23"}},
{"type":"Feature","geometry":{"type":"Point","coordinates":[6.6513599,44.1342572]},"properties":{"ele":"2396","name":"Rocher de l'Aigle","natural":"peak"}},
{"type":"Feature","geometry":{"type":"Point","coordinates":[6.5963786,44.1469672]},"properties":{"leisure":"pitch","name":"Bike Park"}},
{"type":"Feature","geometry":{"type":"Point","coordinates":[6.4850909,44.1333704]},"properties":{"ele":"2282","name":"Moure Frey","natural":"peak"}},
{"type":"Feature","geometry":{"type":"Point","coordinates":[6.6003019,44.1280088]},"properties":{"historic":"wayside_shrine","name":"Saint Paul","religion":"christian"}},
{"type":"Feature","geometry":{"type":"Point","coordinates":[6.6276352,44.1792965]},"properties":{"caravan_site":"motorhome_stopover","caravan_site:type":"village;river","caravans":"no","dog":"yes","fee":"no","name":"Aire camping-cars de Colmars-les-Alpes","operator":"Colmars-les-Alpes","permanent_camping":"no","sanitary_dump_station":"yes","sanitary_dump_station:chemical_toilet":"no","sanitary_dump_station:grey_water":"no","tents":"no","tourism":"caravan_site","water_point":"yes","water_point:conditional":"no@(Nov-Apr)","website":"https://www.verdontourisme.com/en/informations/hotellerie-plein-air-en/aire-camping-cars-de-colmars-les-alpes-en-4727690id/"}},
{"type":"Feature","geometry":{"type":"Point","coordinates":[6.6463658,44.1418385]},"properties":{"ele":"2380","name":"la Sagna","natural":"peak"}},
{"type":"Feature","geometry":{"type":"Point","coordinates":[6.6327494,44.1488369]},"properties":{"ele":"2220","name":"Source des pigeons","natural":"spring"}},
{"type":"Feature","geometry":{"type":"Point","coordinates":[6.4436994,44.2172196]},"properties":{"leisure":"pitch","sport":"table_tennis"}},
{"type":"Feature","geometry":{"type":"Point","coordinates":[6.4438907,44.2172146]},"properties":{"leisure":"picnic_table"}},
{"type":"Feature","geometry":{"type":"Point","coordinates":[6.4436591,44.2171203]},"properties":{"leisure":"picnic_table"}},
{"type":"Feature","geometry":{"type":"Point","coordinates":[6.4275846,44.1880279]},"properties":{"natural":"tree"}},
{"type":"Feature","geometry":{"type":"Point","coordinates":[6.4282103,44.1880459]},"properties":{"natural":"tree"}},
{"type":"Feature","geometry":{"type":"Point","coordinates":[6.4275257,44.1876783]},"properties":{"historic":"ruins","name":"Ancienne école"}},
{"type":"Feature","geometry":{"type":"Point","coordinates":[6.4341855,44.2146274]},"properties":{"natural":"tree"}},
{"type":"Feature","geometry":{"type":"Point","coordinates":[6.43248,44.2136597]},"properties":{"natural":"tree"}},
{"type":"Feature","geometry":{"type":"Point","coordinates":[6.5753398,43.9976609]},"properties":{"historic":"wayside_cross"}},
{"type":"Feature","geometry":{"type":"Point","coordinates":[6.5945489,44.1448827]},"properties":{"historic":"memorial","inscription":"ESPLANADE\n GUY \nLEBEAUPIN\nMaire et Conseiller Général","material":"stone","memorial":"plaque"}},
{"type":"Feature","geometry":{"type":"Point","coordinates":[6.5946087,44.1448638]},"properties":{"artwork_type":"sculpture","material":"stone","tourism":"artwork"}},
{"type":"Feature","geometry":{"type":"Point","coordinates":[6.4299194,44.0248054]},"properties":{"ele":"1368","name":"Sommet de Mourrouvier","natural":"peak"}},
{"type":"Feature","geometry":{"type":"Point","coordinates":[6.5555844,44.0966267]},"properties":{"historic":"memorial","memorial":"war_memorial"}},
{"type":"Feature","geometry":{"type":"Point","coordinates":[6.5492262,44.2059646]},"properties":{"natural":"rock"}},
{"type":"Feature","geometry":{"type":"Point","coordinates":[6.5491585,44.2056491]},"properties":{"natural":"rock"}},
{"type":"Feature","geometry":{"type":"Point","coordinates":[6.5951295,44.1468068]},"properties":{"leisure":"playground"}},
{"type":"Feature","geometry":{"type":"Point","coordinates":[6.4565056,44.0139406]},"properties":{"name":"Sommet de la Reynière","natural":"peak"}},
{"type":"Feature","geometry":{"type":"LineString","coordinates":[[6.4852519,44.1607178],[6.4870716,44.1604178],[6.487824,44.1598163],[6.4878825,44.1589092],[6.4873508,44.1582361],[6.4866191,44.158076],[6.4861716,44.1564409],[6.486123,44.1546397],[6.4870333,44.1539107],[6.4872944,44.1530915],[6.485755,44.1526819],[6.4855236,44.152084],[6.4859452,44.1511192],[6.4866153,44.1503993],[6.4875256,44.1496714],[6.4884018,44.1484811],[6.4889494,44.1471884],[6.48889,44.1463803],[6.4889456,44.1450954],[6.4869312,44.1447349],[6.4875624,44.1433968],[6.4885135,44.1423475],[6.4886868,44.1436127],[6.4890453,44.1441201],[6.4899738,44.1431743],[6.4911398,44.1428777],[6.4919494,44.1424946],[6.4923053,44.1416268],[6.4920375,44.1408323],[6.491791,44.1403386],[6.4928766,44.1398943],[6.4940234,44.1393475],[6.4949356,44.1384574],[6.4956802,44.1381274],[6.4972446,44.1375646],[6.497483,44.1370029],[6.4972808,44.1361552],[6.4993226,44.136379],[6.4995573,44.1357667],[6.4990843,44.1350307],[6.4978556,44.1344732],[6.4969354,44.1343069],[6.4950479,44.1342787],[6.4946652,44.1335145],[6.4952064,44.1322356],[6.4966461,44.1316472],[6.4971204,44.1309043],[6.4969593,44.1301485],[6.4963695,44.1293314],[6.4965079,44.1283346],[6.4969803,44.1275547],[6.4964129,44.1270428],[6.4951802,44.1275333],[6.4944949,44.1267547],[6.4946411,44.1258949],[6.4949211,44.1244752],[6.4948142,44.1230207],[6.4945309,44.1220253],[6.4945014,44.1216246],[6.4951278,44.1206452],[6.4949737,44.1194941],[6.4949509,44.1182379],[6.49409,44.1179185],[6.4914439,44.1180194],[6.4902164,44.1184184],[6.4893554,44.1190544],[6.4898177,44.1205956],[6.4905189,44.1234861],[6.4889032,44.1243028],[6.4874992,44.1242054],[6.4860953,44.1241081],[6.4855348,44.1231232],[6.4849345,44.1201783],[6.4847622,44.1187769],[6.4854507,44.1176939],[6.4854908,44.116334],[6.4849769,44.1150458],[6.484728,44.1135471],[6.4848409,44.1131906],[6.4859032,44.1124456],[6.486413,44.1117723],[6.4865991,44.1105081],[6.4873464,44.1102287],[6.4883657,44.1107931],[6.4894056,44.1107028],[6.490549,44.1101067],[6.4926924,44.1098235],[6.4931111,44.1088565],[6.4927149,44.1088221],[6.4914978,44.1086367],[6.4911311,44.1080148],[6.4916446,44.1073593],[6.4931394,44.1069557],[6.4936747,44.1065886],[6.4937033,44.1058931],[6.4929456,44.1054021],[6.4915851,44.105454],[6.4903588,44.105153],[6.4899414,44.1038397],[6.4895635,44.1035851],[6.4887673,44.1031],[6.4877142,44.1028712],[6.4866741,44.1039158],[6.4862203,44.1053421],[6.4855246,44.1063241],[6.4846895,44.1073114],[6.4839865,44.1081935],[6.4832938,44.1082694],[6.4826191,44.1076411],[6.4822159,44.1069025],[6.4811065,44.1073442],[6.480342,44.1070581],[6.479768,44.1063867],[6.4791482,44.1056855],[6.4780453,44.1057037],[6.4780248,44.1060759],[6.4785364,44.1084773],[6.479246,44.108995],[6.4803044,44.1096807],[6.479771,44.110428],[6.479855,44.111575],[6.4789866,44.1123339],[6.4786915,44.1128899],[6.4784184,44.1137477],[6.47807,44.1147288],[6.4779954,44.1160034],[6.4779198,44.1172769],[6.4792789,44.1174672],[6.4798432,44.1182932],[6.4803854,44.1188173],[6.4821584,44.1189322],[6.4831153,44.1193798],[6.4829485,44.1205363],[6.4819914,44.1212379],[6.4807962,44.1209817],[6.47957,44.1203013],[6.4780442,44.1201173],[6.4767181,44.1201114],[6.4767179,44.1201114],[6.4761682,44.1200265],[6.4747286,44.1209241],[6.4733855,44.1219992],[6.4732736,44.1232471],[6.4737107,44.1250582],[6.4737668,44.1265191],[6.4733301,44.1273213],[6.4738996,44.128164],[6.4752697,44.1285779],[6.4767178,44.1284746],[6.4767184,44.1284745],[6.4776224,44.1286248],[6.4783565,44.1293352],[6.4790605,44.1296247],[6.4798265,44.1300874],[6.4801362,44.1309884],[6.4806049,44.1313926],[6.4820819,44.1322492],[6.4818307,44.1328204],[6.4799292,44.1328229],[6.4780195,44.1320525],[6.4767179,44.1313073],[6.4767178,44.1313072],[6.4758181,44.1308294],[6.4748706,44.1301597],[6.4738584,44.1297266],[6.4722896,44.1294924],[6.4711147,44.1290665],[6.4701587,44.1282789],[6.4696102,44.1274759],[6.4694684,44.1266574],[6.4696659,44.1260028],[6.4697687,44.1251751],[6.4692884,44.1241939],[6.4684357,44.1236962],[6.467377,44.1237363],[6.467072,44.1240416],[6.467437,44.1245578],[6.4678863,44.1247986],[6.4681568,44.1254714],[6.4671876,44.1257957],[6.4670221,44.125489],[6.4667995,44.1247676],[6.4670835,44.1245837],[6.4665023,44.1239435],[6.4661836,44.1237631],[6.4662606,44.1232695],[6.4654672,44.1233014],[6.4651955,44.1242144],[6.4645134,44.1231406],[6.4633979,44.123332],[6.4624764,44.1237452],[6.4615763,44.1237207],[6.4609511,44.1229791],[6.4611998,44.1219106],[6.460886,44.1217283],[6.4607189,44.1207866],[6.4617625,44.1213735],[6.4618594,44.1205561],[6.462593,44.1201741],[6.4628354,44.1187036],[6.4631465,44.1183661],[6.4638282,44.1176347],[6.463459,44.1170601],[6.4626492,44.1171492],[6.4619847,44.1181164],[6.4614188,44.1181963],[6.4600557,44.1174241],[6.4592372,44.1162789],[6.4591154,44.1161867],[6.4587189,44.1158866],[6.4579383,44.1163866],[6.4581156,44.1171717],[6.4586626,44.1195948],[6.4584607,44.120191],[6.4571965,44.1196502],[6.4564548,44.1184426],[6.456127,44.1178675],[6.4549531,44.1174403],[6.4539628,44.1173021],[6.4526297,44.1169406],[6.4516784,44.1162112],[6.450757,44.1158926],[6.4496899,44.1158158],[6.4486996,44.1156765],[6.4476793,44.1162439],[6.4467622,44.1171023],[6.4458962,44.1175469],[6.4446826,44.1177108],[6.4438506,44.1186245],[6.4435156,44.1196376],[6.4439272,44.1207981],[6.4443892,44.121546],[6.4436348,44.1223982],[6.4426442,44.1233764],[6.4424208,44.1247972],[6.4417942,44.1251731],[6.440397,44.125049],[6.4398012,44.1247192],[6.4399143,44.1240914],[6.4408055,44.1227985],[6.4414015,44.1220108],[6.4413462,44.1212487],[6.4410035,44.1210264],[6.4407596,44.1219671],[6.4403337,44.1226141],[6.4388681,44.1258356],[6.4372266,44.1263685],[6.4364738,44.1261386],[6.4366762,44.1244571],[6.4357503,44.1244047],[6.435742,44.1239299],[6.4344992,44.1236829],[6.4333416,44.1234912],[6.4326471,44.1229287],[6.4316989,44.1231691],[6.4315268,44.1240174],[6.4303896,44.1244529],[6.4287615,44.1245703],[6.4280385,44.1242609],[6.4272943,44.123671],[6.4258991,44.1230296],[6.4252331,44.1230623],[6.4247265,44.1232289],[6.423464,44.124145],[6.4233124,44.1248857],[6.4229227,44.1246205],[6.4218756,44.1238208],[6.4216596,44.1235146],[6.421437,44.1230267],[6.4215481,44.1226021],[6.421275,44.1224516],[6.4210384,44.1220603],[6.4211645,44.1214804],[6.4215022,44.1214927],[6.4215043,44.1219525],[6.4217672,44.1218863],[6.422438,44.121175],[6.4234044,44.1205071],[6.4233843,44.121465],[6.4239738,44.1206873],[6.4248726,44.1203855],[6.4249917,44.1213583],[6.425812,44.1214826],[6.4279261,44.1216272],[6.4294958,44.1217933],[6.4308445,44.1221355],[6.4329225,44.1222127],[6.4342899,44.1219261],[6.4349156,44.1215492],[6.4350465,44.1200844],[6.4347117,44.1187332],[6.4344041,44.1178625],[6.4345671,44.1167377],[6.4336034,44.1158331],[6.4324468,44.1156413],[6.4309916,44.1161585],[6.4289223,44.1165975],[6.4274605,44.1167109],[6.4263633,44.1173406],[6.4252102,44.1172072],[6.4248935,44.1162186],[6.423968,44.1158414],[6.4226092,44.1162457],[6.4224621,44.117604],[6.4212576,44.1178855],[6.4204864,44.1173843],[6.4204144,44.1163865],[6.4200295,44.1155771],[6.4190999,44.1151416],[6.418462,44.1142246],[6.4185317,44.1129278],[6.4189735,44.1122642],[6.4211191,44.1120071],[6.4240369,44.1128385],[6.4247996,44.1132218],[6.4255835,44.1138992],[6.4264491,44.1145723],[6.4276688,44.1150442],[6.4294426,44.1151194],[6.4318216,44.1144228],[6.4326436,44.1142877],[6.4338941,44.1136456],[6.4350047,44.1131919],[6.4364153,44.1123736],[6.4377187,44.1112071],[6.4379712,44.1107874],[6.4377768,44.1097033],[6.4371329,44.1090525],[6.4369721,44.1089985],[6.4356782,44.1091549],[6.4349218,44.1093407],[6.4337494,44.1094565],[6.4337803,44.1092602],[6.4333118,44.1092199],[6.4330099,44.1083919],[6.4326041,44.108271],[6.4326186,44.108172],[6.433541,44.1080031],[6.4340944,44.1087712],[6.4345734,44.1085547],[6.4344283,44.108347],[6.4349679,44.1076615],[6.4360722,44.1070011],[6.4342245,44.1064193],[6.4333794,44.1059793],[6.4321172,44.1062746],[6.431339,44.1062476],[6.42886,44.1063407],[6.4274009,44.1065631],[6.4256271,44.1067423],[6.4239767,44.1064688],[6.4232313,44.1058249],[6.4220491,44.105589],[6.4214909,44.105386],[6.4213688,44.104775],[6.4212801,44.1035471],[6.4211875,44.1022643],[6.4211969,44.1013118],[6.4224279,44.1011543],[6.4235562,44.1017276],[6.4244485,44.1022534],[6.4256145,44.1022659],[6.4259451,44.1014703],[6.4267809,44.1012149],[6.4276369,44.1012391],[6.4285142,44.100478],[6.4296761,44.1004344],[6.4311713,44.1007136],[6.4318155,44.1010258],[6.4330949,44.1015371],[6.434565,44.101448],[6.4343774,44.1006144],[6.4338838,44.1004405],[6.4326956,44.1002928],[6.4315448,44.1000122],[6.4315438,44.100012],[6.4305169,44.0992447],[6.4307204,44.0988623],[6.4319181,44.0982942],[6.4307893,44.0972976],[6.4292018,44.0970276],[6.427555,44.0966494],[6.4256635,44.096708],[6.4239107,44.0967738],[6.423138,44.09825],[6.4213721,44.0981351],[6.4218679,44.0963068],[6.421863,44.0944974],[6.4243988,44.0945599],[6.4278576,44.09443],[6.4289799,44.0941425],[6.4285046,44.09299],[6.4261811,44.0928274],[6.4265274,44.0920232],[6.4272374,44.0914553],[6.428139,44.0911288],[6.4294834,44.0905021],[6.429443,44.0903472],[6.4305035,44.0896687],[6.4314241,44.0888568],[6.4321547,44.0887127],[6.4324122,44.0882126],[6.4348782,44.0864772],[6.4354925,44.0860475],[6.4353779,44.0840774],[6.433451,44.0847193],[6.4325469,44.0853228],[6.4317926,44.0858058],[6.4309665,44.0860619],[6.4303497,44.0866005],[6.429276,44.0870392],[6.4281942,44.087216],[6.4264771,44.0885398],[6.4256353,44.0891735],[6.4248361,44.0904088],[6.4238648,44.0914243],[6.4224408,44.0919661],[6.4208476,44.0923275],[6.420282,44.0931769],[6.4199663,44.0938663],[6.4187977,44.0943242],[6.4179611,44.0943184],[6.4168868,44.0939062],[6.4151369,44.0935576],[6.4134428,44.0932451],[6.4134799,44.0944862],[6.4124867,44.0952008],[6.4115078,44.0953882],[6.4099224,44.0956748],[6.4080685,44.0962561],[6.4092865,44.0967227],[6.409465,44.0970007],[6.4104382,44.0973627],[6.4111917,44.0978511],[6.4120125,44.0983853],[6.4121279,44.0988931],[6.4117246,44.1000129],[6.4117245,44.1000133],[6.4117196,44.1012469],[6.4116972,44.1023488],[6.4127404,44.1027954],[6.4137594,44.1031742],[6.4138107,44.1038869],[6.4134371,44.1044368],[6.4124694,44.1047708],[6.4121086,44.1054989],[6.4119822,44.1060396],[6.411735,44.1060488],[6.410824,44.1060233],[6.4102646,44.105257],[6.409358,44.1051063],[6.4084814,44.1044123],[6.4084878,44.1035067],[6.4088457,44.1028186],[6.4080129,44.1028853],[6.4064111,44.1028731],[6.4062527,44.1031942],[6.4056965,44.1031362],[6.4056233,44.1033192],[6.4053905,44.104361],[6.4056483,44.1050896],[6.4061198,44.1059565],[6.4069739,44.1064412],[6.4078544,44.107294],[6.4081432,44.1084637],[6.4082384,44.1097881],[6.4082315,44.1101586],[6.4082159,44.1108963],[6.4080964,44.1120802],[6.4078822,44.1128855],[6.4054725,44.1123197],[6.4055895,44.1134987],[6.4052633,44.113838],[6.4047722,44.1142705],[6.4044267,44.1151691],[6.4044849,44.1159783],[6.4060542,44.1164363],[6.4075426,44.1171921],[6.4067573,44.1176648],[6.4066219,44.1186287],[6.4071201,44.1198638],[6.4076486,44.120804],[6.4081263999999999,44.121745],[6.4081037,44.1228521],[6.4059953,44.1234474],[6.4054616,44.1245747],[6.4060414,44.1255119],[6.4072231,44.1262792],[6.4083738,44.1266053],[6.4086816,44.1271036],[6.408953,44.1275425],[6.409313,44.1282674],[6.4106566,44.1284389],[6.4121838,44.1283075],[6.4129414,44.1288689],[6.4120962,44.1299336],[6.4108427,44.1305301],[6.4104125,44.1307348],[6.4088678,44.1320462],[6.4093345,44.1328413],[6.4096446,44.1343051],[6.4090465,44.1359503],[6.4086095,44.1369997],[6.4095171,44.1382206],[6.4104896,44.1389214],[6.4106605,44.1398739],[6.4112565,44.1410322],[6.4123419,44.1418773],[6.4127088,44.142002],[6.4137077,44.1423428],[6.4151432,44.1423634],[6.4155947,44.1429363],[6.4140499,44.1442489],[6.4140645,44.1458712],[6.4151658,44.1469363],[6.4167308,44.1473211],[6.4168659,44.1463561],[6.4169958,44.1453192],[6.417621,44.144041],[6.4187938,44.1432588],[6.4202406,44.1434264],[6.4204171,44.1444529],[6.419776,44.14551],[6.4191463,44.1467142],[6.4201085,44.1472679],[6.4208994,44.1468691],[6.4212282,44.1457505],[6.4219384,44.1456508],[6.4224985,44.1448915],[6.4228431,44.1439929],[6.4236936,44.1430022],[6.4240364,44.1427282],[6.4230219,44.1416228],[6.4231012,44.1405034],[6.4227769,44.1389771],[6.4230863,44.1380799],[6.424293,44.1370341],[6.4256816,44.1362899],[6.4256874,44.1356359],[6.4246225,44.1349443],[6.4234228,44.1346044],[6.4232728,44.133264],[6.4240448,44.1321186],[6.4247566,44.1304534],[6.4239697,44.1297592],[6.4241178,44.12903],[6.4252148,44.1284588],[6.4261783,44.128499],[6.4270644,44.1281451],[6.4275895,44.127987],[6.4281453,44.1282623],[6.4282222,44.1284086],[6.428022,44.1286438],[6.427517,44.1288492],[6.4267649,44.1289419],[6.4259354,44.1291554],[6.4251886,44.1293535],[6.4257104,44.1295425],[6.4261471,44.1298738],[6.426271,44.1301983],[6.4267327,44.1299932],[6.4282765,44.1301136],[6.4286137,44.1302142],[6.4287286,44.1300047],[6.4298615,44.1297317],[6.4299986,44.1294292],[6.4305766,44.1293502],[6.4302072,44.1292391],[6.4297333,44.1288286],[6.4295862,44.1284827],[6.4310325,44.1283373],[6.4320762,44.1288765],[6.4332714,44.1287349],[6.434706,44.1281993],[6.4351735,44.1281817],[6.4360778,44.1277133],[6.4365627,44.1279359],[6.4365341,44.1284682],[6.4363226,44.129247],[6.4368145,44.1295673],[6.4375806,44.1299718],[6.4377634,44.1306401],[6.4371863,44.1309995],[6.436086,44.1315236],[6.4358005,44.1322096],[6.436672,44.1331413],[6.437628,44.1333957],[6.4371492,44.1341847],[6.4365268,44.1348361],[6.4377139,44.1362511],[6.4384897,44.1355163],[6.4390431,44.1358758],[6.4391216,44.1369578],[6.4397852,44.1378017],[6.4406277,44.1379871],[6.4419726,44.1378274],[6.4430274,44.1372992],[6.4430394,44.1364311],[6.4422214,44.135539],[6.4425302,44.1346045],[6.4441444,44.1340013],[6.4452789,44.1340666],[6.4469836,44.1336771],[6.4488677,44.1320259],[6.4493818,44.1312412],[6.4493783,44.1300653],[6.4487269,44.1289712],[6.4476809,44.1291873],[6.4466987,44.1302834],[6.4463638,44.1312965],[6.4456434,44.1315004],[6.4440959,44.1315587],[6.4433013,44.1329999],[6.4424138,44.1331515],[6.4418016,44.1325859],[6.4420038,44.1308722],[6.4410354,44.1299082],[6.4399503,44.1295967],[6.439484,44.1287905],[6.4401618,44.1279997],[6.4411866,44.1274907],[6.4427339,44.127432399999999],[6.443433,44.1269357],[6.4445693,44.1268343],[6.4455556,44.1269142],[6.4452504,44.1283381],[6.4465623,44.1284057],[6.4474327,44.1269019],[6.4478027,44.1252415],[6.4473909,44.1240798],[6.4483652,44.122867],[6.449677,44.121817],[6.4502473,44.120678],[6.451109,44.120175],[6.4525793,44.120178],[6.453471,44.1212034],[6.4537526,44.1239603],[6.4532206,44.125387],[6.4522079,44.1272494],[6.4517023,44.1281463],[6.4519691,44.1288676],[6.4526177,44.1287561],[6.452456,44.1308315],[6.4512812,44.131523],[6.4504101,44.1330268],[6.4505787,44.1344103],[6.45184,44.1351764],[6.4526227,44.1355813],[6.4537423,44.1354298],[6.4548974,44.1357666],[6.456178,44.1356874],[6.4557526,44.1331922],[6.4561857,44.1317986],[6.4572075,44.1310527],[6.4579498,44.1316537],[6.4584864,44.1326385],[6.4598971,44.1328372],[6.4609358,44.1327135],[6.4614762,44.1329452],[6.4619674,44.1340993],[6.4619001,44.1347726],[6.4625779,44.1352917],[6.4629811,44.1360305],[6.4620793,44.1371225],[6.4645393,44.1377891],[6.4682297,44.1398203],[6.4703587,44.1409911],[6.4712291,44.1398248],[6.4724444,44.1389403],[6.4727316,44.1380909],[6.4733359,44.1374422],[6.4729497,44.1371091],[6.4723641,44.1363671],[6.4715238,44.135251],[6.4720378,44.1350132],[6.4732041,44.1354056],[6.4734316,44.135397],[6.4735986,44.1345714],[6.4731769,44.1339864],[6.4720854,44.1335911],[6.4708315,44.1330377],[6.4700907,44.1312076],[6.4703571,44.1307057],[6.4729133,44.1314292],[6.473125,44.1322405],[6.4739334,44.13292],[6.4745419,44.1329509],[6.4758959,44.1327904],[6.4767178,44.1330349],[6.4775752,44.1333377],[6.4775921,44.1346674],[6.4778201,44.1355838],[6.4784986,44.136078],[6.4796191,44.1360355],[6.4809804,44.1359837],[6.4821566,44.1366908],[6.4835442,44.1372908],[6.4826797,44.1383478],[6.4839764,44.1391915],[6.4846526,44.1398403],[6.484867,44.1408718],[6.4842676,44.1439429],[6.4836081,44.1474181],[6.4838554,44.147687],[6.4838248,44.1480148],[6.4839443,44.1520563],[6.4847724,44.1548002],[6.4849422,44.15589],[6.4852953,44.157038],[6.4849074,44.1584732],[6.4842445,44.1592074],[6.4844986,44.1602309],[6.4852519,44.1607178]]},"properties":{"source":"Union européenne - SOeS, CORINE Land Cover, 2006."}},
{"type":"Feature","geometry":{"type":"LineString","coordinates":[[6.6580086,44.1408413],[6.6587387,44.140711],[6.6610672,44.139152],[6.6622225,44.1379187],[6.6632395,44.1374822],[6.6648724,44.1372733],[6.6664979,44.1369566],[6.6677231,44.1355662],[6.6666346,44.134476],[6.6649679,44.1332319],[6.6631887,44.1335603],[6.6631993,44.1343523],[6.6621191,44.1352585],[6.6608161,44.1362557],[6.6595878,44.1374953],[6.6583542,44.1386765],[6.6559175,44.1412145],[6.6580086,44.1408413]]},"properties":{"CLC:code":"332","CLC:id":"FR-210228","CLC:year":"2006","natural":"bare_rock","source":"Union européenne - SOeS, CORINE Land Cover, 2006."}},
{"type":"Feature","geometry":{"type":"LineString","coordinates":[[6.4333411,44.0331212],[6.4339298,44.0318399],[6.4333075,44.030787],[6.4337635,44.0299924],[6.4329306,44.0302701],[6.4321917,44.0287544],[6.4324867,44.0285924],[6.4326369,44.0278827],[6.4321917,44.0268336],[6.4329588,44.0264864],[6.433412,44.0267256],[6.4334818,44.0273359],[6.4345735,44.0275548],[6.4350281,44.0277458],[6.4340947,44.027929],[6.4339995,44.0281797],[6.434434,44.0283185],[6.4345198,44.0288161],[6.4352619,44.0298006],[6.437095,44.0298284],[6.438119,44.030326],[6.4386478,44.0302798],[6.4398228,44.029348],[6.439503,44.0286871],[6.4407989,44.0286254],[6.4421896,44.0284548],[6.4430174,44.0273511],[6.4434122,44.0259666],[6.443972,44.024576],[6.4444664,44.0234252],[6.4443366,44.0227751],[6.4419627,44.0232023],[6.4404947,44.0235413],[6.439007,44.0235974],[6.4378238,44.0235294],[6.4368639,44.023282],[6.4367538,44.0226702],[6.4366005,44.0218189],[6.4370342,44.0212916],[6.4376856,44.0205311],[6.4380407,44.0200079],[6.4385892,44.0191977],[6.438861,44.0184264],[6.4389727,44.0177052],[6.439097,44.0173646],[6.4396252,44.016749],[6.4401809,44.016454],[6.4409129,44.0160048],[6.4410443,44.0157463],[6.4411489,44.0155997],[6.4415244,44.0154531],[6.4418283,44.0149788],[6.4421283,44.0148707],[6.442197,44.0137451],[6.4425954,44.0135511],[6.4428985,44.0124071],[6.4423971,44.0118483],[6.4418974,44.0115288],[6.4419036,44.0113159],[6.4416351,44.0112891],[6.4414956,44.0116161],[6.4410879,44.0115659],[6.4406856,44.0120655],[6.4402434,44.0122659],[6.4391489,44.0122727],[6.4402218,44.010359],[6.4414664,44.0104748],[6.4422826,44.0098519],[6.4414235,44.0088312],[6.4417561,44.0081444],[6.4425822,44.0084299],[6.4427261,44.0078436],[6.4432967,44.0066949],[6.4441216,44.0056395],[6.4429561,44.0049917],[6.4423219,44.0042324],[6.4414475,44.0041607],[6.4406455,44.0040863],[6.4402639,44.0052654],[6.4397669,44.0060134],[6.4397832,44.0068748],[6.4405933,44.0072741],[6.440113,44.0082533],[6.4394927,44.0092051],[6.4388564,44.0099245],[6.4387382,44.0108236],[6.4390099,44.0114098],[6.4386431,44.0122314],[6.4380959,44.0126442],[6.4379227,44.0127521],[6.435775,44.0123464],[6.4329573,44.0124526],[6.4319955,44.0131685],[6.4323254,44.0137311],[6.431823,44.0147954],[6.4303172,44.0150085],[6.4271235,44.0149193],[6.4241814,44.0142984],[6.4232878,44.0146324],[6.4220916,44.0141968],[6.4207643,44.0142467],[6.4202874,44.014565],[6.4205708,44.0150349],[6.4200774,44.0161517],[6.4214189,44.0166764],[6.4228712,44.0167266],[6.4246766,44.0176513],[6.426266,44.0175916],[6.428993,44.017228],[6.4330192,44.0168154],[6.4344903,44.0171258],[6.4354975,44.0180286],[6.434953,44.0195132],[6.4322154,44.0197198],[6.4314697,44.019435],[6.4300821,44.0192779],[6.4260519,44.0196387],[6.4251351,44.019986],[6.4250807,44.0212428],[6.4257676,44.0227328],[6.4269842,44.0235244],[6.4279463,44.0228085],[6.4287457,44.0218377],[6.4297574,44.0217996],[6.4303916,44.022559],[6.4300413,44.0237223],[6.4295388,44.0247866],[6.4298341,44.0258738],[6.4307118,44.0269909],[6.4291334,44.0272067],[6.4272823,44.0266495],[6.4259435,44.0261765],[6.4242034,44.0251447],[6.4232648,44.0241862],[6.4224718,44.0222298],[6.4226739,44.0210203],[6.4225573,44.0199005],[6.4206523,44.0196063],[6.4189303,44.0188337],[6.4184719,44.0174926],[6.4178491,44.016888],[6.4161686,44.01669],[6.4127402,44.0153544],[6.4113764,44.0145176],[6.4103621,44.0135101],[6.4100329,44.01319],[6.4094929,44.0126649],[6.4084987,44.0133897],[6.4080539,44.0138182],[6.4076231,44.0144521],[6.406453,44.0150529],[6.4067651,44.015892],[6.4073805,44.0165464],[6.408059,44.0167],[6.4087216,44.0173177],[6.4085438,44.0182291],[6.4096281,44.0182898],[6.4095216,44.0193471],[6.4109773,44.0189562],[6.4119978,44.0196584],[6.4133973,44.0192774],[6.4143079,44.0192433],[6.414586,44.0199328],[6.4144054,44.0205979],[6.4150727,44.0211491],[6.4162645,44.021846],[6.4175727,44.022579],[6.4197733,44.0238143],[6.4198142,44.0251721],[6.4206846,44.0261692],[6.4205764,44.0270375],[6.4200397,44.0275111],[6.4212219,44.0280846],[6.4217907,44.0288453],[6.4205947,44.0296723],[6.4203574,44.030340700000007],[6.42098,44.0310578],[6.4220157,44.0319665],[6.4227283,44.0323516],[6.4243583,44.0327844],[6.4252271,44.0327079],[6.4259413,44.0320137],[6.4268526,44.031284],[6.4277938,44.0309583],[6.4285908,44.0314213],[6.4287899,44.0330669],[6.4283064,44.0341575],[6.427411,44.0351185],[6.4271044,44.0364354],[6.4275301,44.037179],[6.428857,44.0370087],[6.4299921,44.0365801],[6.4303427,44.0347637],[6.4309272,44.0345219],[6.4311054,44.0333528],[6.4318886,44.0327281],[6.4317161,44.0343989],[6.431835,44.0353814],[6.4321569,44.0360525],[6.4328757,44.0369317],[6.4341987,44.0371025],[6.4334489,44.0354174],[6.4349223,44.0353984],[6.4353324,44.0350672],[6.4355462,44.033788],[6.4352146,44.0335688],[6.4344153,44.0332834],[6.4333411,44.0331212]]},"properties":{"source":"Union européenne - SOeS, CORINE Land Cover, 2006."}},