{"type":"FeatureCollection","features":[
{"type":"Feature","geometry":{"type":"Point","coordinates":[7.1108388,49.0866704]},"properties":{"seamark:type":"gate","waterway":"lock_gate"}},
{"type":"Feature","geometry":{"type":"Point","coordinates":[7.1484845,49.0529167]},"properties":{"seamark:type":"gate","waterway":"lock_gate"}},
{"type":"Feature","geometry":{"type":"Point","coordinates":[7.1487629,49.0532564]},"properties":{"seamark:type":"gate","waterway":"lock_gate"}},
{"type":"Feature","geometry":{"type":"Point","coordinates":[7.3189659,48.9169933]},"properties":{"ele":"325","mountain_pass":"yes","name":"Col de Puberg","natural":"tree","note":"The elevation may be rather 323 m, according to Wikipedia article and the source https://www.geoportail.gouv.fr. The sign (350m) is a bit optimistic. >> 2023 new sign indicating 325m","wikidata":"Q16507509"}},
{"type":"Feature","geometry":{"type":"Point","coordinates":[7.2723733,49.0443158]},"properties":{"highway":"crossing"}},
{"type":"Feature","geometry":{"type":"Point","coordinates":[7.1839494,49.1300015]},"properties":{"historic":"boundary_stone"}},
{"type":"Feature","geometry":{"type":"Point","coordinates":[7.1400651,49.0823201]},"properties":{"description:de":"beschädigt","format":"squared_stone","format:top":"flat","historic":"boundary_stone","inscription":";1768;Wolfsangel NS;unleserlich","material":"sandstone","start_date":"1768"}},
{"type":"Feature","geometry":{"type":"Point","coordinates":[7.140795,49.082203]},"properties":{"description":"sehr hoher Stein","format":"squared_stone","format:top":"flat","height":"160","historic":"boundary_stone","inscription":"entfernt;entfernt;1768;Wolfsangel NS","material":"sandstone","start_date":"1768"}},
{"type":"Feature","geometry":{"type":"Point","coordinates":[7.1408515,49.082093]},"properties":{"format":"squared_stone","format:top":"flat","historic":"boundary_stone","inscription":"38;franz Lilie;Wolfsangel NS 1768;Wolfsangel NS","material":"sandstone","ref":"38","start_date":"1768"}},
{"type":"Feature","geometry":{"type":"Point","coordinates":[7.1419132,49.0822673]},"properties":{"format":"squared_stone","format:top":"flat","historic":"boundary_stone","inscription":"franz. Lilie;1768;Wolfsangel NS;39","material":"sandstone","ref":"39","start_date":"1768"}},
{"type":"Feature","geometry":{"type":"Point","coordinates":[7.1437,49.0824958]},"properties":{"format":"squared_stone","format:top":"flat","historic":"boundary_stone","inscription":"franz. Lilie;1768;Wolfsangel NS;41","material":"sandstone","ref":"41","start_date":"1768"}},
{"type":"Feature","geometry":{"type":"Point","coordinates":[7.1469491,49.0892786]},"properties":{"format":"squared_stone","format:top":"flat","historic":"boundary_stone","material":"sandstone"}},
{"type":"Feature","geometry":{"type":"Point","coordinates":[7.1422963,49.0713099]},"properties":{"format":"squared_stone","format:top":"flat","historic":"boundary_stone","material":"sandstone","start_date":"1768"}},
{"type":"Feature","geometry":{"type":"Point","coordinates":[7.1315134,49.1344725]},"properties":{"historic":"memorial","inscription":"Dorf Mandelbach 1239 erstmals erwähnt-heute Teil von Habkirchen","name":"Gedenkstein für das Dorf Mandelbach"}},
{"type":"Feature","geometry":{"type":"Point","coordinates":[7.1316022,49.1343517]},"properties":{"tourism":"picnic_site"}},
{"type":"Feature","geometry":{"type":"Point","coordinates":[7.3077605,49.1283147]},"properties":{"historic":"boundary_stone","man_made":"survey_point","ref":"N5"}},
{"type":"Feature","geometry":{"type":"Point","coordinates":[7.3001413,49.0492028]},"properties":{"disused:railway":"level_crossing","railway:position:exact":"61.881","ref":"80","ref:FR:SNCF_Reseau:RESEAU":"10000011821","source":"BDOrtho IGN;SNCF Réseau"}},
{"type":"Feature","geometry":{"type":"Point","coordinates":[7.1862323,49.1313592]},"properties":{"note":"Picknickplatz 1 Tisch und 2 Bänke","tourism":"picnic_site"}},
{"type":"Feature","geometry":{"type":"Point","coordinates":[7.1478237,49.1210119]},"properties":{"information":"board","tourism":"information"}},
{"type":"Feature","geometry":{"type":"Point","coordinates":[7.1596357,49.1204347]},"properties":{"tourism":"picnic_site"}},
{"type":"Feature","geometry":{"type":"Point","coordinates":[7.147937,49.1209122]},"properties":{"information":"guidepost","note":"seen 16.07.09 -- direction east: Glan-Blies, velovisavis","tourism":"information"}},
{"type":"Feature","geometry":{"type":"Point","coordinates":[7.1842348,49.131511]},"properties":{"information":"guidepost","note":"direction north: Bliesgau; direction west: SLR, Glan-Blies, Bliesgau; direction south: SLR, Glan-Blies","tourism":"information"}},
{"type":"Feature","geometry":{"type":"Point","coordinates":[7.0817963,49.0207773]},"properties":{"seamark:type":"gate","waterway":"lock_gate"}},
{"type":"Feature","geometry":{"type":"Point","coordinates":[7.2654049,49.0584282]},"properties":{"historic":"memorial","name":"Half Track M16"}},
{"type":"Feature","geometry":{"type":"Point","coordinates":[7.1291559,49.1344387]},"properties":{"castle_type":"defensive","historic":"castle","name":"Ruines du Château de Frauenberg","place":"locality","ruins":"yes"}},
{"type":"Feature","geometry":{"type":"Point","coordinates":[7.1277128,49.1368037]},"properties":{"natural":"tree"}},
{"type":"Feature","geometry":{"type":"Point","coordinates":[7.1276382,49.1368525]},"properties":{"natural":"tree"}},
{"type":"Feature","geometry":{"type":"Point","coordinates":[7.1277016,49.136718]},"properties":{"natural":"tree"}},
{"type":"Feature","geometry":{"type":"Point","coordinates":[7.1276483,49.1367633]},"properties":{"natural":"tree"}},
{"type":"Feature","geometry":{"type":"Point","coordinates":[7.1275737,49.1368121]},"properties":{"natural":"tree"}},
{"type":"Feature","geometry":{"type":"Point","coordinates":[7.1276409,49.1369396]},"properties":{"natural":"tree"}},
{"type":"Feature","geometry":{"type":"Point","coordinates":[7.1276996,49.1368838]},"properties":{"natural":"tree"}},
{"type":"Feature","geometry":{"type":"Point","coordinates":[7.1277061,49.1369755]},"properties":{"natural":"tree"}},
{"type":"Feature","geometry":{"type":"Point","coordinates":[7.1275795,49.1369083]},"properties":{"natural":"tree"}},
{"type":"Feature","geometry":{"type":"Point","coordinates":[7.127515,49.1368679]},"properties":{"natural":"tree"}},
{"type":"Feature","geometry":{"type":"Point","coordinates":[7.1278275,49.1367896]},"properties":{"natural":"tree"}},
{"type":"Feature","geometry":{"type":"Point","coordinates":[7.1277742,49.1368349]},"properties":{"natural":"tree"}},
{"type":"Feature","geometry":{"type":"Point","coordinates":[7.1278927,49.1368255]},"properties":{"natural":"tree"}},
{"type":"Feature","geometry":{"type":"Point","coordinates":[7.1277661,49.1367583]},"properties":{"natural":"tree"}},
{"type":"Feature","geometry":{"type":"Point","coordinates":[7.1277647,49.1369197]},"properties":{"natural":"tree"}},
{"type":"Feature","geometry":{"type":"Point","coordinates":[7.1278394,49.1368709]},"properties":{"natural":"tree"}},
{"type":"Feature","geometry":{"type":"Point","coordinates":[7.15975,49.14019]},"properties":{"description:de":"beschädigt","format":"squared_stone","format:top":"flat","historic":"boundary_stone","material":"sandstone","source":"49.14019,7.15975"}},
{"type":"Feature","geometry":{"type":"Point","coordinates":[7.15958,49.13189]},"properties":{"historic":"boundary_stone","source":"49.13189,7.15958"}},
{"type":"Feature","geometry":{"type":"Point","coordinates":[7.2644106,49.0507229]},"properties":{"natural":"spring"}},
{"type":"Feature","geometry":{"type":"Point","coordinates":[7.1372185,49.0771802]},"properties":{"seamark:type":"gate","waterway":"lock_gate"}},
{"type":"Feature","geometry":{"type":"Point","coordinates":[7.1372156,49.0768003]},"properties":{"seamark:type":"gate","waterway":"lock_gate"}},
{"type":"Feature","geometry":{"type":"Point","coordinates":[7.1487272,49.0541789]},"properties":{"fee":"yes","leisure":"marina","name":"Le Port de Wittring","seamark:harbour:category":"marina","seamark:name":"Le Port de Wittring","seamark:type":"harbour","website":"http://www.leau-reine.fr/?page_id=153"}},
{"type":"Feature","geometry":{"type":"Point","coordinates":[7.2812459,48.9078006]},"properties":{"natural":"spring"}},
{"type":"Feature","geometry":{"type":"Point","coordinates":[7.2737058,49.097452]},"properties":{"tourism":"picnic_site"}},
{"type":"Feature","geometry":{"type":"Point","coordinates":[7.3097964,49.135415]},"properties":{"name":"Auf der Burg","tourism":"picnic_site"}},
{"type":"Feature","geometry":{"type":"Point","coordinates":[7.3458684,48.9648193]},"properties":{"historic:civilization":"modern","name":"Ancien tunnel remblayé","name:de":"eingestürzter Eisenbahntunnel","tourism":"attraction"}},
{"type":"Feature","geometry":{"type":"Point","coordinates":[7.3437243,48.9637573]},"properties":{"historic:civilization":"modern","name":"Ancien tunnel remblayé","name:de":"eingestürzter Eisenbahntunnel","tourism":"attraction"}},
{"type":"Feature","geometry":{"type":"Point","coordinates":[7.32014,48.997586]},"properties":{"artwork_type":"statue","description":"Saint Jean Népomucène au dessus d'une fontaine","image":"https://souchtclubvosgien.files.wordpress.com/2019/11/dscf2179.jpga_.jpg","name":"Johannes Nepomuk","name:fr":"Jean Népomucène","source":"Club vosgien Soucht;montbronn.fr","source:url":"https://www.montbronn.fr/services/calvaire-14-v1/","tourism":"artwork"}},
{"type":"Feature","geometry":{"type":"Point","coordinates":[7.1861156,49.1301707]},"properties":{"railway":"border","railway:name:DB":"Reinheim (Saar) Grenze","railway:position:exact":"11.772","railway:ref:DB":"SXRH"}},
{"type":"Feature","geometry":{"type":"Point","coordinates":[7.2613155,49.1079429]},"properties":{"denomination":"catholic","historic":"memorial","inscription":"AVE MARIA GRATIA PLENA - A NOTRE-DAME DE LA PAIX 15.8.1950 - KÖNIGIN DES FRIEDENS ERHALTE UNS DEN FRIEDEN","material":"stone","memorial":"statue","religion":"christian","start_date":"1950"}},
{"type":"Feature","geometry":{"type":"Point","coordinates":[7.2411703,49.1305103]},"properties":{"ele":"387","name":"Totenkopf","natural":"peak"}},
{"type":"Feature","geometry":{"type":"Point","coordinates":[7.1958478,49.0484685]},"properties":{"historic":"ruins","name":"Casemate Nord-Est d'Achen","note":"ligne Maginot"}},
{"type":"Feature","geometry":{"type":"Point","coordinates":[7.2449047,49.0547329]},"properties":{"historic":"monument","name":"Casemate de Bining","name:de":"Bininger Blockhaus","name:en":"Bining bunker","note":"ligne Maginot"}},
{"type":"Feature","geometry":{"type":"Point","coordinates":[7.1515263,49.05116]},"properties":{"building":"yes","historic":"yes","name":"Tour de filtration d'air datant de la seconde guerre mondiale"}},
{"type":"Feature","geometry":{"type":"Point","coordinates":[7.199375,49.1194253]},"properties":{"ele":"366","name":"Brücker Berg","natural":"peak"}},
{"type":"Feature","geometry":{"type":"Point","coordinates":[7.1776869,49.1143895]},"properties":{"historic":"memorial"}},
{"type":"Feature","geometry":{"type":"Point","coordinates":[7.176743,48.9523658]},"properties":{"information":"office","source":"knowledge","tourism":"information"}},
{"type":"Feature","geometry":{"type":"Point","coordinates":[7.1743791,49.1142149]},"properties":{"historic":"memorial"}},
{"type":"Feature","geometry":{"type":"Point","coordinates":[7.3552316,48.9876103]},"properties":{"addr:city":"Saint-Louis-lès-Bitche","addr:postcode":"57620","addr:street":"Rue Coëtlosquet","alt_name":"La Grande Place","alt_name:fr":"La Grande Place","email":"accueil.musee@saint-louis.com","museum":"art;technology","name":"Musée du Cristal","name:de":"Das Kristall-Museum","name:en":"The Cristal Museum","name:fr":"Musée du Cristal","operator":"Cristalleries Saint-Louis","operator:type":"private","phone":"+33 3 87 06 64 70","tourism":"museum","wheelchair":"yes","wikidata":"Q6943610","wikipedia":"fr:La Grande Place musée du cristal Saint-Louis"}},
{"type":"Feature","geometry":{"type":"Point","coordinates":[7.3473805,49.0584539]},"properties":{"denomination":"catholic","historic":"wayside_shrine","name":"Notre-Dame de Fatima","religion":"christian"}},
{"type":"Feature","geometry":{"type":"Point","coordinates":[7.3464521,49.0454881]},"properties":{"tourism":"picnic_site"}},
{"type":"Feature","geometry":{"type":"Point","coordinates":[7.197554,49.0808467]},"properties":{"barrier":"yes"}},
{"type":"Feature","geometry":{"type":"Point","coordinates":[7.3226592,49.1248163]},"properties":{"name":"Ruisseau le Bachelbach","natural":"spring"}},
{"type":"Feature","geometry":{"type":"Point","coordinates":[7.3201889,49.0657998]},"properties":{"name":"Ruisseau le Bierbach","natural":"spring"}},
{"type":"Feature","geometry":{"type":"Point","coordinates":[7.3323,49.0264]},"properties":{"name":"Ruisseau le Steschbach","natural":"spring"}},
{"type":"Feature","geometry":{"type":"Point","coordinates":[7.2527787,48.9522808]},"properties":{"ele":"323","name":"Mittelberg","natural":"peak","source":"Direction Générale des Finances Publiques - cadastre.  Mise à jour : 2012"}},
{"type":"Feature","geometry":{"type":"Point","coordinates":[7.285073,48.9724508]},"properties":{"name":"Gross Katzenkopf","name:de":"Groß Katzenkopf","natural":"peak"}},
{"type":"Feature","geometry":{"type":"Point","coordinates":[7.2030409,48.9712498]},"properties":{"ele":"264","name":"Steinberg","natural":"peak","source":"Direction Générale des Finances Publiques - Cadastre;mise à jour : 2011"}},
{"type":"Feature","geometry":{"type":"Point","coordinates":[7.3515839,49.0807797]},"properties":{"historic":"ruins"}},
{"type":"Feature","geometry":{"type":"Point","coordinates":[7.3529036,49.0740893]},"properties":{"tourism":"picnic_site"}},
{"type":"Feature","geometry":{"type":"Point","coordinates":[7.3067263,48.9934213]},"properties":{"barrier":"kissing_gate","bicycle":"permissive","foot":"yes","motor_vehicle":"no","source":"streetlevel imagery"}},
{"type":"Feature","geometry":{"type":"Point","coordinates":[7.1522056,49.1144614]},"properties":{"source":"survey","source:date":"2013-02-22","tourism":"viewpoint"}},
{"type":"Feature","geometry":{"type":"Point","coordinates":[7.1616304,49.1117102]},"properties":{"leisure":"picnic_table","lit":"no","material":"wood","source":"survey","source:date":"2012-12-29"}},
{"type":"Feature","geometry":{"type":"Point","coordinates":[7.2120715,49.1098888]},"properties":{"historic":"wayside_cross","name":"Erigée en 1760"}},
{"type":"Feature","geometry":{"type":"Point","coordinates":[7.1946594,49.1165101]},"properties":{"barrier":"kissing_gate"}},
{"type":"Feature","geometry":{"type":"Point","coordinates":[7.1982097,49.1154123]},"properties":{"historic":"boundary_stone"}},
{"type":"Feature","geometry":{"type":"Point","coordinates":[7.3544359,48.953932]},"properties":{"alt_name":"Dreipeterstein","description":"County of Bitche or Bitsch (north and west) County of (Hanau-)Lichtenberg (east) County of La Petite-Pierre or Lützelstein (south)","ele":"380","heritage:operator":"mhs","mhs:inscription_date":"1931","name":"Dreipeterstein","name:en":"Three Peters Stone","name:fr":"Pierre des trois Pierre","note":"Technically part of the Hanau-Lorraine boundary stones since it marks the beginning of the border","ref:mhs":"PA00084918","source":"data.gouv.fr:Ministère de la Culture - 08/2011;Club vosgien Soucht","tourism":"attraction","wikidata":"Q3387782","wikipedia":"fr:Pierre des trois Pierre de Meisenthal"}},
{"type":"Feature","geometry":{"type":"Point","coordinates":[7.262771,49.111208]},"properties":{"description":"Steinkreuz mit Metall - Kruzifix; errichtet auf einem Sockel neben einer Garageneinfahrt.","ele":"305","historic":"wayside_cross","image":"https://commons.wikimedia.org/wiki/File:Croix_Erching_01.jpg","inscription":"O CRUX AVE SPES UNICA = O Kreuz sei gegrüßt einzige Hoffnung.","material":"stone","religion":"christian"}},
{"type":"Feature","geometry":{"type":"Point","coordinates":[7.222564,49.0569436]},"properties":{"castle_type":"fortress","historic":"castle","name":"Ouvrage du Welschhof","name:en":"Ouvrage Welschhof","tourism":"attraction","wikidata":"Q3358787","wikipedia":"fr:Ouvrage du Welschhof"}},
{"type":"Feature","geometry":{"type":"Point","coordinates":[7.2963257,49.0487023]},"properties":{"crossing:markings":"zebra","highway":"crossing","source":"Bing"}},
{"type":"Feature","geometry":{"type":"Point","coordinates":[7.29967,49.0491386]},"properties":{"crossing:markings":"zebra","highway":"crossing","source":"Bing"}},
{"type":"Feature","geometry":{"type":"Point","coordinates":[7.3002204,49.0492129]},"properties":{"disused:railway":"level_crossing","railway:position:exact":"61.881","ref":"80","ref:FR:SNCF_Reseau:RESEAU":"10000011821","source":"BDOrtho IGN;SNCF Réseau"}},
{"type":"Feature","geometry":{"type":"Point","coordinates":[7.300731,49.0492815]},"properties":{"crossing:markings":"zebra","highway":"crossing","source":"Bing"}},
{"type":"Feature","geometry":{"type":"Point","coordinates":[7.3013852,49.0493688]},"properties":{"highway":"crossing","source":"Bing"}},
{"type":"Feature","geometry":{"type":"Point","coordinates":[7.3030148,49.0495711]},"properties":{"highway":"crossing","source":"Bing"}},
{"type":"Feature","geometry":{"type":"Point","coordinates":[7.3044284,49.0497561]},"properties":{"highway":"crossing","source":"Bing"}},
{"type":"Feature","geometry":{"type":"Point","coordinates":[7.3073746,49.0501521]},"properties":{"crossing:markings":"zebra","highway":"crossing","source":"Bing"}},
{"type":"Feature","geometry":{"type":"Point","coordinates":[7.3081347,49.0502483]},"properties":{"crossing:markings":"zebra","highway":"crossing","source":"Bing"}},
{"type":"Feature","geometry":{"type":"Point","coordinates":[7.2234861,49.0674655]},"properties":{"direction":"backward","highway":"give_way"}},
{"type":"Feature","geometry":{"type":"Point","coordinates":[7.2729442,49.1062254]},"properties":{"historic":"memorial"}},
{"type":"Feature","geometry":{"type":"Point","coordinates":[7.2877076,48.9096383]},"properties":{"natural":"tree"}},
{"type":"Feature","geometry":{"type":"Point","coordinates":[7.1124152,49.0648526]},"properties":{"leisure":"slipway"}},
{"type":"Feature","geometry":{"type":"Point","coordinates":[7.3161566,48.9072499]},"properties":{"tourism":"picnic_site"}},
{"type":"Feature","geometry":{"type":"Point","coordinates":[7.1307403,48.9995834]},"properties":{"historic":"memorial","memorial":"war_memorial","name":"Monument aux Morts"}},
{"type":"Feature","geometry":{"type":"Point","coordinates":[7.2666145,49.1093264]},"properties":{"historic":"memorial","name":"Grubenlok"}},
{"type":"Feature","geometry":{"type":"Point","coordinates":[7.168895,49.085427]},"properties":{"historic":"memorial","image":"https://commons.wikimedia.org/wiki/File:Statue_du_Christ_%C3%A0_Wiesviller.jpg","inscription":"En reconnaissance au Sacré Cœur de Jésus, Paroisse de Wieswiller-Woelfling Voeu du 3.12.1944","memorial":"statue","name":"Statue du Sacré Cœur"}},
{"type":"Feature","geometry":{"type":"Point","coordinates":[7.2668255,49.0451581]},"properties":{"historic":"memorial"}},
{"type":"Feature","geometry":{"type":"Point","coordinates":[7.3334866,48.9581013]},"properties":{"addr:city":"Soucht","addr:postcode":"57960","description":"Haut piédestal avec épaulements concaves avec trois saints : les deux supérieurs non identifiables, l’un tenant un bâton, Saint Hubert au niveau inférieur. Croix récente avec Christ de petite taille.","historic":"wayside_cross","name":"Hammer's Kreiz","name:de":"Hammerskreuz","note":"On reconnaît une certaine similitude entre les personnages du Hammer’s Kreiz et du Schwartze’s Kreiz,  ce qui pourrait permettre de supposer qu’il s’agit du travail d’un même artisan.","source":"Club vosgien Soucht;souchtcalvaires.over-blog.com;streetlevel imagery","website":"http://souchtcalvaires.over-blog.com/2018/03/calvaire-n-12-hammer-s-kreiz.html"}},
{"type":"Feature","geometry":{"type":"Point","coordinates":[7.3046488,49.1251301]},"properties":{"historic":"boundary_stone","man_made":"survey_point"}},
{"type":"Feature","geometry":{"type":"Point","coordinates":[7.3049633,49.1258248]},"properties":{"historic":"boundary_stone","man_made":"survey_point"}},
{"type":"Feature","geometry":{"type":"Point","coordinates":[7.3060064,49.1272355]},"properties":{"historic":"boundary_stone","man_made":"survey_point"}},
{"type":"Feature","geometry":{"type":"Point","coordinates":[7.3060708,49.1272794]},"properties":{"description":"Steinkreuz in einer Baumgruppe, Inschrift im unteren Teil.","ele":"372","historic":"wayside_cross","image":"https://commons.wikimedia.org/wiki/File:Wegkreuz_Utweiler_01.jpg","inscription":"yes","material":"stone","religion":"christian"}},
{"type":"Feature","geometry":{"type":"Point","coordinates":[7.3060798,49.12728]},"properties":{"description":"Steinkreuz mit Stufensockel, Höhe ca 4 m, Inschriften im unteren u. mittleren Bereich.","historic":"wayside_cross","image":"https://commons.wikimedia.org/wiki/File:Wegkreuz_Utweiler_02.jpg","inscription":"yes","material":"sandstone","religion":"christian"}},
{"type":"Feature","geometry":{"type":"Point","coordinates":[7.3068556,49.1275128]},"properties":{"historic":"boundary_stone","man_made":"survey_point","ref":"N4"}},
{"type":"Feature","geometry":{"type":"Point","coordinates":[7.3092697,49.1289647]},"properties":{"date":"1826","historic":"boundary_stone","ref":"N6"}},
{"type":"Feature","geometry":{"type":"Point","coordinates":[7.3141412,49.1294054]},"properties":{"historic":"memorial"}},
{"type":"Feature","geometry":{"type":"Point","coordinates":[7.2652995,49.04573]},"properties":{"crossing:island":"no","crossing:signals":"yes","highway":"crossing"}},
{"type":"Feature","geometry":{"type":"Point","coordinates":[7.2652586,49.0457862]},"properties":{"highway":"traffic_signals","traffic_signals:direction":"forward"}},
{"type":"Feature","geometry":{"type":"Point","coordinates":[7.2651566,49.0459246]},"properties":{"highway":"traffic_signals","traffic_signals:direction":"backward"}},
{"type":"Feature","geometry":{"type":"Point","coordinates":[7.2651212,49.0459719]},"properties":{"crossing:island":"no","crossing:signals":"yes","highway":"crossing","tactile_paving":"yes"}},
{"type":"Feature","geometry":{"type":"Point","coordinates":[7.2123904,49.1200321]},"properties":{"historic":"wayside_cross"}},
{"type":"Feature","geometry":{"type":"Point","coordinates":[7.2657069,49.0452429]},"properties":{"highway":"crossing"}},
{"type":"Feature","geometry":{"type":"Point","coordinates":[7.3097543,49.1353324]},"properties":{"description":"Sehr hohes Kreuz mit Kruzifix; errichtet auf einem gemauerten Sockel aus Kalksteinen.","description:de":"Ein Jahrtausend nach der ersten urkundlichen Erwähnung des Ortes Riesweiler Anno Domini 960. Wieder errichtet im Jahre des Herrn 1992.","ele":"370.5","historic":"wayside_cross","image":"https://commons.wikimedia.org/wiki/File:Wegkreuz_Riesweler_01.0.jpg","inscription":"Als Kreuz des Friedens mit den Wunden des Krieges","material":"sandstone","name":"Friedenskreuz","name:fr":"Croix de la Liberté","religion":"christian","start_date":"1992 Wiedererrichtung"}},
{"type":"Feature","geometry":{"type":"Point","coordinates":[7.2994433,49.0491089]},"properties":{"SNCF:stop_name":"Petit-Réderching - N 62","alt_name":"Petit-Réderching - N 62","alt_name:de":"Kleinrederchingen - N 62","bus":"yes","highway":"bus_stop","name":"Meyerhoff - Gare","name:de":"Meyerhof - Bahnhof","name:en":"Meyerhof - Station","network":"Fluo Grand Est 57;TER Grand Est","network:wikidata":"Q37800073","operator":"Conseil Départemental de la Moselle;SNCF","public_transport":"platform","shelter":"yes","source":"aerial imagery;streetlevel imagery"}},
{"type":"Feature","geometry":{"type":"Point","coordinates":[7.2649052,49.0462661]},"properties":{"bus":"yes","fixme":"position","highway":"bus_stop","name":"Rohrbach-lès-Bitche - Rue des Alliés","name:de":"Rohrbach bei Bitsch - Alliiertenstraße","name:en":"Rohrbach-lès-Bitche - Allies Street","public_transport":"stop_position","uic_ref":"8719378"}},
{"type":"Feature","geometry":{"type":"Point","coordinates":[7.1757171,49.0911176]},"properties":{"direction":"backward","highway":"give_way","source":"Bing"}},
{"type":"Feature","geometry":{"type":"Point","coordinates":[7.3253546,49.1387987]},"properties":{"description":"Schwarze Inschrifttafel ü. d. Sockel, Marienrelief in einer Nische, Kruzifix aus dem selben Material wie das Kreuz.","ele":"321","historic":"wayside_cross","image":"https://commons.wikimedia.org/wiki/File:Croix_Ormesviller_01.jpg","inscription":"Errichtet zur Ehre Gottes Familie Neu","material":"sandstone","name":"Fam. Neu","religion":"christian"}},
{"type":"Feature","geometry":{"type":"Point","coordinates":[7.3022705,49.1095421]},"properties":{"description":"Steinkreuz, Höhe ca 3 m.","ele":"350","heritage":"no","historic":"wayside_cross","image":"https://commons.wikimedia.org/wiki/File:Croix_Eppingen_01.jpg","material":"sandstone"}},
{"type":"Feature","geometry":{"type":"Point","coordinates":[7.2735475,49.1098991]},"properties":{"description":"Kreuz mit Kruzifix und Figuren als Relief, Inschrifttafel weiß. Schrift nicht lesbar.","ele":"306","historic":"wayside_cross","image":"https://commons.wikimedia.org/wiki/File:Croix_Guiderkirch_01.jpg","material":"sandstone","religion":"christian"}},
{"type":"Feature","geometry":{"type":"Point","coordinates":[7.2592423,49.1156779]},"properties":{"description":"Steinkreuz mit Kruzifix und schwarzer Inschrifttafel; errichtet auf einem Stufensockel.","ele":"354","historic":"wayside_cross","image":"https://commons.wikimedia.org/wiki/File:Croix_Erching_02.jpg","inscription":"yes","material":"granite","religion":"christian"}},
{"type":"Feature","geometry":{"type":"Point","coordinates":[7.3321923,48.9956526]},"properties":{"ele":"376","name":"Steffensberg","natural":"peak","source":"Cadastre"}},
{"type":"Feature","geometry":{"type":"Point","coordinates":[7.3193705,48.9850072]},"properties":{"ele":"361","name":"Motschberg","natural":"peak","source":"IGN"}},
{"type":"Feature","geometry":{"type":"Point","coordinates":[7.3414555,49.0026491]},"properties":{"ele":"360","name":"Bebersberg","natural":"peak"}},
{"type":"Feature","geometry":{"type":"Point","coordinates":[7.3049714,48.9980326]},"properties":{"ele":"346","name":"Muehlberg","name:de":"Mühlberg","natural":"peak","source":"IGN;Cadastre"}},
{"type":"Feature","geometry":{"type":"Point","coordinates":[7.3109074,48.9869001]},"properties":{"name":"Heidenkopf","natural":"peak"}},
{"type":"Feature","geometry":{"type":"Point","coordinates":[7.2887285,49.0030508]},"properties":{"ele":"330","name":"Glashuettenberg","name:de":"Glashüttenberg","natural":"peak","source":"IGN"}},
{"type":"Feature","geometry":{"type":"Point","coordinates":[7.2699127,49.0048078]},"properties":{"name":"Hirschkopf","natural":"peak"}},
{"type":"Feature","geometry":{"type":"Point","coordinates":[7.2796646,49.0073907]},"properties":{"ele":"318","name":"Mohrenkopf","natural":"peak","source":"IGN"}},
{"type":"Feature","geometry":{"type":"Point","coordinates":[7.2992281,49.0127432]},"properties":{"ele":"341","name":"Muehlkopf","name:de":"Mühlkopf","natural":"peak","source":"IGN"}},
{"type":"Feature","geometry":{"type":"Point","coordinates":[7.3056826,48.9931202]},"properties":{"barrier":"kissing_gate","bicycle":"permissive","foot":"yes","motor_vehicle":"no","source":"streetlevel imagery"}},
{"type":"Feature","geometry":{"type":"Point","coordinates":[7.278355,48.9920664]},"properties":{"ele":"327","name":"Kohlkopf","natural":"peak","source":"Cadastre;IGN"}},
{"type":"Feature","geometry":{"type":"Point","coordinates":[7.2678729,48.9874635]},"properties":{"ele":"306","name":"Hammerkopf","natural":"peak"}},
{"type":"Feature","geometry":{"type":"Point","coordinates":[7.2623973,48.9511097]},"properties":{"ele":"323","name":"Burg","natural":"peak","source":"IGN"}},
{"type":"Feature","geometry":{"type":"Point","coordinates":[7.2526448,48.9626068]},"properties":{"ele":"344","name":"Heidenkopf","natural":"peak","source":"IGN"}},
{"type":"Feature","geometry":{"type":"Point","coordinates":[7.3189215,48.9703035]},"properties":{"ele":"366","name":"Kleeberg","natural":"peak","source":"IGN"}},
{"type":"Feature","geometry":{"type":"Point","coordinates":[7.3413656,48.966004]},"properties":{"ele":"382","name":"Klausenberg","natural":"peak","note":"Also spelled \"Clausenberg\""}},
{"type":"Feature","geometry":{"type":"Point","coordinates":[7.3453399,48.9595363]},"properties":{"ele":"370","name":"Heidenberg","natural":"peak","source":"Cadastre"}},
{"type":"Feature","geometry":{"type":"Point","coordinates":[7.3544604,48.9807564]},"properties":{"ele":"366","name":"Franzosenkopf","natural":"peak"}},
{"type":"Feature","geometry":{"type":"Point","coordinates":[7.3048247,48.9560761]},"properties":{"ele":"394","name":"Kreitzerkopf","name:de":"Kreuzerskopf","natural":"peak","source":"Cadastre & IGN"}},
{"type":"Feature","geometry":{"type":"Point","coordinates":[7.2902476,49.019483]},"properties":{"name":"Michelskopf","natural":"peak","source":"IGN"}},
{"type":"Feature","geometry":{"type":"Point","coordinates":[7.354011,49.0151892]},"properties":{"ele":"407","name":"Lenscheiterberg","name:de":"Ländscheiderberg","natural":"peak","source":"IGN et cartes cadastrales"}},
{"type":"Feature","geometry":{"type":"Point","coordinates":[7.3471664,49.0379799]},"properties":{"ele":"385","name":"Sonnenberg","natural":"peak","source":"IGN"}},
{"type":"Feature","geometry":{"type":"Point","coordinates":[7.3286765,49.0116698]},"properties":{"ele":"350","name":"Stephanusberg","natural":"peak","source":"Cadastre"}},
{"type":"Feature","geometry":{"type":"Point","coordinates":[7.3311098,49.0149052]},"properties":{"name":"Farberg","natural":"peak","source":"Cadastre & IGN"}},
{"type":"Feature","geometry":{"type":"Point","coordinates":[7.3274493,49.0157084]},"properties":{"name":"Naulingerberg","natural":"peak","source":"Cadastre"}},
{"type":"Feature","geometry":{"type":"Point","coordinates":[7.1286631,49.0614959]},"properties":{"abandoned":"yes","building":"bunker","historic":"yes","military":"bunker"}},
{"type":"Feature","geometry":{"type":"Point","coordinates":[7.1291798,49.0617803]},"properties":{"abandoned":"yes","building":"bunker","historic":"yes","military":"bunker"}},
{"type":"Feature","geometry":{"type":"Point","coordinates":[7.1424924,49.082343]},"properties":{"format":"squared_stone","format:top":"flat","historic":"boundary_stone","inscription":"franz. Lilie;1768;Wolfsangel NS;40","material":"sandstone","ref":"40","start_date":"1768"}},
{"type":"Feature","geometry":{"type":"Point","coordinates":[7.1257995,49.0824454]},"properties":{"description":"hohes Sandsteinkreuz mit Kruzifix und Muttergottes auf Altar, teilbemalt","heritage":"no","historic":"wayside_cross","start_date":"1809"}},
{"type":"Feature","geometry":{"type":"Point","coordinates":[7.1467788,49.0884075]},"properties":{"format":"squared_stone","format:top":"flat","historic":"boundary_stone","material":"sandstone"}},
{"type":"Feature","geometry":{"type":"Point","coordinates":[7.1483586,49.0893209]},"properties":{"description:de":"verwittert","format":"squared_stone","format:top":"flat","historic":"boundary_stone","inscription":";WW;;","material":"sandstone"}},
{"type":"Feature","geometry":{"type":"Point","coordinates":[7.1496635,49.0893306]},"properties":{"description":"Holzkreuz mit Rückwand u Dach, Metalkruzifix","heritage":"no","historic":"wayside_cross"}},
{"type":"Feature","geometry":{"type":"Point","coordinates":[7.1530002,49.0945718]},"properties":{"description":"Steinkreuz mit Metalkruzifix auf Steinsockel","heritage":"no","historic":"wayside_cross"}},
{"type":"Feature","geometry":{"type":"Point","coordinates":[7.13986,49.0823171]},"properties":{"board_type":"history","information":"board","name":"Bornes historique de 1766","tourism":"information"}},
{"type":"Feature","geometry":{"type":"Point","coordinates":[7.16465,49.0821504]},"properties":{"description":"aufwendiges Steinkreuz mit Kruzifix und Figurengruppe auf Steinsockel und Altar","heritage":"no","historic":"wayside_cross","inscription":"Dieses Creuz hat zu ehren Gottes lase erict Nicolas Huber Anna Weber","name":"Huber-Weber","start_date":"1761"}},
{"type":"Feature","geometry":{"type":"Point","coordinates":[7.1705995,49.0834994]},"properties":{"description":"Steinkreuz auf Steinsockel","heritage":"no","historic":"wayside_cross"}},
{"type":"Feature","geometry":{"type":"Point","coordinates":[7.1862036,49.0861702]},"properties":{"description":"kleines Steinkreuz auf Steinsockel mit Figurennische","heritage":"no","historic":"wayside_cross"}},
{"type":"Feature","geometry":{"type":"Point","coordinates":[7.1629492,49.0877822]},"properties":{"description":"Steinkreuz mit Metalkruzifix auf Steinsockel","heritage":"no","historic":"wayside_cross"}},
{"type":"Feature","geometry":{"type":"Point","coordinates":[7.1827311,49.0881598]},"properties":{"description":"Steinkreuz auf Steinsockel","heritage":"no","historic":"wayside_cross"}},
{"type":"Feature","geometry":{"type":"Point","coordinates":[7.1411922,49.0883371]},"properties":{"description:de":"beschädigt","format":"squared_stone","format:top":"flat","historic":"boundary_stone","material":"sandstone"}},
{"type":"Feature","geometry":{"type":"Point","coordinates":[7.1879242,49.0904839]},"properties":{"description":"Steinkreuz auf Steinsockel","heritage":"no","historic":"wayside_cross"}},
{"type":"Feature","geometry":{"type":"Point","coordinates":[7.171435,49.0931904]},"properties":{"description":"kleines Steinkreuz auf Steinsockel mit Figurennische","heritage":"no","historic":"wayside_cross","name":"Croix Pétri"}},
{"type":"Feature","geometry":{"type":"Point","coordinates":[7.1998329,49.0986138]},"properties":{"ele":"350","natural":"peak"}},
{"type":"Feature","geometry":{"type":"Point","coordinates":[7.1927327,49.0944098]},"properties":{"description":"aux Soldatd de la 44. Division...","historic":"memorial","name":"70ans de Liberation","start_date":"2015"}},
{"type":"Feature","geometry":{"type":"Point","coordinates":[7.3170528,49.1128243]},"properties":{"historic":"memorial","memorial":"war_memorial","name":"Monument aux Morts"}},
{"type":"Feature","geometry":{"type":"Point","coordinates":[7.3256731,49.0022783]},"properties":{"name":"Schorstenloch","natural":"spring"}},
{"type":"Feature","geometry":{"type":"Point","coordinates":[7.3218577,48.9302408]},"properties":{"alt_name":"Pierre Pointue","ele":"387","historic":"stone","name":"Spitzstein"}},
{"type":"Feature","geometry":{"type":"Point","coordinates":[7.3380479,48.9527096]},"properties":{"name":"Kammerfelsen","natural":"cave_entrance","note":"Called \"Kaminerfelsen\" on the Vogesenclub's map from 1903","source":"Club vosgien Soucht"}},
{"type":"Feature","geometry":{"type":"Point","coordinates":[7.2619736,49.1242895]},"properties":{"historic":"boundary_stone","inscription":"23"}},
{"type":"Feature","geometry":{"type":"Point","coordinates":[7.1931159,49.0930337]},"properties":{"board_type":"notice","direction":"117","information":"board","name":"Forêt Communale Wiesviller-Wœlfling","name:de":"Kommunalwald Wiesweiler-Wölflingen","tourism":"information"}},
{"type":"Feature","geometry":{"type":"Point","coordinates":[7.1474823,49.0519722]},"properties":{"seamark:type":"gate","waterway":"lock_gate"}},
{"type":"Feature","geometry":{"type":"Point","coordinates":[7.1356617,49.0576129]},"properties":{"natural":"tree"}},
{"type":"Feature","geometry":{"type":"Point","coordinates":[7.1355785,49.0576428]},"properties":{"natural":"tree"}},
{"type":"Feature","geometry":{"type":"Point","coordinates":[7.1354444,49.057663]},"properties":{"natural":"tree"}},
{"type":"Feature","geometry":{"type":"Point","coordinates":[7.1353801,49.0576665]},"properties":{"natural":"tree"}},
{"type":"Feature","geometry":{"type":"Point","coordinates":[7.1356174,49.0576006]},"properties":{"board_type":"history","information":"board","name":"La Ligne Maginot aquatique","tourism":"information"}},
{"type":"Feature","geometry":{"type":"Point","coordinates":[7.14918,49.0533416]},"properties":{"bicycle":"yes","information":"map","map_size":"region","map_type":"topo","name":"Vallée de la Sarre - Itinéraire cyclable","tourism":"information"}},
{"type":"Feature","geometry":{"type":"Point","coordinates":[7.1491264,49.0532836]},"properties":{"bicycle":"yes","direction_north":"Sarreguemines 12.5 km;Zetting 5.7 km","direction_southwest":"Sarralbe 10.8 km;Herbitzheim 6.8 km","information":"guidepost","lcn":"yes","network":"lcn","tourism":"information"}},
{"type":"Feature","geometry":{"type":"Point","coordinates":[7.137318,49.0781793]},"properties":{"board_type":"history","information":"board","name":"L'Église Saint-Marcel de Zetting","tourism":"information"}},
{"type":"Feature","geometry":{"type":"Point","coordinates":[7.1375151,49.0773624]},"properties":{"bicycle":"yes","direction_north":"Sarreguemines 6.8 km;Sarreinsming 2.6 km","direction_south":"Sarralbe 16.5 km;Wittring D 11 5.7 km","information":"guidepost","lcn":"yes","network":"lcn","tourism":"information"}},
{"type":"Feature","geometry":{"type":"Point","coordinates":[7.1375392,49.0772534]},"properties":{"bicycle":"yes","direction_east":"Gros-Rederching 11.7 km;Wiesviller 3.9 km","information":"guidepost","lcn":"yes","network":"lcn","tourism":"information"}},
{"type":"Feature","geometry":{"type":"Point","coordinates":[7.1374675,49.0768203]},"properties":{"bicycle":"yes","information":"map","map_size":"region","map_type":"topo","name":"Vallée de la Sarre - Itinéraire cyclable","tourism":"information"}},
{"type":"Feature","geometry":{"type":"Point","coordinates":[7.1371785,49.0750361]},"properties":{"covered":"no","leisure":"picnic_table","seats":"6"}},
{"type":"Feature","geometry":{"type":"Point","coordinates":[7.1372268,49.0751231]},"properties":{"covered":"no","leisure":"picnic_table","seats":"6"}},
{"type":"Feature","geometry":{"type":"Point","coordinates":[7.1372858,49.0752575]},"properties":{"covered":"no","leisure":"picnic_table","seats":"6"}},
{"type":"Feature","geometry":{"type":"Point","coordinates":[7.1278967,49.0872012]},"properties":{"information":"board","tourism":"information"}},
{"type":"Feature","geometry":{"type":"Point","coordinates":[7.1254786,49.0828149]},"properties":{"information":"board","name":"Sentier des bornes","operator":"Club vosgien Sarreguemines","tourism":"information"}},
{"type":"Feature","geometry":{"type":"Point","coordinates":[7.3023094,49.1247726]},"properties":{"heritage":"4","historic":"wayside_cross","start_date":"18C"}},
{"type":"Feature","geometry":{"type":"Point","coordinates":[7.3428297,49.0527686]},"properties":{"ele":"350","name":"Helmsberg","natural":"peak","source":"IGN"}},
{"type":"Feature","geometry":{"type":"Point","coordinates":[7.296951,49.0422105]},"properties":{"ele":"330","name":"Totenberg","natural":"peak","source":"IGN"}},
{"type":"Feature","geometry":{"type":"Point","coordinates":[7.2909384,49.0440757]},"properties":{"ele":"328","name":"Rimesberg","natural":"peak","source":"IGN"}},
{"type":"Feature","geometry":{"type":"Point","coordinates":[7.3419307,49.0220893]},"properties":{"ele":"360","name":"Kremelerberg","natural":"peak","source":"Cadastre"}},
{"type":"Feature","geometry":{"type":"Point","coordinates":[7.3460261,49.022108]},"properties":{"name":"Vereneskopf","natural":"peak","source":"Cadastre"}},
{"type":"Feature","geometry":{"type":"Point","coordinates":[7.3385272,49.01628]},"properties":{"name":"Klockenberg","natural":"peak","source":"Cadastre"}},
{"type":"Feature","geometry":{"type":"Point","coordinates":[7.3327611,49.0356483]},"properties":{"name":"Merschberg","natural":"peak","source":"Cadastre"}},
{"type":"Feature","geometry":{"type":"Point","coordinates":[7.3490801,48.9950534]},"properties":{"ele":"391","name":"Steinberg","natural":"peak","source":"IGN"}},
{"type":"Feature","geometry":{"type":"Point","coordinates":[7.3366224,48.9547396]},"properties":{"ele":"370","name":"Bergel","natural":"peak","source":"Cadastre"}},
{"type":"Feature","geometry":{"type":"Point","coordinates":[7.3194121,48.9602776]},"properties":{"ele":"320","name":"Dimmelbacher Heidenberg","natural":"peak","source":"Cadastre"}},
{"type":"Feature","geometry":{"type":"Point","coordinates":[7.3258362,48.9544873]},"properties":{"name":"Dreyersthaler Heidenberg","name:de":"Dreherstaler Heidenberg","natural":"peak","source":"Cadastre"}},
{"type":"Feature","geometry":{"type":"Point","coordinates":[7.3279342,48.955205]},"properties":{"ele":"363","name":"Kuppenberg","natural":"peak","source":"Cadastre"}},
{"type":"Feature","geometry":{"type":"Point","coordinates":[7.3436372,48.9622602]},"properties":{"ele":"360","name":"Kukuksberg","natural":"peak","source":"Cadastre;IGN"}},
{"type":"Feature","geometry":{"type":"Point","coordinates":[7.3333797,48.9642042]},"properties":{"ele":"373","name":"Monbronner Berg","name:de":"Mombronner Berg","name:fr":"Montbronner Berg","name:pfl":"Mummerer Berg","natural":"peak","source":"Cadastre"}},
{"type":"Feature","geometry":{"type":"Point","coordinates":[7.3209744,48.9581794]},"properties":{"name":"Scheidwaeldel","name:de":"Scheidwäldel","natural":"wood","source":"Cadastre"}},
{"type":"Feature","geometry":{"type":"Point","coordinates":[7.315375,48.9507918]},"properties":{"ele":"382","name":"Spitzensteinerkopf","natural":"peak","source":"Cadastre"}},
{"type":"Feature","geometry":{"type":"Point","coordinates":[7.3111935,48.9613945]},"properties":{"ele":"355","name":"Muehlenkopf","name:de":"Mühlenkopf","natural":"peak","source":"IGN"}},
{"type":"Feature","geometry":{"type":"Point","coordinates":[7.3219004,48.9591933]},"properties":{"ele":"331","name":"Thalerberg","name:de":"Talerberg","natural":"peak","source":"Cadastre"}},
{"type":"Feature","geometry":{"type":"Point","coordinates":[7.3205749,48.9468686]},"properties":{"ele":"396","name":"Klingelthalerberg","name:de":"Klingeltalerberg","natural":"peak","source":"IGN"}},
{"type":"Feature","geometry":{"type":"Point","coordinates":[7.3545015,48.9701708]},"properties":{"ele":"357","name":"Heidenberg","natural":"peak","source":"Cadastre"}},
{"type":"Feature","geometry":{"type":"Point","coordinates":[7.3566121,48.9618004]},"properties":{"ele":"355","name":"Hutzelberg","natural":"peak","source":"IGN"}},
{"type":"Feature","geometry":{"type":"Point","coordinates":[7.1513244,49.0553692]},"properties":{"tourism":"viewpoint"}},
{"type":"Feature","geometry":{"type":"Point","coordinates":[7.2416608,49.0115529]},"properties":{"ele":"333","name":"Mehlkopp","name:de":"Mehlkopf","natural":"peak","source":"Cadastre"}},
{"type":"Feature","geometry":{"type":"Point","coordinates":[7.2840133,49.0273752]},"properties":{"ele":"328","name":"Schaefernickelsberg","natural":"peak","source":"Cadastre"}},
{"type":"Feature","geometry":{"type":"Point","coordinates":[7.3050085,48.9981393]},"properties":{"historic":"wayside_cross","source":"IGN"}},
{"type":"Feature","geometry":{"type":"Point","coordinates":[7.3340861,48.9513798]},"properties":{"addr:city":"Soucht","addr:postcode":"57960","description":"Croix lorraine typique à haut piédestal légèrement bombé portant trois saints : Catherine – Marguerite – Saint Hubert. Croix droite à base en congé avec colombe. Christ à bras dissymétriques. Croix ancienne utilisée pour localiser les champs aux alentours","historic":"wayside_cross","name":"Schwartzes's Kreiz","name:de":"Schwartzeskreuz","source":"Club vosgien Soucht;IGN;souchtcalvaires.over-blog.com;aerial imagery;streetlevel imagery","website":"http://souchtcalvaires.over-blog.com/2018/03/calvaire-n-5-schwartzes-s-kreiz.html"}},
{"type":"Feature","geometry":{"type":"Point","coordinates":[7.2773829,49.0064481]},"properties":{"historic":"memorial","inscription":"En Hommage à l'équipage d'un Bombardier Lancaster du 466ème Escadron mort dans la nuit du 18 juillet 1944 MORTS POUR NOTRE LIBERTÉ","material":"stone","memorial":"war_memorial","name":"Monument aux Aviateurs","website":"https://monumentsmorts.univ-lille3.fr/monmorts/upload/monument/11401-11600/11561/dscn1365montbronnd110f_537106d6c3772.JPG"}},
{"type":"Feature","geometry":{"type":"Point","coordinates":[7.2728163,49.0224636]},"properties":{"ele":"311","historic":"tomb","name":"Tumulus de Bining","name:de":"Binninger Hügelgrab","name:en":"Bining's tumulus","source":"Club vosgien Soucht","tomb":"tumulus"}},
{"type":"Feature","geometry":{"type":"Point","coordinates":[7.2722439,49.02078]},"properties":{"denotation":"natural_monument","leaf_type":"leafless","name":"Gross Eich","name:de":"Groß Eich","name:fr":"Gros Chêne","natural":"tree","source":"Club vosgien Soucht"}},
{"type":"Feature","geometry":{"type":"Point","coordinates":[7.2867722,48.9766701]},"properties":{"name":"Klein Katzenkopf","natural":"peak","source":"Club vosgien","website":"http://gallica.bnf.fr/ark:/12148/btv1b10223996p/f1.item.r=karte lützelstein"}},
{"type":"Feature","geometry":{"type":"Point","coordinates":[7.32525,48.9953843]},"properties":{"description":"Croix à niches.\nLe Bon Pasteur : Gloria in Exelsis Deo\nLa Naissance du Christ : Deo Gratias\nErigée par deux sœurs qui habitaient au Hiwel place De Gaulle. Elle a été rénovée en 2004 par M Jung et les Amis de la Chapelle.","historic":"wayside_cross","image":"https://www.montbronn.fr/wp-content/uploads/2021/07/Circuit-rouge-calvaire-19-image-06.jpeg","inscription":"Zur Bethlehems Krippe auf Stroh und Heu\nAuf Golgothaspitze o Mensch dir zum Heil\nErrichtet zu Ehre Gottes durch Gerdrud und Elisabeth Rimlinger\n1903","source":"montbronn.fr;streetlevel imagery","source:url":"https://www.montbronn.fr/services/calvaire-12-v1-2/","start_date":"1903"}},
{"type":"Feature","geometry":{"type":"Point","coordinates":[7.3147516,48.9873803]},"properties":{"historic":"wayside_cross"}},
{"type":"Feature","geometry":{"type":"Point","coordinates":[7.3117066,49.0433358]},"properties":{"natural":"spring","source":"Cadastre"}},
{"type":"Feature","geometry":{"type":"Point","coordinates":[7.3123808,49.0424612]},"properties":{"natural":"spring","source":"Cadastre"}},
{"type":"Feature","geometry":{"type":"Point","coordinates":[7.3128507,49.0451525]},"properties":{"natural":"spring","source":"Cadastre"}},
{"type":"Feature","geometry":{"type":"Point","coordinates":[7.2957533,49.0069179]},"properties":{"historic":"wayside_cross","source":"streetlevel imagery"}},
{"type":"Feature","geometry":{"type":"Point","coordinates":[7.2958257,49.0069163]},"properties":{"historic":"wayside_cross","source":"streetlevel imagery"}},
{"type":"Feature","geometry":{"type":"Point","coordinates":[7.2956757,49.0074036]},"properties":{"historic":"wayside_cross","source":"streetlevel imagery"}},
{"type":"Feature","geometry":{"type":"Point","coordinates":[7.3187282,48.977684000000007]},"properties":{"fixme":"exact location","name":"Deiwelfelsen","natural":"rock","source":"Club vosgien Soucht"}},
{"type":"Feature","geometry":{"type":"Point","coordinates":[7.3217298,48.9648709]},"properties":{"fixme":"exact location","name":"Jaegerfelsen","name:de":"Jägerfelsen","natural":"rock","source":"Club vosgien Soucht"}},
{"type":"Feature","geometry":{"type":"Point","coordinates":[7.3438571,48.9641065]},"properties":{"addr:city":"Soucht","addr:postcode":"57960","description":"Croix récente à piédestal bombé portant un rameau de lierre, croix droite à angles échancrés en quart de rond avec petite croix superposée avec Christ.","historic":"wayside_cross","inscription":"LOUE SOIT JESUS CHRIST","name":"S'Weissekreitz","name:de":"Weissen Kreuz","name:en":"White Cross","source":"Club vosgien Soucht;souchtcalvaires.over-blog.com;streetlevel imagery","website":"http://souchtcalvaires.over-blog.com/2018/03/calvaire-n-8-weisse-kreiz.html"}},
{"type":"Feature","geometry":{"type":"Point","coordinates":[7.3245076,48.9479168]},"properties":{"name":"Laïebrennel","name:de":"Laïebrunnen","natural":"spring","source":"Club vosgien Soucht"}},
{"type":"Feature","geometry":{"type":"Point","coordinates":[7.3178485,48.9491523]},"properties":{"addr:city":"Soucht","addr:postcode":"57960","fixme":"exact location","name":"Stratzelfelsen","natural":"rock"}},
{"type":"Feature","geometry":{"type":"Point","coordinates":[7.3011392,49.0038726]},"properties":{"historic":"wayside_cross","name":"S'Weissekreitz","name:de":"Weissen Kreuz","name:en":"White Cross","source":"streetlevel imagery;survey"}},
{"type":"Feature","geometry":{"type":"Point","coordinates":[7.338403,48.9882294]},"properties":{"description":"Pauluskapell 45mn Speckbronn 1h Soucht 1h45","information":"guidepost","operator":"Club vosgien Soucht","source":"Club vosgien Soucht","tourism":"information"}},
{"type":"Feature","geometry":{"type":"Point","coordinates":[7.2181479,48.9925156]},"properties":{"addr:city":"Rahling","addr:postcode":"57410","historic":"wayside_cross","source":"streetlevel imagery"}},
{"type":"Feature","geometry":{"type":"Point","coordinates":[7.2127937,49.0212821]},"properties":{"ele":"350","name":"Mohrenberg","natural":"peak","source":"IGN"}},
{"type":"Feature","geometry":{"type":"Point","coordinates":[7.2280606,49.0045438]},"properties":{"ele":"328","name":"Bledelberg","natural":"peak","note":"Named \"Herlenberg\" on the IGN map.","source":"Cadastre;IGN"}},
{"type":"Feature","geometry":{"type":"Point","coordinates":[7.2085142,49.0028231]},"properties":{"name":"Hoellenberg","name:de":"Höllenberg","natural":"peak","source":"Cadastre;IGN"}},
{"type":"Feature","geometry":{"type":"Point","coordinates":[7.2317046,48.9884243]},"properties":{"historic":"wayside_cross","name":"S'Hammerer Kreitz","name:de":"Hammerer Kreuz","source":"IGN"}},
{"type":"Feature","geometry":{"type":"Point","coordinates":[7.2093039,49.0102818]},"properties":{"name":"Lupersberg","natural":"peak","source":"Cadastre;IGN"}},
{"type":"Feature","geometry":{"type":"Point","coordinates":[7.3104762,49.0068896]},"properties":{"name":"Fromberg","natural":"peak","source":"Cadastre 1829"}},
{"type":"Feature","geometry":{"type":"Point","coordinates":[7.1508742,49.0536804]},"properties":{"abandoned":"yes","building":"bunker","historic":"yes","military":"bunker","name":"Blockhaus de Wittring"}},
{"type":"Feature","geometry":{"type":"Point","coordinates":[7.1331778,49.0358621]},"properties":{"abandoned":"yes","building":"bunker","bunker_type":"blockhouse","historic":"yes","military":"bunker","name":"Ligne Maginot- Weidesheim 6"}},
{"type":"Feature","geometry":{"type":"Point","coordinates":[7.1326745,49.0368235]},"properties":{"abandoned":"yes","building":"bunker","bunker_type":"blockhouse","historic":"yes","military":"bunker","name":"Ligne Maginot - Weidesheim 5"}},
{"type":"Feature","geometry":{"type":"Point","coordinates":[7.3277663,48.9498015]},"properties":{"ele":"384","name":"Hollertkopf","natural":"peak","note":"Source : Carte du Comté de Bitche levée par le Sr. Jaquet, chevalier de l'ordre militaire de St. Louis et aide major des ville et château de Bitche en l'année 1749","source":"Carte du comté de Bitche 1749;IGN"}},
{"type":"Feature","geometry":{"type":"Point","coordinates":[7.1288853,49.0387468]},"properties":{"source":"BDOrhto IGN"}},
{"type":"Feature","geometry":{"type":"Point","coordinates":[7.3384532,48.9675755]},"properties":{"description":"Meisenthal par Clausenberg 15' Colonne 45' Schieresthal 45' Soucht 30' Pauluskapelle par le chemin des Herrgöttle 1h Meisenthal 20' St Louis les Bitche 1h30' Abri à 300m","information":"guidepost","operator":"Club vosgien Soucht","source":"Club vosgien Soucht;survey","tourism":"information"}},
{"type":"Feature","geometry":{"type":"Point","coordinates":[7.3304316,48.9655374]},"properties":{"description":"Coupeheisel 15' St Louis-les-B. 1h40 Meisenthal 30' La Colonne 1h Pauluskapelle par les Herrgoettle 45' St Louis-les-B. 1h45 Speckbronn 1h15 Soucht 15' Kammerfelsen 35' Rosteig 1h30 Neumuehle -karting- 20'","ele":"348","information":"guidepost","name":"Carrefour Sieben Beim","name:de":"Kreuzweg Sieben Bäumen","name:en":"Seven trees crossroad","operator":"Club vosgien Soucht","source":"Club vosgien Soucht;survey","source:url":"https://souchtclubvosgien.files.wordpress.com/2019/03/dscf3214.aa_.jpg","tourism":"information"}},
{"type":"Feature","geometry":{"type":"Point","coordinates":[7.3186416,48.9776231]},"properties":{"description":"Pauluskapell 20' Klosterbrennel 20'","ele":"310","information":"guidepost","name":"Rocher Deiwelfelsen","operator":"Club vosgien Soucht","source":"Club vosgien Soucht;survey","tourism":"information"}},
{"type":"Feature","geometry":{"type":"Point","coordinates":[7.3173743,48.9964918]},"properties":{"description":"Vierge des 7 douleurs\nJean Konrad a été écrasé par une voiture à cette place.","historic":"wayside_cross","image":"https://www.montbronn.fr/wp-content/uploads/2021/07/Circuit-rouge-calvaire-12-image-06.jpeg","inscription":"Errichtet zur Ehre Gottes durch die Eheleute Johann Georg Konrad Katharina Schneider 1892","source":"montbronn.fr;streetlevel imagery","source:url":"https://www.montbronn.fr/services/calvaire-12-v1/","start_date":"1892"}},
{"type":"Feature","geometry":{"type":"Point","coordinates":[7.3183432,48.9968309]},"properties":{"historic":"wayside_cross","image":"https://www.montbronn.fr/wp-content/uploads/2021/07/Circuit-rouge-calvaire-13-image-05.jpeg","note":"Feuille emmurée ?\nPromesse de dire le chapelet tous les 13 du mois.","source":"montbronn.fr;aerial imagery;streetlevel imagery","source:url":"https://www.montbronn.fr/services/calvaire-13-v1/","start_date":"1964"}},
{"type":"Feature","geometry":{"type":"Point","coordinates":[7.3207659,49.022464]},"properties":{"historic":"wayside_cross","image":"https://photos.google.com/share/AF1QipM7Efrr0J2tXjU3bQfVVeCJdPCWJQbP1ZksWE1t46poPOAQp0YpTvBZ7rcxJIQwpg/photo/AF1QipMXLyWCHzf2L0KmTy9Na1SHXLt2IkkGXE088wZI?key=Nlp3VU52eWRPMXFKSlhLejVzdFhTakdiTlcxMUdn"}},
{"type":"Feature","geometry":{"type":"Point","coordinates":[7.3324021,49.0028426]},"properties":{"description":"Croix à niche","historic":"wayside_cross","image":"https://www.montbronn.fr/wp-content/uploads/2021/07/Circuit-rouge-calvaire-17-image-06.jpeg","inscription":"Errichtet zur Ehre Gottes\nDurch die Eheleute\nChristian Mehlinger\nMarie Salladin\n1926","source":"montbronn.fr;streetlevel imagery;survey","source:url":"https://www.montbronn.fr/services/calvaire-15-v1-2/","start_date":"1926"}},
{"type":"Feature","geometry":{"type":"Point","coordinates":[7.2002007,49.0010859]},"properties":{"name":"Klein Hansenbrunnen","natural":"spring","source":"Cadastre 1830;BD Carthage"}},
{"type":"Feature","geometry":{"type":"Point","coordinates":[7.2859687,48.9595031]},"properties":{"historic":"tomb","inscription":"Zum Andenken an die hier unglücklich gestorbene M. JAMING geb. MOSER 21.7.1926.","note":"Source: https://lh3.googleusercontent.com/6eBd-yBDbbOhPiPBOAVAA-4d1HLvYDs6Y1FBHGESpALnXBQiGqi8I5m9pLkNR00vJQr4n8Gp4oMhgtGcM-AD3b5vbDId6a-0XQLALMNsbmGcA71ObOSZnHii6Hxmwz4tq2Fm1fC4NFzO9xAS9KbSKtI8h5FGEbfqD71URqKwHvAe3cBaA3ndygnKOi3jwTgpDptSKdPZ52Dy26rURbati","source":"Club vosgien Bitche;gps;survey","tomb":"tombstone"}},
{"type":"Feature","geometry":{"type":"Point","coordinates":[7.316643,48.9836289]},"properties":{"description":"Croix à niche. C'est à quelques mètres à côté de cette croix que le socle de la croix N°I du circuit rouge a été trouvé. Les autres parties étaient à 5 ou 6 mètres plus bas.","fixme":"precise location","historic":"wayside_cross","image":"https://www.montbronn.fr/wp-content/uploads/2021/07/Circuit-Jaune-Calvaire-3-image-05.jpeg","inscription":"Errichtet durch die Familie ADAM EHRHARD und Elisabeth FERSTLER Madlehn Christian und Mather zu Ehre Gottes und zum Trost der armen Seelen","name":"Motschbergerkreuz","name:de":"Motschbergerkreuz","name:en":"Motschberg Cross","name:fr":"Croix du Motschberg","note":"Das Kreuz ist Eigentum von Madeleine Ehrhardt","source":"montbronn.fr;gps;survey","source:url":"https://www.montbronn.fr/services/calvaire-3-v1-3/","start_date":"1896"}},
{"type":"Feature","geometry":{"type":"Point","coordinates":[7.3112857,48.9805233]},"properties":{"description":"Outils de la Passion.\nTrès grande et belle Piéta, avec une particularité, la sainte Vierge porte le Fils sur le bras gauche, sur toutes les Piétas au village, elle le porte sur le bras droit.\nMari décédé à cet endroit, âgé de 39 ans.","historic":"wayside_cross","image":"https://www.montbronn.fr/wp-content/uploads/2021/07/circuit-jaune-Calvaire-1-image-09.jpeg","inscription":"Errichtet zur Ehre Gottes und zum Trost der armen Seelen durch Alois Hilt und seine Ehfrau Magd. Walter im Jahre 1910","note":"Déplacée sur la propriété de M. Schmitt par Ott Clément et rénovée par M. Jung et les Amis de la Chapelle","source":"montbronn.fr;gps;survey","source:url":"https://www.montbronn.fr/services/calvaire-1-2-v1-3/","start_date":"1910"}},
{"type":"Feature","geometry":{"type":"Point","coordinates":[7.3251427,48.9685066]},"properties":{"description":"Soucht 20'\nMeisenthal 35'\nPauluskapelle 40'","information":"guidepost","operator":"Club vosgien Soucht","source":"Club vosgien Soucht;gps;survey","tourism":"information"}},
{"type":"Feature","geometry":{"type":"Point","coordinates":[7.3250922,48.9684943]},"properties":{"description":"Jaegerfelsen 10'\nKlosterbrinnel 15'\nSiebenbäume 10'\nPauluskapell 30'","information":"guidepost","operator":"Club vosgien Soucht","source":"Club vosgien Soucht;gps;survey","tourism":"information"}},
{"type":"Feature","geometry":{"type":"Point","coordinates":[7.3289434,48.9553432]},"properties":{"ele":"355","information":"guidepost","name":"Rocher Schuhfelsen","name:de":"Schuhfelsen","name:en":"Schuhfelsen Rock","operator":"Club vosgien Soucht","source":"Club vosgien Soucht;gps;survey","tourism":"information"}},
{"type":"Feature","geometry":{"type":"Point","coordinates":[7.3289434,48.9553277]},"properties":{"name":"Schuhfelsen","natural":"rock","source":"Club vosgien Soucht;gps;survey"}},
{"type":"Feature","geometry":{"type":"Point","coordinates":[7.3304218,48.9524201]},"properties":{"description":"source Hollertbrinnel à 30m","information":"guidepost","operator":"Club vosgien Soucht","source":"Club vosgien Soucht;gps;survey","tourism":"information"}},
{"type":"Feature","geometry":{"type":"Point","coordinates":[7.3301241,48.953887]},"properties":{"addr:city":"Soucht","addr:postcode":"57960","description":"Calvaire érigé en remerciement pour la survie au cours de la guerre 14-18 de Jean Gehl. Croix moderne à piédestal en imitation de rochers avec instruments de la Passion. Croix écotée de section circulaire avec Christ.","historic":"wayside_cross","inscription":"Errichtet zur Ehre Gottes durch die Eheleute Nicolas Gehl, Regina Gehl Heilige Maria, Königin des Friedens bitte für uns.","name":"Rein's Kreiz","name:de":"Reinskreuz","source":"Club vosgien Soucht;souchtcalvaires.over-blog.com;gps;streetlevel imagery;survey","website":"http://souchtcalvaires.over-blog.com/2018/03/calvaire-n-03-rein-s-kreiz.html"}},
{"type":"Feature","geometry":{"type":"Point","coordinates":[7.3298725,48.9524325]},"properties":{"ele":"330","information":"guidepost","name":"source Hollertbrinnel","name:de":"Quelle Hollertbrünnel","operator":"Club vosgien Soucht","source":"Club vosgien Soucht;gps;survey","tourism":"information"}},
{"type":"Feature","geometry":{"type":"Point","coordinates":[7.315531,49.0829644]},"properties":{"name":"Kahlenbrunn","name:de":"Kahlenbrunnen","natural":"spring","source":"Cadastre 1829;IGN 1950;IGN"}},
{"type":"Feature","geometry":{"type":"Point","coordinates":[7.2301451,48.9425417]},"properties":{"archaeological_site":"rock_art","historic":"archaeological_site","name":"Roche écrite","name:de":"Beschriebener Felsen"}},
{"type":"Feature","geometry":{"type":"Point","coordinates":[7.2529784,48.9218994]},"properties":{"name":"Relais Gîte Equestre","tourism":"trail_riding_station"}},
{"type":"Feature","geometry":{"type":"Point","coordinates":[7.3080476,48.9655528]},"properties":{"name":"Gite équestre de la vallée","tourism":"trail_riding_station"}},
{"type":"Feature","geometry":{"type":"Point","coordinates":[7.3497616,49.05972]},"properties":{"name":"Gite d'étape du Vasenberg","tourism":"trail_riding_station"}},
{"type":"Feature","geometry":{"type":"Point","coordinates":[7.2990441,49.0490569]},"properties":{"crossing:markings":"zebra","highway":"crossing"}},
{"type":"Feature","geometry":{"type":"Point","coordinates":[7.1323753,48.9271518]},"properties":{"denotation":"natural_monument","leaf_cycle":"deciduous","leaf_type":"broadleaved","natural":"tree"}},
{"type":"Feature","geometry":{"type":"Point","coordinates":[7.3363058,48.9140528]},"properties":{"ele":"373","name":"Pfriemenkopf","natural":"peak"}},
{"type":"Feature","geometry":{"type":"Point","coordinates":[7.3583093,48.9190282]},"properties":{"tourism":"viewpoint"}},
{"type":"Feature","geometry":{"type":"Point","coordinates":[7.3222702,48.9302575]},"properties":{"ele":"387","name":"Spitzsteinerkopf","natural":"peak"}},
{"type":"Feature","geometry":{"type":"Point","coordinates":[7.3193886,48.9600571]},"properties":{"fixme":"precise location","name":"Heidenfelsen","natural":"rock","source":"Club vosgien Soucht"}},
{"type":"Feature","geometry":{"type":"Point","coordinates":[7.3119481,48.9498232]},"properties":{"name":"Spitzstein","natural":"rock","source":"Club vosgien Soucht"}},
{"type":"Feature","geometry":{"type":"Point","coordinates":[7.31808,49.0109437]},"properties":{"description":"Montbronn stade 1h15\n<--\nEnchenberg église 30'\n-->","information":"guidepost","operator":"Club vosgien Soucht","source":"Club vosgien Soucht;gps;survey","tourism":"information"}},
{"type":"Feature","geometry":{"type":"Point","coordinates":[7.2969191,48.9951866]},"properties":{"historic":"wayside_cross","source":"aerial imagery"}},
{"type":"Feature","geometry":{"type":"Point","coordinates":[7.3534417,48.9895008]},"properties":{"addr:city":"Saint-Louis-lès-Bitche","addr:postcode":"57620","addr:street":"Cité Albert","historic":"memorial","memorial":"statue","name":"Statue du Sacré-Cœur","source":"aerial imagery;streetlevel imagery"}},
{"type":"Feature","geometry":{"type":"Point","coordinates":[7.3530512,49.0053804]},"properties":{"fixme":"missing information","information":"guidepost","name":"Finsterbach","operator":"Club vosgien Lemberg","source":"Club vosgien Lemberg;streetlevel imagery","tourism":"information"}},
{"type":"Feature","geometry":{"type":"Point","coordinates":[7.3536078,48.9890395]},"properties":{"fixme":"missing information","information":"guidepost","operator":"Club vosgien Lemberg","source":"Club vosgien Lemberg;streetlevel imagery","tourism":"information"}},
{"type":"Feature","geometry":{"type":"Point","coordinates":[7.3532324,48.9881001]},"properties":{"fixme":"missing information","information":"guidepost","operator":"Club vosgien Lemberg","source":"Club vosgien Lemberg;streetlevel imagery","tourism":"information"}},
{"type":"Feature","geometry":{"type":"Point","coordinates":[7.3566275,48.986953]},"properties":{"description":"Col Finsterbach 40'\nEnchenberg 1h\nSchieresthal 35'\nMeisenthal 50'","information":"guidepost","operator":"Club vosgien Lemberg","source":"Club vosgien Lemberg;streetlevel imagery","tourism":"information"}},
{"type":"Feature","geometry":{"type":"Point","coordinates":[7.3567336,48.9869655]},"properties":{"description":"Goetzenbruck 50'","information":"guidepost","operator":"Club vosgien Lemberg","source":"Club vosgien Lemberg;streetlevel imagery","tourism":"information"}},
{"type":"Feature","geometry":{"type":"Point","coordinates":[7.3315248,48.9533883]},"properties":{"addr:city":"Soucht","addr:postcode":"57960","description":"Calvaire érigé par la famille en mémoire de deux fils tombés en 14/18, Victor et Etienne Sarter. Croix moderne à triple piédestal, le supérieur avec niche élancée dans laquelle se trouvait une statuette à l’origine (trou de scellement visible).","historic":"wayside_cross","inscription":"Errichtet zur Ehre Gottes durch die Eheleute Charles Sarter-Rosa Dimnet zum Andenken an die Gefallenen Söhne Etienne 1914, Victor 1917.","name":"Jaeger's Kreiz","name:de":"Jägerskreuz","source":"Club vosgien Soucht;souchtcalvaires.over-blog.com;streetlevel imagery","website":"http://souchtcalvaires.over-blog.com/2018/03/calvaire-n-4-jager-s-kreiz-2.html"}},
{"type":"Feature","geometry":{"type":"Point","coordinates":[7.341859,48.9564408]},"properties":{"addr:city":"Soucht","addr:postcode":"57960","description":"Croix avec double piédestal, le supérieur avec niche renfermant une statuette de la vierge. Fronton à acrotères, Christ de petite taille sur une croix rapportée à angles d’intersection échancrés.","historic":"wayside_cross","inscription":"Jesus Barmherzigkeit Familie KARL 1940","name":"Karl's Kreiz","name:de":"Karlskreuz","source":"Club vosgien Soucht;souchtcalvaires.over-blog.com;streetlevel imagery","website":"http://souchtcalvaires.over-blog.com/2018/03/calvaire-n-7-karl-s-kreiz.html"}},
{"type":"Feature","geometry":{"type":"Point","coordinates":[7.3394865,48.9607839]},"properties":{"addr:city":"Soucht","addr:postcode":"57960","description":"Croix moderne à piédestal à fronton en arc avec motif floral stylisé. A la base en relief, croix, ancre et cœur en flammes. Extrémités de la croix ouvragées, Christ à bras en V ouvert. Calvaire signé E. MOSER MEISENTHAL.","historic":"wayside_cross","inscription":"Errichtet zur Ehre Gottes von Johann Fritsch im Jahre 1903. O Jesus, Barmherzigkeit ! (100 Tage Ablass) O Jesus, sei mir nicht Richter sondern Erlöser ( 50 Tage Ablass)","source":"Club vosgien Soucht;souchtcalvaires.over-blog.com;aerial imagery;streetlevel imagery","website":"http://souchtcalvaires.over-blog.com/2018/03/calvaire-n-9.html"}},
{"type":"Feature","geometry":{"type":"Point","coordinates":[7.3366146,48.9592254]},"properties":{"addr:city":"Soucht","addr:postcode":"57960","description":"Croix lorraine à piédestal légèrement bombé avec deux saints reposant sur un arc saillant, les têtes placées sous des arcatures. Tailloir mouluré. Base de la croix épanouie. Croix droite avec Christ et au-dessous Marie Madeleine reposant sur un arc.","historic":"wayside_cross","inscription":"Sei gegriset mein Herr Jesu Christ der am Critz gestorbe ist durch das bitere Leiden und Sterben. Las mich in keiner Sind verderben. Dieses Creitz hat lassen aufrichten zur Ehre Gottes der Ehrsame Nicolaus Lanv und Magdalena Straiflerin im Jahre Christi 1","name":"Langleo's Kreiz","name:de":"Langleoskreuz","source":"Club vosgien Soucht;souchtcalvaires.over-blog.com;streetlevel imagery","website":"http://souchtcalvaires.over-blog.com/2018/03/calvaire-n-10-langleo-s-kreiz.html"}},
{"type":"Feature","geometry":{"type":"Point","coordinates":[7.3346371,48.9583668]},"properties":{"addr:city":"Soucht","addr:postcode":"57960","description":"Croix lorraine à piédestal bombé avec colombe du Saint-Esprit et deux personnages. Croix droite paraissant plus récente avec Christ en V assez ouvert.","historic":"wayside_cross","source":"Club vosgien Soucht;souchtcalvaires.over-blog.com;streetlevel imagery","website":"http://souchtcalvaires.over-blog.com/2018/03/calvaire-n-1.html"}},
{"type":"Feature","geometry":{"type":"Point","coordinates":[7.3348819,48.957646]},"properties":{"addr:city":"Soucht","addr:postcode":"57960","description":"Grande croix de type lorrain sur un socle avec inscription illisible. Haut piédestal bombé avec sainte et motifs de feuillages stylisés en arc. Croix droite avec Christ paraissant plus récent.","historic":"wayside_cross","inscription":"O Crux Ave Spes Unica Ave Maria","source":"Club vosgien Soucht;souchtcalvaires.over-blog.com;streetlevel imagery","website":"http://souchtcalvaires.over-blog.com/2018/03/calvaire-n-2.html"}},
{"type":"Feature","geometry":{"type":"Point","coordinates":[7.3352826,48.9589427]},"properties":{"addr:city":"Soucht","addr:postcode":"57960","description":"Croix à très haut piédestal avec inscription surmontée d’un tailloir saillant. Croix élancée tréflée avec Christ rapporté.","historic":"wayside_cross","inscription":"Von Pest Hunger und Krieg erlöse uns O Herr. Errichtet durch Jean LEMIUS Marc WINCKLER – 1872.","source":"Club vosgien Soucht;souchtcalvaires.over-blog.com;streetlevel imagery","website":"http://souchtcalvaires.over-blog.com/2018/03/calvaire-n-11.html"}},
{"type":"Feature","geometry":{"type":"Point","coordinates":[7.3316059,48.9587896]},"properties":{"addr:city":"Soucht","addr:postcode":"57960","description":"Croix de type lorrain avec piédestal à deux saints sur culot ; identification non possible. Croix droite à base torique avec colombe du Saint Esprit, Christ taillé peu dégagé de la masse. Sans inscription.","historic":"wayside_cross","source":"Club vosgien Soucht;souchtcalvaires.over-blog.com;streetlevel imagery","website":"http://souchtcalvaires.over-blog.com/2018/03/calvaire-n-13.html"}},
{"type":"Feature","geometry":{"type":"Point","coordinates":[7.3298186,48.9594272]},"properties":{"addr:city":"Soucht","addr:postcode":"57960","addr:street":"Rue de Montbronn","description":"Croix de type lorrain à piédestal violoné avec deux têtes d’angelots et trois personnages dont un enfant au milieu. Croix à base incurvée relativement importante par rapport au Christ. Croix particulièrement remarquable en raison de la présence...","historic":"wayside_cross","source":"Club vosgien Soucht;souchtcalvaires.over-blog.com;streetlevel imagery","website":"http://souchtcalvaires.over-blog.com/2018/03/calvaire-n-14.html"}},
{"type":"Feature","geometry":{"type":"Point","coordinates":[7.325073,48.9608716]},"properties":{"addr:city":"Soucht","addr:postcode":"57960","description":"Croix sur double piédestal séparé par des moulures. Der Stifter dieses Kreuzes starb an den Folgen des Krieges-1919.","historic":"wayside_cross","inscription":"Errichtet zur Ehre Gottes durch die Eheleute Hilarius KESSLER und Joséphine SARTER 1919. Von Pest, Hunger und Krieg erlöse uns O Herr. Der Stiffter dieses Kreutzes starb an den Folgen des Krieges-1919.","name":"Kaffee's Kreiz","name:de":"Kaffeeskreuz","source":"Club vosgien Soucht;souchtcalvaires.over-blog.com;aerial imagery;streetlevel imagery","website":"http://souchtcalvaires.over-blog.com/2018/03/calvaire-n-15-kaffee-s-kreiz.html"}},
{"type":"Feature","geometry":{"type":"Point","coordinates":[7.3190213,48.962515]},"properties":{"addr:city":"Soucht","addr:postcode":"57960","description":"Croix de type lorrain à piédestal faiblement bombé avec deux saints sur culots : à gauche, sainte non identifiée – à droite, Joseph tenant un rameau fleuri. Croix droite à base moulurée avec Christ à bras assez horizontaux. Sans inscription apparente.","historic":"wayside_cross","source":"Club vosgien Soucht;souchtcalvaires.over-blog.com;streetlevel imagery","website":"http://souchtcalvaires.over-blog.com/2018/03/calvaire-n-16.html"}},
{"type":"Feature","geometry":{"type":"Point","coordinates":[7.3170121,48.9637845]},"properties":{"addr:city":"Soucht","addr:postcode":"57960","description":"Croix moderne à deux bases dont la partie supérieure avec inscription. Socle à niche de faible profondeur avec Piétà. Croix terminée en pointes de flèches avec Christ de facture primitive.","historic":"wayside_cross","inscription":"Errichtet zur Ehre Gottes durch die Eheleute Léo WINCKLER – Marie WALKER.","name":"Schmit's Kreiz","name:de":"Schmitskreuz","source":"Club vosgien Soucht;souchtcalvaires.over-blog.com;streetlevel imagery","website":"http://souchtcalvaires.over-blog.com/2018/03/calvaire-n-17-schmit-s-kreiz.html"}},
{"type":"Feature","geometry":{"type":"Point","coordinates":[7.3312696,48.9638266]},"properties":{"addr:city":"Soucht","addr:postcode":"57960","description":"Ancienne plaque tombale de même type que les croix lorraines. Base avec Saints en relief, épaulement faisant la transition avec une très courte croix droite à motifs en rosace à l’extrémité de la traverse et du montant, Christ de petite taille à l’inters","historic":"wayside_cross","inscription":"Errichtet zur Ehre Gottes, Familie KREBS Alphonse, Heilige Maria bitte für uns.","name":"Orsche's Kreiz","name:de":"Orscheskreuz","source":"Club vosgien Soucht;IGN;souchtcalvaires.over-blog.com","website":"http://souchtcalvaires.over-blog.com/2018/03/calvaire-n-18-orsche-s-kreiz.html"}},
{"type":"Feature","geometry":{"type":"Point","coordinates":[7.293602,48.965598]},"properties":{"addr:city":"Soucht","addr:postcode":"57960","addr:street":"Speckbronn","description":"Croix de type lorrain à haut piédestal bombé à partie supérieure arquée avec deux angelots et deux personnages non identifiables : saint et sainte. Croix droite à base en cavet avec Christ en mauvais état, taillé dans la masse. Date 1807.","historic":"wayside_cross","source":"Club vosgien Soucht;souchtcalvaires.over-blog.com;streetlevel imagery","website":"http://souchtcalvaires.over-blog.com/2018/03/calvaire-n-20-au-speckbronn.html"}},
{"type":"Feature","geometry":{"type":"Point","coordinates":[7.2958461,48.9736598]},"properties":{"addr:city":"Soucht","addr:postcode":"57960","addr:street":"Oligmuehle","description":"Grand calvaire sur socle rectangulaire. Piédestal avec colombe du Saint Esprit sur fond de nuages et trois personnages représentant les donateurs et leur enfant. Tailloir très saillant portant la Vierge et Saint Jean. Croix droite avec Christ très travail","historic":"wayside_cross","note":"Le calvaire en grès, inventorié dans le livre « Le Pays de Bitche, images du patrimoine » (Didier HEMMERT et alii) date, selon les auteurs, de la fin du XVIII° siècle ou début XIX°.","source":"Club vosgien Soucht;souchtcalvaires.over-blog.com;streetlevel imagery","website":"http://souchtcalvaires.over-blog.com/2018/03/calvaire-n-21-a-la-oligmuehle.html"}},
{"type":"Feature","geometry":{"type":"Point","coordinates":[7.3100905,48.9781115]},"properties":{"addr:city":"Soucht","addr:postcode":"57960","description":"Piédestal légèrement bombé avec saint (prêtre) tenant une croix. A la base, inscription : O ihr alle die…, croix droite avec Christ. Base torique avec crâne et ossement.","historic":"wayside_cross","inscription":"Errichtet zur Ehre Gottes von Christian STOCKHOBER und seine Ehe/Frau Odilia UNDEREINER 1826","source":"Club vosgien Soucht;souchtcalvaires.over-blog.com","website":"http://souchtcalvaires.over-blog.com/2018/03/calvaires-n-22-et-n-23-a-la-pauluskapell.html"}},
{"type":"Feature","geometry":{"type":"Point","coordinates":[7.3101223,48.9781197]},"properties":{"addr:city":"Soucht","addr:postcode":"57960","description":"Ensemble trapu à double socle avec croix de Lorraine. Croix relativement petite avec Christ et Vierge.","historic":"wayside_cross","inscription":"Errichtet zur Ehre Gottes und den 14 Nothelfern Familie Léo NIERENGARTEN SUCHT 1943. Maria Friedenskönigin bitte für uns.","source":"souchtcalvaires.over-blog.com","website":"http://souchtcalvaires.over-blog.com/2018/03/calvaires-n-22-et-n-23-a-la-pauluskapell.html"}},
{"type":"Feature","geometry":{"type":"Point","coordinates":[7.3466009,48.9865135]},"properties":{"description":"Chêne de la Liberté 20'\nMeisenthal 35'","information":"guidepost","operator":"Club vosgien","source":"streetlevel imagery","tourism":"information"}},
{"type":"Feature","geometry":{"type":"Point","coordinates":[7.3433067,48.9787838]},"properties":{"denotation":"natural_monument","description":"Chêne de la Liberté - nov. 1918","ele":"360","leaf_cycle":"deciduous","leaf_type":"broadleaved","name":"Chêne de la Liberté","name:de":"Eiche der Freiheit","natural":"tree","source":"Club vosgien Soucht;IGN"}},
{"type":"Feature","geometry":{"type":"Point","coordinates":[7.3553128,48.9775586]},"properties":{"denotation":"natural_monument","ele":"360","leaf_type":"broadleaved","name":"Dick Eich - Chêne Georgel","name:de":"Dick Eich - Eiche Georgel","natural":"tree","source":"Club vosgien Soucht;IGN;survey"}},
{"type":"Feature","geometry":{"type":"Point","coordinates":[7.3348491,48.9596001]},"properties":{"artwork_type":"mural","name":"Médaillon Jeanne d'Arc","source":"Club vosgien Soucht","tourism":"artwork"}},
{"type":"Feature","geometry":{"type":"Point","coordinates":[7.3530098,48.9659921]},"properties":{"addr:city":"Meisenthal","addr:postcode":"57960","artist_name":"Stephan Balkenhol","artwork_type":"sculpture","material":"wood","source":"Club vosgien Soucht","tourism":"artwork"}},
{"type":"Feature","geometry":{"type":"Point","coordinates":[7.3578081,48.9765713]},"properties":{"denotation":"natural_monument","description":"Destroyed by the huge 1999 storm Lothar - doesn't exist anymore","leaf_type":"broadleaved","name":"Chêne André de Guerre","name:de":"Eiche André","natural":"tree","source":"Club vosgien Soucht"}},
{"type":"Feature","geometry":{"type":"Point","coordinates":[7.3351037,48.9571085]},"properties":{"description":"Kammerfelsen\nHerrenwald\nWingen s. Moder\nSt Louis 2h","information":"guidepost","operator":"Club vosgien Soucht","source":"Club vosgien Soucht;streetlevel imagery","tourism":"information"}},
{"type":"Feature","geometry":{"type":"Point","coordinates":[7.3311695,48.9565711]},"properties":{"fixme":"displayed information","information":"guidepost","operator":"Club vosgien Soucht","source":"survey","tourism":"information"}},
{"type":"Feature","geometry":{"type":"Point","coordinates":[7.3587578,48.9576536]},"properties":{"historic":"memorial","image":"https://www.visugpx.com/photos/4hPouRdbwI.5.jpg","inscription":"Aux inspecteurs de la sûreté nationale Johannes Robert et Kuntz René de la brigade de surveillance du territoire de la Moselle morts victimes du devoir le 17 septembre 1945","memorial":"stele","name":"Monument aux Officiers","source":"Club vosgien Soucht"}},
{"type":"Feature","geometry":{"type":"Point","coordinates":[7.3420944,48.9484243]},"properties":{"description":"Dreipeterstein 15'\nLa Colonne 25'","information":"guidepost","operator":"Club vosgien Soucht","source":"Club vosgien Soucht;survey","tourism":"information"}},
{"type":"Feature","geometry":{"type":"Point","coordinates":[7.2955209,48.9602086]},"properties":{"fixme":"displayed information","information":"guidepost","operator":"Club vosgien Soucht","source":"survey","tourism":"information"}},
{"type":"Feature","geometry":{"type":"Point","coordinates":[7.340712,49.055455]},"properties":{"addr:housenumber":"4","addr:street":"Rue de Volmunster"}},
{"type":"Feature","geometry":{"type":"Point","coordinates":[7.3011518,49.004713]},"properties":{"description":"Enchenberg 1h\nMontbronn 30'","information":"guidepost","operator":"Club vosgien Soucht","source":"Club vosgien Soucht;survey","tourism":"information"}},
{"type":"Feature","geometry":{"type":"Point","coordinates":[7.3354547,48.9556503]},"properties":{"description":"Dreipeterstein 40'\nLa Colonne 50'","information":"guidepost","operator":"Club vosgien Soucht","source":"Club vosgien Soucht;survey","tourism":"information"}},
{"type":"Feature","geometry":{"type":"Point","coordinates":[7.3371448,48.9567608]},"properties":{"description":"Schuhfelsen 15' -->\n<-- Kammerfelsen","information":"guidepost","operator":"Club vosgien Soucht","source":"Club vosgien Soucht;survey","tourism":"information"}},
{"type":"Feature","geometry":{"type":"Point","coordinates":[7.3075126,48.9931718]},"properties":{"addr:city":"Montbronn","addr:postcode":"57415","addr:street":"Rue de l'Église","historic":"memorial","inscription":"La commune de Montbronn à ses morts victimes des Guerres\nFerstler Georges\nHaar René\nLedig Joseph\nUbrich Marcel\nUbrich Jean\nConrad Hippolyte\nDucarn Eugène\nFerstler Auguste\nGrebil Albert\nGrebil Eugène\nGrebil Georges\nHaar Léon\nGreiner Émile\nKarkilla Joseph..","memorial":"war_memorial","name":"Monument aux morts","name:de":"Kriegerdenkmal Mombronn","name:en":"Montbronn war memorial","source":"http://a137.idata.over-blog.com/3/91/99/27/Montbronn/Le-monument-aux-morts.jpg"}},
{"type":"Feature","geometry":{"type":"Point","coordinates":[7.3231181,48.9738068]},"properties":{"description":"Jaegerfelsen 25'","ele":"320","information":"guidepost","name":"Source Klosterbrennel","operator":"Club vosgien Soucht","source":"Club vosgien Soucht;survey","tourism":"information"}},
{"type":"Feature","geometry":{"type":"Point","coordinates":[7.3232459,48.9736451]},"properties":{"description":"Deiwelfelsen 20'\nKlosterbrennel 30m","information":"guidepost","operator":"Club vosgien Soucht","source":"Club vosgien Soucht;survey","tourism":"information"}},
{"type":"Feature","geometry":{"type":"Point","coordinates":[7.3211698,48.9795262]},"properties":{"description":"Speckbronn 40'\nDiemeringen\nSt Louis-lès-B 30'\nEnchenberg 1h30\nNeumuehl 10'\nKlausenberg 45'\nMeisenthal 30'\nPauluskapell","information":"guidepost","operator":"Club vosgien Soucht","source":"Club vosgien Soucht;survey","tourism":"information"}},
{"type":"Feature","geometry":{"type":"Point","coordinates":[7.3414895,48.9586704]},"properties":{"description":"Musée du Sabot à 100m\nKammerfelsen 20'\nmusée Lalique\nMeisenthal musée du verre 25'","information":"guidepost","operator":"Club vosgien Soucht","source":"Club vosgien Soucht;survey","tourism":"information"}},
{"type":"Feature","geometry":{"type":"Point","coordinates":[7.3162859,48.9887034]},"properties":{"description":"Croix d'épidémie. Troupeau de vaches entièrement décimé par une épidémie. En dessous de l’inscription I N R I, on  peut voir 2 angelots et plus bas une tête de mort. La sainte Vierge Marie a été rajoutée en 1963. Sous l’énorme socle, en guise de fondation","historic":"wayside_cross","image":"https://www.montbronn.fr/wp-content/uploads/2021/07/circuit-jaune-calvaire-2-image-02.jpg","note":"Cette croix a été déplacée en 1859 par l'Abbé Dürr pour faire place à la colonne N°21 du circuit rouge rue des Carrières. Elle était érigée une centaine d'années plus tôt par les époux Walter François et Doby Anne Madeleine, fille de Jodoque gérant de la","source":"montbronn.fr;survey","source:url":"https://www.montbronn.fr/services/calvaire-2-2-v1-3/","start_date":"1859"}},
{"type":"Feature","geometry":{"type":"Point","coordinates":[7.3495153,49.0598879]},"properties":{"name":"Gite d'étape du Vasenberg","tourism":"trail_riding_station"}},
{"type":"Feature","geometry":{"type":"Point","coordinates":[7.3665039,49.0494341]},"properties":{"highway":"turning_circle"}},
{"type":"Feature","geometry":{"type":"Point","coordinates":[7.3552221,48.9773661]},"properties":{"description":"Fontaine Coëtsloquet\nMeisenthal 30'\n<--","information":"guidepost","note":"This isn't a mistake: this sign actually exists and is different from the one that is only a couple of meters away.","operator":"Club vosgien Soucht","source":"Club vosgien Soucht;survey","tourism":"information"}},
{"type":"Feature","geometry":{"type":"Point","coordinates":[7.3548509,48.9774533]},"properties":{"description":"St-Louis-lès-Bitche 30'\nLemberg 1h15\nSchieresthal 5'\nMeisenthal 30'\nFontaine Coëtsloquet ou Felsebrunne 10'","information":"guidepost","operator":"Club vosgien Soucht","source":"Club vosgien Soucht;survey","tourism":"information"}},
{"type":"Feature","geometry":{"type":"Point","coordinates":[7.3292141,48.9981238]},"properties":{"description":"Croix trilobée avec Piéta. Croix déplacée et rénovée en 2004 par Mr Jung, son fils Freddy et les amis de Chapelle.","historic":"wayside_cross","image":"https://www.montbronn.fr/wp-content/uploads/2021/07/Circuit-rouge-calvaire-18-image-04.jpeg","inscription":"Errichtet zu Ehre Gottes\ndurch die Eheleute\nNikolaus Conrad und Maria Stébé\nzur Danksagung\neiner erhaltenen Gnade\n1903","source":"montbronn.fr;streetlevel imagery","source:url":"https://www.montbronn.fr/services/calvaire-14-v1-2/","start_date":"1903"}},
{"type":"Feature","geometry":{"type":"Point","coordinates":[7.3294657,48.9984224]},"properties":{"board_type":"name","description":"Contact\n03 87 96 99 45\nwww.cc-paysdebitche.fr\ncontact@cc-paysdebitche.fr","information":"board","name":"Zone d'activité économique Montbronn Est","name:de":"Gewerbegebiet Mombronn Ost","operator":"Communauté de communes du pays de Bitche","source":"streetlevel imagery","tourism":"information"}},
{"type":"Feature","geometry":{"type":"Point","coordinates":[7.3240003,48.9981949]},"properties":{"denomination":"roman_catholic","description":"Croix de la Trinité. Saint Antoine de Padoue, saint Wendelin, Vierge de la Piété.\nJeune homme d'Enchenberg tué en rentrant de chez sa fiancée.\nPour son 200ème anniversaire cette croix a été rénovée par trois amoureux de cet endroit, Joseph, Jean Paul, et","fixme":"exact location","historic":"wayside_shrine","image":"https://www.montbronn.fr/wp-content/uploads/2021/07/circuit-rouge-calvaire-15-image-01.jpg","note":"La croix a été brisée par un arbre tombé lors de la tempête de 1999 et rénovée par la mairie.","religion":"christian","source":"montbronn.fr;survey","source:url":"https://www.montbronn.fr/services/calvaire-15-v1/","start_date":"1811"}},
{"type":"Feature","geometry":{"type":"Point","coordinates":[7.3218972,48.9947938]},"properties":{"description":"Croix trilobée à niche","historic":"wayside_cross","image":"https://www.montbronn.fr/wp-content/uploads/2021/07/Circuit-rouge-calvaire-21-image-04.jpeg","inscription":"Errichtet zur Ehre\nder sieben Schmerzen Maria\ndurch Elisabeth Beck Ehefrau\nvon Stephan Huber","source":"montbronn.fr;aerial imagery;streetlevel imagery","source:url":"https://www.montbronn.fr/services/calvaire-3-v1-2/","start_date":"1886"}},
{"type":"Feature","geometry":{"type":"Point","coordinates":[7.3189843,48.9940563]},"properties":{"description":"Colonne Rogation.\nErigée par l'Abbé Dürr à cet emplacement se trouvait jusqu'en 1859 la croix N°2 du circuit jaune.\nRénovée en 2010 par les Amis de Chapelle.","historic":"wayside_cross","image":"https://www.montbronn.fr/wp-content/uploads/2021/07/Circuit-Jaune-Calvaire-7-image-03.jpeg","inscription":"O CRUX AVE\nEs ist Vollbracht\n300 Tage Ablass\nSo hat Gott die Welt geliebt\nMontbronn 1859 10 Avril","source":"montbronn.fr;aerial imagery;streetlevel imagery","source:url":"https://www.montbronn.fr/services/calvaire-13-v1-3/","start_date":"1859"}},
{"type":"Feature","geometry":{"type":"Point","coordinates":[7.3154592,48.9933181]},"properties":{"description":"Cette croix a été renversée par un camion chargé de grumes dans les années 80.\nElle a été refaite mais sans la statue qui se trouve actuellement derrière dans le petit jardin.\nCette croix a été érigée pour faire cesser les continuelles querelles de voisin","historic":"wayside_cross","image":"https://www.montbronn.fr/wp-content/uploads/2021/07/Circuit-Jaune-Calvaire-8-image-04.jpeg","inscription":"Dieses Kreuz haben errichte\nLassen Anton STEBE und\nSeine Ehefrau Eva SCHOSGER\nGott zu ehren Im Jahre 1824.","source":"montbronn.fr;streetlevel imagery","source:url":"https://www.montbronn.fr/services/calvaire-8-v1-3/","start_date":"1824"}},
{"type":"Feature","geometry":{"type":"Point","coordinates":[7.3156378,48.9957083]},"properties":{"description":"Croix à niche en Terrazo. Retour de 3 fils après la guerre 39/45","historic":"wayside_cross","image":"https://www.montbronn.fr/wp-content/uploads/2021/07/Circuit-rouge-calvaire-11-image-01.jpeg","inscription":"ERRICHTET aus DANKBARKEIT\nZur EHRE GOTTES\nWINSTEIN Louis MEYER Marie","source":"montbronn.fr;aerial imagery;streetlevel imagery","source:url":"https://www.montbronn.fr/services/calvaire-11-v1/","start_date":"1945"}},
{"type":"Feature","geometry":{"type":"Point","coordinates":[7.3138336,48.9950279]},"properties":{"description":"Saint Michel terrassant le dragon, un ange, 2 têtes d'anges.\nA été changée 3 fois de place.\nLa table en béton a été rajoutée lors du déplacement.","historic":"wayside_cross","image":"https://www.montbronn.fr/wp-content/uploads/2021/07/Circuit-Rouge-Calvaire-8-image-04.jpeg","inscription":"Michael in Jahre 1723","source":"montbronn.fr;aerial imagery;streetlevel imagery","source:url":"https://www.montbronn.fr/services/calvaire-8-v1/","start_date":"1723"}},
{"type":"Feature","geometry":{"type":"Point","coordinates":[7.313829,48.9948996]},"properties":{"description":"Saint Wendelin, saint Sébastien, guirlande de lauriers, tête d'angelot.","historic":"wayside_cross","image":"https://www.montbronn.fr/wp-content/uploads/2021/07/circuit-rouge-calvaire-6-image-livre-01.jpg","note":"2ème moitié du 18ème siècle, socle enterré.","source":"montbronn.fr;streetlevel imagery","source:url":"https://www.montbronn.fr/services/calvaire-6-v1/"}},
{"type":"Feature","geometry":{"type":"Point","coordinates":[7.3127987,48.994949]},"properties":{"description":"En souvenir de leur fils tué après une partie de cartes qu'il a gagnée, l'assassin aurait quitté le village la nuit même pour l'Amérique. Croix rénovée en 2009 par M Jung et les Amis de la Chapelle.","historic":"wayside_cross","image":"https://www.montbronn.fr/wp-content/uploads/2021/07/Circuit-Rouge-Calvaire-7-image-02.jpeg","inscription":"Zur Erinnerung\nan den Verunglückten\nEmil Ehrhart\nSohn von Michaël Ehrhart\nund Elisabeth Stébé\n19 April 1907","source":"montbronn.fr;aerial imagery;streetlevel imagery","source:url":"https://www.montbronn.fr/services/calvaire-7-v1/","start_date":"1907-04-19"}},
{"type":"Feature","geometry":{"type":"Point","coordinates":[7.3109122,48.9918974]},"properties":{"historic":"wayside_cross","source":"aerial imagery;streetlevel imagery"}},
{"type":"Feature","geometry":{"type":"Point","coordinates":[7.3276639,48.9921835]},"properties":{"description":"Croix trilobée, Cœur de Jésus et de Marie avec ancre. Croix déplacée et rénovée lors de la réfection de la route en 2005.","historic":"wayside_cross","image":"https://www.montbronn.fr/wp-content/uploads/2021/07/Circuit-jaune-Calvaire-4-image-02.jpeg","inscription":"Errichtet zur Ehre Gottes\ndurch die Eheleute\nAdam Weissenbacher u. Maria Conrad.\n1920","source":"montbronn.fr;aerial imagery;streetlevel imagery","source:url":"https://www.montbronn.fr/services/calvaire-6-v1-3/","start_date":"1920"}},
{"type":"Feature","geometry":{"type":"Point","coordinates":[7.331506,48.9900069]},"properties":{"description":"Croix de st Hubert Patron des chasseurs, aussi invoqué contre la rage. st Nicolas, ste Catherine. Elle est détruite lors de la tempête en 1999. C'est la 1ère croix rénovée en 2003 par M Jung et les Amis de la Chapelle. Crucifix offert par M. Faul Eric.","fixme":"exact location","historic":"wayside_cross","image":"https://www.montbronn.fr/wp-content/uploads/2021/07/Circuit-Jaune-Calvaire-4-image-livre-01.jpg","inscription":"Dieses Kreuz hat aufgerichtet\nNICOLAS THEBES und seine\nEhfrau CATHARINA WAGNER\nANNO 1813","name":"Reiterkreitz","name:de":"Reiterkreuz","note":"C'est une des 3 croix érigée par la Famille Thèbes","source":"montbronn.fr;aerial imagery","source:url":"https://www.montbronn.fr/services/calvaire-4-v1-3/","start_date":"1813"}},
{"type":"Feature","geometry":{"type":"Point","coordinates":[7.3379606,48.9887285]},"properties":{"historic":"wayside_cross","source":"aerial imagery;streetlevel imagery"}},
{"type":"Feature","geometry":{"type":"Point","coordinates":[7.3089839,48.9943684]},"properties":{"historic":"wayside_cross","source":"streetlevel imagery"}},
{"type":"Feature","geometry":{"type":"Point","coordinates":[7.310016,48.9938408]},"properties":{"description":"Cette croix se trouvait devant la façade du n°18 rue de la Fontaine. Elle a été démolie dans les années 1980, rénovée puis placée sur le parking rue Centrale par M Jung et les Amis de la Chapelle en 2009, était propriété de Helena Konrad.","historic":"wayside_cross","image":"https://www.montbronn.fr/wp-content/uploads/2021/07/Circuit-Rouge-Calvaire-4-image-02.jpeg","source":"montbronn.fr;streetlevel imagery","source:url":"https://www.montbronn.fr/services/calvaire-4-v1/","start_date":"1886"}},
{"type":"Feature","geometry":{"type":"Point","coordinates":[7.309361,48.9939133]},"properties":{"description":"Sainte Trinité, au sommet Dieu le Père avec dans sa main le Globe, en dessous l'Esprit Saint sous la forme d'une colombe, puis deux angelots au‐dessus du parchemin où l'inscription. I.N.R.I. est effacée.","historic":"wayside_cross","image":"https://www.montbronn.fr/wp-content/uploads/2021/07/Circuit-Rouge-Calvaire-3-image-08.jpeg","note":"2ème moitié du 18ème siècle\nEn dessous du Christ, une fleur en forme de tournesol, une guirlande de laurier et quatre Saints : saint Nicolas, saint Antoine de Padoue, saint Wendelin, sainte Marguerite ou sainte Catherine","source":"montbronn.fr;streetlevel imagery","source:url":"https://www.montbronn.fr/services/calvaire-3-2/"}},
{"type":"Feature","geometry":{"type":"Point","coordinates":[7.3088365,48.9936856]},"properties":{"description":"Calvaire de la Trinité, au sommet, le Père, la colombe, le saint Esprit, le Christ, saint Jean, sainte Madeleine, sainte  Marie, saint Jean Népomucène, saint Sébastien","historic":"wayside_cross","image":"https://www.montbronn.fr/wp-content/uploads/2021/07/Circuit-Rouge-Calvaire-2-image-04.jpeg","inscription":"EFFIGIEM CHRISTI SEMPER HONORA NON TAMEN EFFIGIEM SED QUEM DESIGNAT ADORA\nDIE GEMEIN MOMENEREN HAT DIESES KRITZ ERBAUT IM JAHR 17… ?","source":"montbronn.fr;aerial imagery;streetlevel imagery","source:url":"https://www.montbronn.fr/services/calvaire-2/"}},
{"type":"Feature","geometry":{"type":"Point","coordinates":[7.3106334,48.9940527]},"properties":{"description":"Tête d'angelot, Christ en Croix, Guirlande de lauriers, sainte Vérène, saint Wendelin, saint Sébastien, sainte Vierge.\nAccident mortel suite à l'explosion d'un pétard lors de la procession de la fête Dieu.","historic":"wayside_cross","image":"https://www.montbronn.fr/wp-content/uploads/2021/07/Circuit-Rouge-Calvaire-4-image-09.jpeg","note":"2ème moitié du 18ème siècle","source":"montbronn.fr;streetlevel imagery","source:url":"https://www.montbronn.fr/services/calvaire-5-v1/"}},
{"type":"Feature","geometry":{"type":"Point","coordinates":[7.3074704,48.9934136]},"properties":{"historic":"wayside_cross","source":"streetlevel imagery"}},
{"type":"Feature","geometry":{"type":"Point","coordinates":[7.3072072,48.9911994]},"properties":{"historic":"wayside_cross","source":"streetlevel imagery"}},
{"type":"Feature","geometry":{"type":"Point","coordinates":[7.3538678,48.9874586]},"properties":{"amenity":"bench","backrest":"yes","material":"wood","source":"streetlevel imagery"}},
{"type":"Feature","geometry":{"type":"Point","coordinates":[7.3534191,48.9874756]},"properties":{"amenity":"bench","backrest":"yes","material":"wood","source":"streetlevel imagery"}},
{"type":"Feature","geometry":{"type":"Point","coordinates":[7.3541994,48.9872424]},"properties":{"leaf_type":"broadleaved","natural":"tree","source":"aerial imagery;streetlevel imagery"}},
{"type":"Feature","geometry":{"type":"Point","coordinates":[7.3543422,48.9872071]},"properties":{"leaf_type":"broadleaved","natural":"tree","source":"aerial imagery;streetlevel imagery"}},
{"type":"Feature","geometry":{"type":"Point","coordinates":[7.3542495,48.9872954]},"properties":{"natural":"shrub","source":"streetlevel imagery"}},
{"type":"Feature","geometry":{"type":"Point","coordinates":[7.354357,48.9872653]},"properties":{"natural":"shrub","source":"streetlevel imagery"}},
{"type":"Feature","geometry":{"type":"Point","coordinates":[7.3477015,48.9862651]},"properties":{"leaf_type":"broadleaved","natural":"tree","source":"aerial imagery;streetlevel imagery"}},
{"type":"Feature","geometry":{"type":"Point","coordinates":[7.3474063,48.9864362]},"properties":{"leaf_type":"broadleaved","natural":"tree","source":"aerial imagery;streetlevel imagery"}},
{"type":"Feature","geometry":{"type":"Point","coordinates":[7.3473214,48.9864355]},"properties":{"leaf_type":"broadleaved","natural":"tree","source":"aerial imagery;streetlevel imagery"}},
{"type":"Feature","geometry":{"type":"Point","coordinates":[7.3296324,48.9982745]},"properties":{"leaf_type":"needleleaved","natural":"tree","source":"aerial imagery;streetlevel imagery"}},
{"type":"Feature","geometry":{"type":"Point","coordinates":[7.3296657,48.9982413]},"properties":{"leaf_type":"needleleaved","natural":"tree","source":"aerial imagery;streetlevel imagery"}},
{"type":"Feature","geometry":{"type":"Point","coordinates":[7.3296991,48.9982743]},"properties":{"leaf_type":"needleleaved","natural":"tree","source":"aerial imagery;streetlevel imagery"}},
{"type":"Feature","geometry":{"type":"Point","coordinates":[7.324486,48.9951853]},"properties":{"description":"Enfants handicapés","historic":"wayside_cross","image":"https://www.montbronn.fr/wp-content/uploads/2021/07/circuit-rouge-calvaire-20-image-livre.jpg","inscription":"MEIN\nJESUS\nBAMHERZIGKEIT\n1959","source":"montbronn.fr;aerial imagery;streetlevel imagery","source:url":"https://www.montbronn.fr/services/calvaire-13-v1-2/","start_date":"1959"}},
{"type":"Feature","geometry":{"type":"Point","coordinates":[7.3063614,48.9910529]},"properties":{"historic":"wayside_cross","source":"streetlevel imagery"}},
{"type":"Feature","geometry":{"type":"Point","coordinates":[7.3061392,48.9910223]},"properties":{"historic":"wayside_cross","source":"aerial imagery;streetlevel imagery"}},
{"type":"Feature","geometry":{"type":"Point","coordinates":[7.3019786,48.9898678]},"properties":{"historic":"wayside_cross","source":"aerial imagery;streetlevel imagery"}},
{"type":"Feature","geometry":{"type":"Point","coordinates":[7.3005187,48.9896125]},"properties":{"historic":"wayside_cross","source":"streetlevel imagery"}},
{"type":"Feature","geometry":{"type":"Point","coordinates":[7.2992521,48.9898363]},"properties":{"historic":"wayside_cross","source":"aerial imagery;streetlevel imagery"}},
{"type":"Feature","geometry":{"type":"Point","coordinates":[7.2978038,48.9908149]},"properties":{"historic":"wayside_cross","source":"streetlevel imagery"}},
{"type":"Feature","geometry":{"type":"Point","coordinates":[7.2922912,48.9889525]},"properties":{"description":"Croix à double niche avec saint Joseph et Marie. Enfants morts en bas âge.","historic":"wayside_cross","image":"https://www.montbronn.fr/wp-content/uploads/2021/07/image00017.jpeg","inscription":"Errichtet zur Ehre Gottes\ndurch\nJohann Schwartz\nu. Elisabeth Grebil","source":"montbronn.fr;aerial imagery;streetlevel imagery","source:url":"https://www.montbronn.fr/services/calvaire-10-v1-2/","start_date":"1920"}},
{"type":"Feature","geometry":{"type":"Point","coordinates":[7.3057089,48.9931934]},"properties":{"barrier":"kissing_gate","bicycle":"permissive","foot":"yes","motor_vehicle":"no","source":"streetlevel imagery"}},
{"type":"Feature","geometry":{"type":"Point","coordinates":[7.3067121,48.9938529]},"properties":{"access":"private","barrier":"gate","source":"aerial imagery;survey"}},
{"type":"Feature","geometry":{"type":"Point","coordinates":[7.3062844,48.9939327]},"properties":{"barrier":"gate","bicycle":"permissive","foot":"yes","motor_vehicle":"no","source":"aerial imagery;survey"}},
{"type":"Feature","geometry":{"type":"Point","coordinates":[7.3058508,48.9929879]},"properties":{"leaf_type":"broadleaved","natural":"tree","source":"aerial imagery;survey"}},
{"type":"Feature","geometry":{"type":"Point","coordinates":[7.3058922,48.9930043]},"properties":{"leaf_type":"broadleaved","natural":"tree","source":"aerial imagery;survey"}},
{"type":"Feature","geometry":{"type":"Point","coordinates":[7.3059555,48.9930306]},"properties":{"leaf_type":"broadleaved","natural":"tree","source":"aerial imagery;survey"}},
{"type":"Feature","geometry":{"type":"Point","coordinates":[7.306032,48.9930623]},"properties":{"leaf_type":"broadleaved","natural":"tree","source":"aerial imagery;survey"}},
{"type":"Feature","geometry":{"type":"Point","coordinates":[7.3058289,48.9930405]},"properties":{"leaf_type":"broadleaved","natural":"tree","source":"aerial imagery;survey"}},
{"type":"Feature","geometry":{"type":"Point","coordinates":[7.3058734,48.9930582]},"properties":{"leaf_type":"broadleaved","natural":"tree","source":"aerial imagery;survey"}},