{"type":"FeatureCollection","features":[
{"type":"Feature","geometry":{"type":"Point","coordinates":[1.6833696,42.8223596]},"properties":{"ele":"911","mountain_pass":"yes","name":"Pas de Souloumbrie","natural":"saddle"}},
{"type":"Feature","geometry":{"type":"Point","coordinates":[1.5478715,42.9933047]},"properties":{"ele":"599","mountain_pass":"yes","name":"Col del Bouich","natural":"saddle"}},
{"type":"Feature","geometry":{"type":"Point","coordinates":[1.5937269,42.8198511]},"properties":{"access":"yes","heritage":"2","heritage:operator":"mhs","historic":"archaeological_site","historic:civilization":"prehistoric","image":"File:Niaux, bisons.JPG","mhs:inscription_date":"1911-07-13","name":"Grotte de Niaux","natural":"cave_entrance","official_name":"Grotte de la Calbière dite Grotte de Niaux","ref:mhs":"PA00093895","source:heritage":"data.gouv.fr:Ministère de la Culture - 04/2015","tourism":"yes","website":"https://www.sites-touristiques-ariege.fr/grotte-de-niaux","wikidata":"Q264242","wikipedia":"fr:Grotte de Niaux"}},
{"type":"Feature","geometry":{"type":"Point","coordinates":[1.5744529,43.0030184]},"properties":{"name":"Rivière souterraine de Labouïche","tourism":"attraction","wikipedia":"fr:Rivière_souterraine_de_Labouiche"}},
{"type":"Feature","geometry":{"type":"Point","coordinates":[1.6728727,42.9801506]},"properties":{"ele":"525","mountain_pass":"yes","name":"Col de Py","natural":"saddle"}},
{"type":"Feature","geometry":{"type":"Point","coordinates":[1.6974227,42.9798295]},"properties":{"ele":"571","mountain_pass":"yes","name":"Col de Charcany","natural":"saddle"}},
{"type":"Feature","geometry":{"type":"Point","coordinates":[1.6318606,42.8451669]},"properties":{"ele":"989","name":"Cap de Barthala","natural":"peak"}},
{"type":"Feature","geometry":{"type":"Point","coordinates":[1.6260454,42.8466017]},"properties":{"description":"Borne en granit gravée IGN et 949 - Point vu en place en 2003","ele":"1046.4","name":"La Pique","natural":"peak","note":"Ne pas déplacer ce point, cf. - Do not move this node, see - http://wiki.openstreetmap.org/wiki/WikiProject_France/Repères_Géodésiques#Permanence_des_rep.C3.A8res","ref":"0930601 - 1","source":"©IGN 2010 dans le cadre de la cartographie réglementaire","url":"http://geodesie.ign.fr/fiches/index.php?module=e&action=fichepdf&source=carte&sit_no=0930601"}},
{"type":"Feature","geometry":{"type":"Point","coordinates":[1.5949898,42.8172711]},"properties":{"access":"no","name":"Grotte de la Petite Caougno","natural":"cave_entrance"}},
{"type":"Feature","geometry":{"type":"Point","coordinates":[1.5704689,42.8720295]},"properties":{"heritage":"2","heritage:operator":"mhs","historic":"archaeological_site","image":"File:Entrée de la grotte de Bédeilhac.jpg","mhs:inscription_date":"1929-09-18","name":"Grotte de Bédeilhac","natural":"cave_entrance","ref:mhs":"PA00093775","source:heritage":"data.gouv.fr:Ministère de la Culture - 04/2015","wikidata":"Q3117126","wikipedia":"fr:Grotte de Bédeilhac"}},
{"type":"Feature","geometry":{"type":"Point","coordinates":[1.6990805,42.8388689]},"properties":{"capacity":"2","description":"2019-03 : Cabane utilisée par un berger en période d'estive. La partie de droite, fermée, est utilisée par les chasseurs, mais est parfois ouverte (table, bancs, matelas, cheminée). La partie de gauche abrite une petite table, deux chaises, un lit","fireplace":"yes","name":"Refuge Pla de Tabe","note":"958","ref:refuges.info":"6603","source":"Association \"Refuges et cabanes des Pyrénées\"","stove":"no","tourism":"wilderness_hut"}},
{"type":"Feature","geometry":{"type":"Point","coordinates":[1.5229223,42.9163126]},"properties":{"capacity":"2","description":"2016-10 : Cabane assez salle mais équipée d'une cheminée, table, 2 bat-flancs superposés. Source en contrebas","ele":"1390","fireplace":"yes","name":"Cabane de l'Homme Mort","note":"165","ref:refuges.info":"5668","source":"Association \"Refuges et cabanes des Pyrénées\"","stove":"no","tourism":"wilderness_hut"}},
{"type":"Feature","geometry":{"type":"Point","coordinates":[1.668589,42.8717478]},"properties":{"tourism":"picnic_site"}},
{"type":"Feature","geometry":{"type":"Point","coordinates":[1.6674798,42.8711776]},"properties":{"historic":"memorial","name":"Maquis de Croquié"}},
{"type":"Feature","geometry":{"type":"Point","coordinates":[1.6035715,42.8251052]},"properties":{"ele":"1187","name":"Cap de la Lesse","natural":"peak","source":"IGN"}},
{"type":"Feature","geometry":{"type":"Point","coordinates":[1.6251166,42.8423347]},"properties":{"name":"Cap de Tartan","natural":"peak"}},
{"type":"Feature","geometry":{"type":"Point","coordinates":[1.6415971,42.90728]},"properties":{"tourism":"picnic_site"}},
{"type":"Feature","geometry":{"type":"Point","coordinates":[1.5778757,43.0027326]},"properties":{"description":"Entrée naturelle de la Rivière souterraine de Labouïche","name":"Grotte de Fajal","natural":"cave_entrance"}},
{"type":"Feature","geometry":{"type":"Point","coordinates":[1.6824009,42.9509719]},"properties":{"mountain_pass":"yes","name":"Col de Touron","natural":"saddle"}},
{"type":"Feature","geometry":{"type":"Point","coordinates":[1.514943,42.9636856]},"properties":{"tourism":"camp_site"}},
{"type":"Feature","geometry":{"type":"Point","coordinates":[1.518528,42.9114072]},"properties":{"ele":"1606","name":"Le Picou","natural":"peak"}},
{"type":"Feature","geometry":{"type":"Point","coordinates":[1.5120549,42.9063351]},"properties":{"ele":"1705","name":"Roc Mouché","natural":"peak"}},
{"type":"Feature","geometry":{"type":"Point","coordinates":[1.5063049,42.9056164]},"properties":{"ele":"1715","name":"Rocher de Batail","natural":"peak","source":"survey"}},
{"type":"Feature","geometry":{"type":"Point","coordinates":[1.5471126,42.9933754]},"properties":{"natural":"spring"}},
{"type":"Feature","geometry":{"type":"Point","coordinates":[1.5150606,42.9526705]},"properties":{"name":"Lavoir de Garbet","natural":"spring"}},
{"type":"Feature","geometry":{"type":"Point","coordinates":[1.7326968,43.0301037]},"properties":{"ele":"470","name":"Col de Calzan","natural":"saddle"}},
{"type":"Feature","geometry":{"type":"Point","coordinates":[1.5571425,42.9900867]},"properties":{"ele":"735","name":"Roc de Caralp","natural":"peak","tourism":"viewpoint"}},
{"type":"Feature","geometry":{"type":"Point","coordinates":[1.5550907,42.9929955]},"properties":{"historic":"ruins","name":"Cabane des Allemands"}},
{"type":"Feature","geometry":{"type":"Point","coordinates":[1.5729595,42.9707057]},"properties":{"addr:ghanapostgps":"42.9707057, 1.5729595","caravans":"yes","contact:email":"campingcos09@orange.fr","drinking_water":"yes","email":"bblazy@sfr.fr","name":"Camping Municipal de Cos","phone":"+33 671 181 038","tents":"yes","tourism":"camp_site","website":"http://camping-municipal-cos09.fr/"}},
{"type":"Feature","geometry":{"type":"Point","coordinates":[1.633972,42.9363718]},"properties":{"historic":"wayside_cross","name":"Calvaire","source":"cadastre-dgi-fr source : Direction Générale des Impôts - Cadastre. Mise à jour : 2011"}},
{"type":"Feature","geometry":{"type":"Point","coordinates":[1.6184847,42.856491]},"properties":{"ele":"900","name":"Picou de Bompas","natural":"peak","source":"Donnee cartographique IGN 1050"}},
{"type":"Feature","geometry":{"type":"Point","coordinates":[1.610337,42.8593898]},"properties":{"ele":"847","name":"Rocher de la Flouranine","natural":"peak","source":"Cartographie IGN 1950"}},
{"type":"Feature","geometry":{"type":"Point","coordinates":[1.5583869,42.960253]},"properties":{"information":"map","name":"Carte des balades du coin","source":"Bing","tourism":"information"}},
{"type":"Feature","geometry":{"type":"Point","coordinates":[1.5164025,42.9630648]},"properties":{"tourism":"guest_house"}},
{"type":"Feature","geometry":{"type":"Point","coordinates":[1.516322,42.9628527]},"properties":{"tourism":"guest_house"}},
{"type":"Feature","geometry":{"type":"Point","coordinates":[1.5249376,42.9533581]},"properties":{"information":"map","tourism":"information"}},
{"type":"Feature","geometry":{"type":"Point","coordinates":[1.7035848,42.8610581]},"properties":{"ele":"1774","name":"Pic de la Lauzate","natural":"peak"}},
{"type":"Feature","geometry":{"type":"Point","coordinates":[1.7135765,42.8257809]},"properties":{"name":"Roc de la Lauzate","natural":"peak"}},
{"type":"Feature","geometry":{"type":"Point","coordinates":[1.7165139,42.8292407]},"properties":{"name":"Cap de la Lesse d'Appy","natural":"peak"}},
{"type":"Feature","geometry":{"type":"Point","coordinates":[1.5531822,42.8542304]},"properties":{"leisure":"playground"}},
{"type":"Feature","geometry":{"type":"Point","coordinates":[1.69105,43.0082556]},"properties":{"ele":"549","name":"Col de la Fage","natural":"saddle"}},
{"type":"Feature","geometry":{"type":"Point","coordinates":[1.5429732,42.8182887]},"properties":{"ele":"1427","mountain_pass":"yes","name":"Col de Lastris","natural":"saddle"}},
{"type":"Feature","geometry":{"type":"Point","coordinates":[1.5328958,42.8343397]},"properties":{"description":"L'étang d'Artats (Artax) - 2h30 - Alt. 1695m / Col de Lastris - 1h40 - Alt.1427m","ele":"909","hiking":"yes","information":"guidepost","name":"L'Étang d'Artats(x) et Col de Lastris","tourism":"information"}},
{"type":"Feature","geometry":{"type":"Point","coordinates":[1.5463125,42.8219937]},"properties":{"ele":"1486","name":"Cime d'Amont","natural":"peak"}},
{"type":"Feature","geometry":{"type":"Point","coordinates":[1.5413018,42.8188264]},"properties":{"natural":"spring"}},
{"type":"Feature","geometry":{"type":"Point","coordinates":[1.6000661,42.8510403]},"properties":{"name":"Rêve et magie du rail","tourism":"museum","website":"http://www.rma-revemagiedurail.com"}},
{"type":"Feature","geometry":{"type":"Point","coordinates":[1.5382498,42.9264186]},"properties":{"ele":"1113","name":"Col du Calmil","natural":"saddle"}},
{"type":"Feature","geometry":{"type":"Point","coordinates":[1.5356529,42.9275987]},"properties":{"name":"Source de la Goute Escure","natural":"spring","source":"GPS"}},
{"type":"Feature","geometry":{"type":"Point","coordinates":[1.5312528,42.9543825]},"properties":{"information":"map","tourism":"information"}},
{"type":"Feature","geometry":{"type":"Point","coordinates":[1.6277248,43.0069984]},"properties":{"historic":"ruins","name":"Ruines du Château de Marseillias"}},
{"type":"Feature","geometry":{"type":"Point","coordinates":[1.6148034,43.0120091]},"properties":{"information":"guidepost","tourism":"information"}},
{"type":"Feature","geometry":{"type":"Point","coordinates":[1.6374309,42.9359406]},"properties":{"information":"map","tourism":"information"}},
{"type":"Feature","geometry":{"type":"Point","coordinates":[1.5317611,42.9545057]},"properties":{"historic":"memorial","memorial":"war_memorial","ref:FR:MemorialGenWeb":"25063"}},
{"type":"Feature","geometry":{"type":"Point","coordinates":[1.6073837,42.9642841]},"properties":{"access":"yes","leisure":"playground"}},
{"type":"Feature","geometry":{"type":"Point","coordinates":[1.6075613,42.8465921]},"properties":{"historic":"city_gate","name":"Porte Lacaussade","source":"geolocalisation:bing;toponymie:cadastre,plan officiel tarascon"}},
{"type":"Feature","geometry":{"type":"Point","coordinates":[1.5925297,42.8170298]},"properties":{"name":"Musée Pyrénéen","tourism":"museum","website":"https://www.musee-pyreneen-de-niaux.com/","wikidata":"Q3330770"}},
{"type":"Feature","geometry":{"type":"Point","coordinates":[1.5580494,42.9050331]},"properties":{"ele":"1447","mountain_pass":"yes","name":"Col de Touron","natural":"saddle"}},
{"type":"Feature","geometry":{"type":"Point","coordinates":[1.6088669,42.9656385]},"properties":{"addr:city":"Foix","addr:housenumber":"6","addr:postcode":"09000","addr:street":"Place Georges Dutilh","name":"Hôtel Lons","phone":"+33 5 34 09 28 00","tourism":"hotel","website":"https://www.hotel-lons-foix.com"}},
{"type":"Feature","geometry":{"type":"Point","coordinates":[1.7300892,43.0057768]},"properties":{"name":"Camping à la ferme","phone":"+33 561 607 243","tourism":"camp_site"}},
{"type":"Feature","geometry":{"type":"Point","coordinates":[1.6328074,42.8207135]},"properties":{"comment":"Présence d'une plaque commémorative : \"Arbre de la Liberté Commémoration du bicentenaire de la Révolution 1789-1989\"","historic":"memorial","name":"Arbre de la Liberté","natural":"tree"}},
{"type":"Feature","geometry":{"type":"Point","coordinates":[1.6079947,42.8447914]},"properties":{"historic":"city_gate","name":"Porte d'Espagne","source":"geolocalisation:bing;toponymie:cadastre,plan officiel tarascon"}},
{"type":"Feature","geometry":{"type":"Point","coordinates":[1.6061344,42.8466041]},"properties":{"historic":"city_gate","name":"Porte du Ravitaillement","source":"geolocalisation:bing;toponymie:cadastre,plan officiel tarascon"}},
{"type":"Feature","geometry":{"type":"Point","coordinates":[1.5601771,42.9428519]},"properties":{"name":"Les Carcis Gite","tourism":"guest_house"}},
{"type":"Feature","geometry":{"type":"Point","coordinates":[1.642141,42.84052]},"properties":{"mountain_pass":"yes","name":"Col d'Ussat","natural":"saddle"}},
{"type":"Feature","geometry":{"type":"Point","coordinates":[1.6154648,42.9920612]},"properties":{"name":"Originals Access Hotel","tourism":"hotel"}},
{"type":"Feature","geometry":{"type":"Point","coordinates":[1.6143818,42.9914187]},"properties":{"name":"Hôtel du Lac","tourism":"hotel"}},
{"type":"Feature","geometry":{"type":"Point","coordinates":[1.5995524,43.0093413]},"properties":{"genus":"Salix","genus:fr":"Saule","natural":"tree"}},
{"type":"Feature","geometry":{"type":"Point","coordinates":[1.5733551,42.8561717]},"properties":{"name":"Aire de Pique-nique","tourism":"picnic_site"}},
{"type":"Feature","geometry":{"type":"Point","coordinates":[1.5734328,42.8564092]},"properties":{"access":"yes","leisure":"playground","name":"Jeux d'enfants"}},
{"type":"Feature","geometry":{"type":"Point","coordinates":[1.5737845,42.8575188]},"properties":{"name":"Panorama de la chasse","tourism":"attraction","wheelchair":"no"}},
{"type":"Feature","geometry":{"type":"Point","coordinates":[1.6072307,42.8437205]},"properties":{"information":"map","map_size":"region","map_type":"topo","name":"Montagnes de Tarascon & du Vicdessos","tourism":"information"}},
{"type":"Feature","geometry":{"type":"Point","coordinates":[1.6088024,42.8424387]},"properties":{"access":"yes","leisure":"playground"}},
{"type":"Feature","geometry":{"type":"Point","coordinates":[1.6060341,42.8452052]},"properties":{"check_date":"2024-09-05","information":"map","map_size":"city","map_type":"street","tourism":"information"}},
{"type":"Feature","geometry":{"type":"Point","coordinates":[1.6087553,42.8424713]},"properties":{"description":"1 Table","tourism":"picnic_site"}},
{"type":"Feature","geometry":{"type":"Point","coordinates":[1.6078562,42.8431326]},"properties":{"description":"1 Table","tourism":"picnic_site"}},
{"type":"Feature","geometry":{"type":"Point","coordinates":[1.5581734,42.8697088]},"properties":{"historic":"castle","image":"File:Château de Calamès.jpg","name":"Château de Calamès","ruins":"yes","wikidata":"Q2968738","wikipedia":"fr:Château de Calamès"}},
{"type":"Feature","geometry":{"type":"Point","coordinates":[1.6633228,42.9775136]},"properties":{"name":"Aire Naturelle La Clairiere","note":"http://www.tourisme-midi-pyrenees.com/camping-la-clairiere-a-l-herm/l-herm/tabid/2271/offreid/5648cd1f-c005-4ecb-a27f-66168a920fff/detail.aspx","phone":"+33 5 61016512","tourism":"camp_site"}},
{"type":"Feature","geometry":{"type":"Point","coordinates":[1.6674031,42.8708714]},"properties":{"information":"orientation_table","source":"survey","tourism":"information"}},
{"type":"Feature","geometry":{"type":"Point","coordinates":[1.6053451,42.8480368]},"properties":{"internet_access":"wlan","internet_access:fee":"no","name":"Hostellerie de la poste","phone":"+33561017945","stars":"2","tourism":"hotel","website":"https://www.lhostellerieposte.com/"}},
{"type":"Feature","geometry":{"type":"Point","coordinates":[1.640954,42.9575909]},"properties":{"description":"Propriété PRIVEE du Pech de Foix.\nPassage interdit.  Merci","ele":"797","name":"Col de Porte-Pa","natural":"saddle"}},
{"type":"Feature","geometry":{"type":"Point","coordinates":[1.5557497,42.8816525]},"properties":{"historic":"castle","name":"Tour de Montorgueil","ruins":"yes"}},
{"type":"Feature","geometry":{"type":"Point","coordinates":[1.5554924,42.891061]},"properties":{"name":"Ampriels","note":"FIXME S'agit-il du même que le gite Le Souleilhan ?","tourism":"guest_house"}},
{"type":"Feature","geometry":{"type":"Point","coordinates":[1.5041876,42.8924661]},"properties":{"name":"Source de Sept Fons","natural":"spring"}},
{"type":"Feature","geometry":{"type":"Point","coordinates":[1.6075089,42.9641932]},"properties":{"barrier":"gate"}},
{"type":"Feature","geometry":{"type":"Point","coordinates":[1.545929,42.8826298]},"properties":{"name":"Grotte de Siech","natural":"cave_entrance"}},
{"type":"Feature","geometry":{"type":"Point","coordinates":[1.5413589,42.892299]},"properties":{"name":"cabanes de l'espinal","phone":"+33 6 72 73 71 97","tourism":"guest_house","website":"https://lescabanesdelespinal.jimdo.com/"}},
{"type":"Feature","geometry":{"type":"Point","coordinates":[1.6246205,42.8830587]},"properties":{"leisure":"playground","name":"Base nautique","sport":"water_ski","tourism":"picnic_site"}},
{"type":"Feature","geometry":{"type":"Point","coordinates":[1.5545199,42.8680944]},"properties":{"ele":"820","name":"Col d'Ijou","natural":"saddle"}},
{"type":"Feature","geometry":{"type":"Point","coordinates":[1.6212427,42.8877911]},"properties":{"leisure":"pitch","sport":"basketball"}},
{"type":"Feature","geometry":{"type":"Point","coordinates":[1.5881531,42.8561139]},"properties":{"name":"Les chataigniers de Florac","tourism":"guest_house","website":"https://www.les-chataigniers-de-florac.com/"}},
{"type":"Feature","geometry":{"type":"Point","coordinates":[1.6066599,42.9635603]},"properties":{"natural":"tree"}},
{"type":"Feature","geometry":{"type":"Point","coordinates":[1.6067995,42.9635909]},"properties":{"natural":"tree"}},
{"type":"Feature","geometry":{"type":"Point","coordinates":[1.60694,42.9636159]},"properties":{"natural":"tree"}},
{"type":"Feature","geometry":{"type":"Point","coordinates":[1.6070709,42.9636356]},"properties":{"natural":"tree"}},
{"type":"Feature","geometry":{"type":"Point","coordinates":[1.6072266,42.9636497]},"properties":{"natural":"tree"}},
{"type":"Feature","geometry":{"type":"Point","coordinates":[1.606476,42.9636544]},"properties":{"natural":"tree"}},
{"type":"Feature","geometry":{"type":"Point","coordinates":[1.6073751,42.9636742]},"properties":{"natural":"tree"}},
{"type":"Feature","geometry":{"type":"Point","coordinates":[1.6066346,42.9636708]},"properties":{"natural":"tree"}},
{"type":"Feature","geometry":{"type":"Point","coordinates":[1.6074893,42.9636919]},"properties":{"natural":"tree"}},
{"type":"Feature","geometry":{"type":"Point","coordinates":[1.6067929,42.9636922]},"properties":{"natural":"tree"}},
{"type":"Feature","geometry":{"type":"Point","coordinates":[1.607634,42.9637098]},"properties":{"natural":"tree"}},
{"type":"Feature","geometry":{"type":"Point","coordinates":[1.607757,42.9637251]},"properties":{"natural":"tree"}},
{"type":"Feature","geometry":{"type":"Point","coordinates":[1.6069071,42.963711]},"properties":{"natural":"tree"}},
{"type":"Feature","geometry":{"type":"Point","coordinates":[1.6070425,42.9637392]},"properties":{"natural":"tree"}},
{"type":"Feature","geometry":{"type":"Point","coordinates":[1.6079429,42.9637482]},"properties":{"natural":"tree"}},
{"type":"Feature","geometry":{"type":"Point","coordinates":[1.6064562,42.9637464]},"properties":{"natural":"tree"}},
{"type":"Feature","geometry":{"type":"Point","coordinates":[1.607198,42.9637477]},"properties":{"natural":"tree"}},
{"type":"Feature","geometry":{"type":"Point","coordinates":[1.6080818,42.9637659]},"properties":{"natural":"tree"}},
{"type":"Feature","geometry":{"type":"Point","coordinates":[1.6066108,42.9637748]},"properties":{"natural":"tree"}},
{"type":"Feature","geometry":{"type":"Point","coordinates":[1.607348,42.9637724]},"properties":{"natural":"tree"}},
{"type":"Feature","geometry":{"type":"Point","coordinates":[1.6082109,42.9637837]},"properties":{"natural":"tree"}},
{"type":"Feature","geometry":{"type":"Point","coordinates":[1.6074628,42.9637964]},"properties":{"natural":"tree"}},
{"type":"Feature","geometry":{"type":"Point","coordinates":[1.6067229,42.9637973]},"properties":{"natural":"tree"}},
{"type":"Feature","geometry":{"type":"Point","coordinates":[1.6068657,42.9638162]},"properties":{"natural":"tree"}},
{"type":"Feature","geometry":{"type":"Point","coordinates":[1.6076166,42.9638168]},"properties":{"natural":"tree"}},
{"type":"Feature","geometry":{"type":"Point","coordinates":[1.6085814,42.9638275]},"properties":{"natural":"tree"}},
{"type":"Feature","geometry":{"type":"Point","coordinates":[1.6070122,42.9638355]},"properties":{"natural":"tree"}},
{"type":"Feature","geometry":{"type":"Point","coordinates":[1.6077613,42.963836]},"properties":{"natural":"tree"}},
{"type":"Feature","geometry":{"type":"Point","coordinates":[1.6071583,42.9638518]},"properties":{"natural":"tree"}},
{"type":"Feature","geometry":{"type":"Point","coordinates":[1.6079145,42.9638625]},"properties":{"natural":"tree"}},
{"type":"Feature","geometry":{"type":"Point","coordinates":[1.6080458,42.9638799]},"properties":{"natural":"tree"}},
{"type":"Feature","geometry":{"type":"Point","coordinates":[1.6073201,42.9638734]},"properties":{"natural":"tree"}},
{"type":"Feature","geometry":{"type":"Point","coordinates":[1.6081636,42.9638955]},"properties":{"natural":"tree"}},
{"type":"Feature","geometry":{"type":"Point","coordinates":[1.6074305,42.9638877]},"properties":{"natural":"tree"}},
{"type":"Feature","geometry":{"type":"Point","coordinates":[1.6083163,42.9639157]},"properties":{"natural":"tree"}},
{"type":"Feature","geometry":{"type":"Point","coordinates":[1.6075936,42.9639092]},"properties":{"natural":"tree"}},
{"type":"Feature","geometry":{"type":"Point","coordinates":[1.6084444,42.9639327]},"properties":{"natural":"tree"}},
{"type":"Feature","geometry":{"type":"Point","coordinates":[1.6077261,42.9639267]},"properties":{"natural":"tree"}},
{"type":"Feature","geometry":{"type":"Point","coordinates":[1.6085422,42.9639457]},"properties":{"natural":"tree"}},
{"type":"Feature","geometry":{"type":"Point","coordinates":[1.6078789,42.9639468]},"properties":{"natural":"tree"}},
{"type":"Feature","geometry":{"type":"Point","coordinates":[1.6080197,42.9639654]},"properties":{"natural":"tree"}},
{"type":"Feature","geometry":{"type":"Point","coordinates":[1.6081803,42.9639865]},"properties":{"natural":"tree"}},
{"type":"Feature","geometry":{"type":"Point","coordinates":[1.608428,42.9640225]},"properties":{"natural":"tree"}},
{"type":"Feature","geometry":{"type":"Point","coordinates":[1.5219295,42.8878025]},"properties":{"amenity":"lavoir","historic":"lavoir","name":"Lavoir"}},
{"type":"Feature","geometry":{"type":"Point","coordinates":[1.5623262,42.8735905]},"properties":{"tourism":"picnic_site"}},
{"type":"Feature","geometry":{"type":"Point","coordinates":[1.5555019,42.8911059]},"properties":{"name":"Gite Le Souleilhan","tourism":"guest_house"}},
{"type":"Feature","geometry":{"type":"Point","coordinates":[1.6047597,42.9657002]},"properties":{"alt_name":"Château des Comtes de Foix","fee":"yes","heritage:operator":"mhs","historic":"castle","mhs:inscription_date":"1840","name":"Château de Foix","official_name":"Musée départemental de l'Ariège","opening_hours":"PH,Mo-Su 10:00-18:30","phone":"+33 5 61 05 10 10","ref:FR:museofile":"M0543","ref:mhs":"PA00093793","source":"Ministère de la Culture - Muséofile - 09/2019","source:heritage":"data.gouv.fr:Ministère de la Culture - 08/2011","tourism":"museum","website":"https://musees-occitanie.fr/musees/chateau-des-comtes-de-foix","wheelchair":"no","wikidata":"Q1011806","wikipedia":"fr:Château de Foix"}},
{"type":"Feature","geometry":{"type":"Point","coordinates":[1.5877907,42.8784834]},"properties":{"name":"Fontaine de Font-Sainte","natural":"spring","source":"cadastre-dgi-fr source : Direction Générale des Impôts - Cadastre. Mise à jour : 2014"}},
{"type":"Feature","geometry":{"type":"Point","coordinates":[1.5864629,42.8931401]},"properties":{"ele":"1374","name":"Roc du Traucadou","natural":"peak","reg_name":"Roc del Cap de Traoucadou","source":"cadastre-dgi-fr source : Direction Générale des Impôts - Cadastre. Mise à jour : 2014"}},
{"type":"Feature","geometry":{"type":"Point","coordinates":[1.6028748,42.8874154]},"properties":{"ele":"1182","name":"Roc du Taus","natural":"peak","source":"cadastre-dgi-fr source : Direction Générale des Impôts - Cadastre. Mise à jour : 2014"}},
{"type":"Feature","geometry":{"type":"Point","coordinates":[1.5905594,42.8937104]},"properties":{"natural":"peak","source":"cadastre-dgi-fr source : Direction Générale des Impôts - Cadastre. Mise à jour : 2014"}},
{"type":"Feature","geometry":{"type":"Point","coordinates":[1.6017239,42.8432237]},"properties":{"name":"Le Manoir d'Agnès","phone":"+33 5 61 02 32 81","stars":"3","tourism":"hotel","website":"https://www.manoiragnes.com/manoir-hotel/index.php"}},
{"type":"Feature","geometry":{"type":"Point","coordinates":[1.616311,42.8232161]},"properties":{"name":"Grotte de Lombrives","natural":"cave_entrance","wikidata":"Q2100387"}},
{"type":"Feature","geometry":{"type":"Point","coordinates":[1.5868571,42.8191663]},"properties":{"name":"Grotte des Fées","natural":"cave_entrance"}},
{"type":"Feature","geometry":{"type":"Point","coordinates":[1.5876837,42.8207063]},"properties":{"heritage":"3","heritage:operator":"mhs","historic":"archaeological_site","image":"File:Entrée de la grotte de la Vache.jpg","mhs:inscription_date":"1952-01-28","name":"Grotte de la Vache","natural":"cave_entrance","ref:mhs":"PA00093766","source:heritage":"data.gouv.fr:Ministère de la Culture - 04/2015","wikidata":"Q3117204","wikipedia":"fr:Grotte de la Vache"}},
{"type":"Feature","geometry":{"type":"Point","coordinates":[1.6074649,42.8446893]},"properties":{"historic":"memorial","memorial":"war_memorial","ref:FR:MemorialGenWeb":"17241"}},
{"type":"Feature","geometry":{"type":"Point","coordinates":[1.6058028,42.8468481]},"properties":{"addr:city":"Tarascon-sur-Ariège","addr:country":"FR","addr:housenumber":"3","addr:postcode":"09400","addr:street":"Quai Armand Sylvestre","internet_access":"wlan","name":"Hôtel Confort","rooms":"14","stars":"2","tourism":"hotel"}},
{"type":"Feature","geometry":{"type":"Point","coordinates":[1.6223088,42.8515381]},"properties":{"name":"Col de Bazech","natural":"saddle"}},
{"type":"Feature","geometry":{"type":"Point","coordinates":[1.6473078,42.8537974]},"properties":{"historic":"memorial","memorial":"war_memorial","ref:FR:MemorialGenWeb":"47611"}},
{"type":"Feature","geometry":{"type":"Point","coordinates":[1.5546404,42.8569177]},"properties":{"historic":"memorial","memorial":"war_memorial","name":"Monument aux morts"}},
{"type":"Feature","geometry":{"type":"Point","coordinates":[1.5346074,42.8777335]},"properties":{"historic":"memorial","memorial":"war_memorial","ref:FR:MemorialGenWeb":"47457"}},
{"type":"Feature","geometry":{"type":"Point","coordinates":[1.5870157,42.8196569]},"properties":{"name":"Spoulga d'Alliat","natural":"cave_entrance"}},
{"type":"Feature","geometry":{"type":"Point","coordinates":[1.5999951,42.8320086]},"properties":{"name":"Grotte de Sabart","natural":"cave_entrance","wikidata":"Q3117170"}},
{"type":"Feature","geometry":{"type":"Point","coordinates":[1.5961904,42.835839]},"properties":{"name":"Grotte de Sakany","natural":"cave_entrance"}},
{"type":"Feature","geometry":{"type":"Point","coordinates":[1.6209588,42.8272156]},"properties":{"name":"Grotte des Eglises","natural":"cave_entrance"}},
{"type":"Feature","geometry":{"type":"Point","coordinates":[1.623032,42.8240132]},"properties":{"name":"Trou de la Vapeur","natural":"cave_entrance"}},
{"type":"Feature","geometry":{"type":"Point","coordinates":[1.6235415,42.8232131]},"properties":{"name":"Grotte de l'Ermite - Entrée Ussat","natural":"cave_entrance"}},
{"type":"Feature","geometry":{"type":"Point","coordinates":[1.5322913,42.883776]},"properties":{"name":"Grotte de l'Arse","natural":"cave_entrance"}},
{"type":"Feature","geometry":{"type":"Point","coordinates":[1.5351842,42.9998854]},"properties":{"name":"Grotte Bernard","natural":"cave_entrance"}},
{"type":"Feature","geometry":{"type":"Point","coordinates":[1.6398817,42.9612167]},"properties":{"name":"Gouffre de Patriquettes","natural":"cave_entrance"}},
{"type":"Feature","geometry":{"type":"Point","coordinates":[1.6280886,42.8218578]},"properties":{"name":"Grotte de Bethlehem","natural":"cave_entrance"}},
{"type":"Feature","geometry":{"type":"Point","coordinates":[1.7153681,43.0415996]},"properties":{"ele":"452","name":"Col de la Croix","natural":"saddle"}},
{"type":"Feature","geometry":{"type":"Point","coordinates":[1.711549,42.904097]},"properties":{"name":"Grotte de Peyrillou","name:oc":"Tuta de Peirilhon","natural":"cave_entrance"}},
{"type":"Feature","geometry":{"type":"Point","coordinates":[1.5970878,42.8363724]},"properties":{"name":"Grottes des Echelles","natural":"cave_entrance"}},
{"type":"Feature","geometry":{"type":"Point","coordinates":[1.6063317,42.8462599]},"properties":{"historic":"wayside_cross"}},
{"type":"Feature","geometry":{"type":"Point","coordinates":[1.6077694,42.8444706]},"properties":{"natural":"tree"}},
{"type":"Feature","geometry":{"type":"Point","coordinates":[1.6078329,42.844572]},"properties":{"natural":"tree"}},
{"type":"Feature","geometry":{"type":"Point","coordinates":[1.6079111,42.8444085]},"properties":{"natural":"tree"}},
{"type":"Feature","geometry":{"type":"Point","coordinates":[1.6076294,42.8445016]},"properties":{"natural":"tree"}},
{"type":"Feature","geometry":{"type":"Point","coordinates":[1.6075773,42.8445685]},"properties":{"natural":"tree"}},
{"type":"Feature","geometry":{"type":"Point","coordinates":[1.6074763,42.8445315]},"properties":{"natural":"tree"}},
{"type":"Feature","geometry":{"type":"Point","coordinates":[1.607149,42.844547]},"properties":{"natural":"tree"}},
{"type":"Feature","geometry":{"type":"Point","coordinates":[1.6070155,42.8447905]},"properties":{"natural":"tree"}},
{"type":"Feature","geometry":{"type":"Point","coordinates":[1.6089467,42.8452502]},"properties":{"natural":"tree"}},
{"type":"Feature","geometry":{"type":"Point","coordinates":[1.6089418,42.8451606]},"properties":{"natural":"tree"}},
{"type":"Feature","geometry":{"type":"Point","coordinates":[1.6089549,42.8453767]},"properties":{"natural":"tree"}},
{"type":"Feature","geometry":{"type":"Point","coordinates":[1.6089337,42.8454723]},"properties":{"natural":"tree"}},
{"type":"Feature","geometry":{"type":"Point","coordinates":[1.6089142,42.8455642]},"properties":{"natural":"tree"}},
{"type":"Feature","geometry":{"type":"Point","coordinates":[1.6088832,42.8456489]},"properties":{"natural":"tree"}},
{"type":"Feature","geometry":{"type":"Point","coordinates":[1.6088669,42.8457182]},"properties":{"natural":"tree"}},
{"type":"Feature","geometry":{"type":"Point","coordinates":[1.6088132,42.8454114]},"properties":{"natural":"tree"}},
{"type":"Feature","geometry":{"type":"Point","coordinates":[1.6088083,42.8453624]},"properties":{"natural":"tree"}},
{"type":"Feature","geometry":{"type":"Point","coordinates":[1.608727,42.8453679]},"properties":{"natural":"tree"}},
{"type":"Feature","geometry":{"type":"Point","coordinates":[1.608525,42.8462602]},"properties":{"leaf_type":"broadleaved","natural":"tree"}},
{"type":"Feature","geometry":{"type":"Point","coordinates":[1.6083719,42.8464632]},"properties":{"leaf_type":"broadleaved","natural":"tree"}},
{"type":"Feature","geometry":{"type":"Point","coordinates":[1.6082547,42.8465217]},"properties":{"leaf_type":"broadleaved","natural":"tree"}},
{"type":"Feature","geometry":{"type":"Point","coordinates":[1.6083003,42.8466244]},"properties":{"leaf_type":"broadleaved","natural":"tree"}},
{"type":"Feature","geometry":{"type":"Point","coordinates":[1.608398,42.8466649]},"properties":{"leaf_type":"broadleaved","natural":"tree"}},
{"type":"Feature","geometry":{"type":"Point","coordinates":[1.6087204,42.8465694]},"properties":{"leaf_type":"broadleaved","natural":"tree"}},
{"type":"Feature","geometry":{"type":"Point","coordinates":[1.6086325,42.8467318]},"properties":{"leaf_type":"broadleaved","natural":"tree"}},
{"type":"Feature","geometry":{"type":"Point","coordinates":[1.6081439,42.8464859]},"properties":{"natural":"tree"}},
{"type":"Feature","geometry":{"type":"Point","coordinates":[1.6088946,42.8466232]},"properties":{"leaf_type":"broadleaved","natural":"tree"}},
{"type":"Feature","geometry":{"type":"Point","coordinates":[1.6080511,42.8467545]},"properties":{"leaf_type":"broadleaved","natural":"tree"}},
{"type":"Feature","geometry":{"type":"Point","coordinates":[1.6088897,42.8471532]},"properties":{"leaf_type":"broadleaved","natural":"tree"}},
{"type":"Feature","geometry":{"type":"Point","coordinates":[1.6090982,42.8469169]},"properties":{"leaf_type":"broadleaved","natural":"tree"}},
{"type":"Feature","geometry":{"type":"Point","coordinates":[1.6090998,42.8472631]},"properties":{"leaf_type":"broadleaved","natural":"tree"}},
{"type":"Feature","geometry":{"type":"Point","coordinates":[1.609217,42.8469694]},"properties":{"leaf_type":"broadleaved","natural":"tree"}},
{"type":"Feature","geometry":{"type":"Point","coordinates":[1.609305,42.8471317]},"properties":{"leaf_type":"broadleaved","natural":"tree"}},
{"type":"Feature","geometry":{"type":"Point","coordinates":[1.6094841,42.846973]},"properties":{"leaf_type":"broadleaved","natural":"tree"}},
{"type":"Feature","geometry":{"type":"Point","coordinates":[1.609331,42.8468691]},"properties":{"leaf_type":"broadleaved","natural":"tree"}},
{"type":"Feature","geometry":{"type":"Point","coordinates":[1.6096176,42.8468739]},"properties":{"leaf_type":"broadleaved","natural":"tree"}},
{"type":"Feature","geometry":{"type":"Point","coordinates":[1.6062965,42.8461955]},"properties":{"name":"Castella","tourism":"viewpoint"}},
{"type":"Feature","geometry":{"type":"Point","coordinates":[1.6086872,42.8468566]},"properties":{"leaf_type":"broadleaved","natural":"tree"}},
{"type":"Feature","geometry":{"type":"Point","coordinates":[1.60278,42.8444218]},"properties":{"natural":"tree"}},
{"type":"Feature","geometry":{"type":"Point","coordinates":[1.6027327,42.8443449]},"properties":{"natural":"tree"}},
{"type":"Feature","geometry":{"type":"Point","coordinates":[1.6025221,42.8441643]},"properties":{"natural":"tree"}},
{"type":"Feature","geometry":{"type":"Point","coordinates":[1.602466,42.8441066]},"properties":{"natural":"tree"}},
{"type":"Feature","geometry":{"type":"Point","coordinates":[1.602423,42.8440649]},"properties":{"natural":"tree"}},
{"type":"Feature","geometry":{"type":"Point","coordinates":[1.602412,42.8439794]},"properties":{"natural":"tree"}},
{"type":"Feature","geometry":{"type":"Point","coordinates":[1.6027917,42.8439709]},"properties":{"natural":"tree"}},
{"type":"Feature","geometry":{"type":"Point","coordinates":[1.602874,42.8440361]},"properties":{"natural":"tree"}},
{"type":"Feature","geometry":{"type":"Point","coordinates":[1.6026913,42.8438081]},"properties":{"natural":"tree"}},
{"type":"Feature","geometry":{"type":"Point","coordinates":[1.6027979,42.8435242]},"properties":{"natural":"tree"}},
{"type":"Feature","geometry":{"type":"Point","coordinates":[1.6028894,42.8434869]},"properties":{"natural":"tree"}},
{"type":"Feature","geometry":{"type":"Point","coordinates":[1.6030718,42.8434569]},"properties":{"natural":"tree"}},
{"type":"Feature","geometry":{"type":"Point","coordinates":[1.6032378,42.8433417]},"properties":{"natural":"tree"}},
{"type":"Feature","geometry":{"type":"Point","coordinates":[1.6034331,42.8433672]},"properties":{"natural":"tree"}},
{"type":"Feature","geometry":{"type":"Point","coordinates":[1.6039869,42.8438309]},"properties":{"natural":"tree"}},
{"type":"Feature","geometry":{"type":"Point","coordinates":[1.6039612,42.8437788]},"properties":{"natural":"tree"}},
{"type":"Feature","geometry":{"type":"Point","coordinates":[1.6039493,42.8437309]},"properties":{"natural":"tree"}},
{"type":"Feature","geometry":{"type":"Point","coordinates":[1.6039335,42.8436744]},"properties":{"natural":"tree"}},
{"type":"Feature","geometry":{"type":"Point","coordinates":[1.6039078,42.8436077]},"properties":{"natural":"tree"}},
{"type":"Feature","geometry":{"type":"Point","coordinates":[1.6039038,42.8435439]},"properties":{"natural":"tree"}},
{"type":"Feature","geometry":{"type":"Point","coordinates":[1.6038742,42.8434946]},"properties":{"natural":"tree"}},
{"type":"Feature","geometry":{"type":"Point","coordinates":[1.6038623,42.8434279]},"properties":{"natural":"tree"}},
{"type":"Feature","geometry":{"type":"Point","coordinates":[1.6038504,42.8433598]},"properties":{"natural":"tree"}},
{"type":"Feature","geometry":{"type":"Point","coordinates":[1.6038326,42.8432757]},"properties":{"natural":"tree"}},
{"type":"Feature","geometry":{"type":"Point","coordinates":[1.6038247,42.8431612]},"properties":{"natural":"tree"}},
{"type":"Feature","geometry":{"type":"Point","coordinates":[1.603827,42.8430424]},"properties":{"natural":"tree"}},
{"type":"Feature","geometry":{"type":"Point","coordinates":[1.6038205,42.842923]},"properties":{"natural":"tree"}},
{"type":"Feature","geometry":{"type":"Point","coordinates":[1.6038302,42.8427798]},"properties":{"natural":"tree"}},
{"type":"Feature","geometry":{"type":"Point","coordinates":[1.6038433,42.8426556]},"properties":{"natural":"tree"}},
{"type":"Feature","geometry":{"type":"Point","coordinates":[1.6038498,42.8424956]},"properties":{"natural":"tree"}},
{"type":"Feature","geometry":{"type":"Point","coordinates":[1.6038661,42.8423308]},"properties":{"natural":"tree"}},
{"type":"Feature","geometry":{"type":"Point","coordinates":[1.6062241,42.8445409]},"properties":{"natural":"tree"}},
{"type":"Feature","geometry":{"type":"Point","coordinates":[1.6059588,42.8446192]},"properties":{"natural":"tree"}},
{"type":"Feature","geometry":{"type":"Point","coordinates":[1.6059408,42.8445726]},"properties":{"natural":"tree"}},
{"type":"Feature","geometry":{"type":"Point","coordinates":[1.6073627,42.8442045]},"properties":{"natural":"tree"}},
{"type":"Feature","geometry":{"type":"Point","coordinates":[1.6073252,42.8443741]},"properties":{"natural":"tree"}},
{"type":"Feature","geometry":{"type":"Point","coordinates":[1.6069139,42.8441856]},"properties":{"natural":"tree"}},
{"type":"Feature","geometry":{"type":"Point","coordinates":[1.606995,42.84409]},"properties":{"natural":"tree"}},
{"type":"Feature","geometry":{"type":"Point","coordinates":[1.6067854,42.844348]},"properties":{"natural":"tree"}},
{"type":"Feature","geometry":{"type":"Point","coordinates":[1.6066885,42.8444698]},"properties":{"natural":"tree"}},
{"type":"Feature","geometry":{"type":"Point","coordinates":[1.6065244,42.8446901]},"properties":{"natural":"tree"}},
{"type":"Feature","geometry":{"type":"Point","coordinates":[1.6063939,42.8448597]},"properties":{"natural":"tree"}},
{"type":"Feature","geometry":{"type":"Point","coordinates":[1.6062951,42.8456773]},"properties":{"natural":"tree"}},
{"type":"Feature","geometry":{"type":"Point","coordinates":[1.6062219,42.8457252]},"properties":{"natural":"tree"}},
{"type":"Feature","geometry":{"type":"Point","coordinates":[1.606216,42.8458324]},"properties":{"natural":"tree"}},
{"type":"Feature","geometry":{"type":"Point","coordinates":[1.6061744,42.8464848]},"properties":{"natural":"tree"}},
{"type":"Feature","geometry":{"type":"Point","coordinates":[1.6070552,42.9672829]},"properties":{"natural":"tree"}},
{"type":"Feature","geometry":{"type":"Point","coordinates":[1.607358,42.9671016]},"properties":{"natural":"tree"}},
{"type":"Feature","geometry":{"type":"Point","coordinates":[1.6071854,42.9670134]},"properties":{"natural":"tree"}},
{"type":"Feature","geometry":{"type":"Point","coordinates":[1.60695,42.9673342]},"properties":{"natural":"tree"}},
{"type":"Feature","geometry":{"type":"Point","coordinates":[1.6068435,42.9674352]},"properties":{"natural":"tree"}},
{"type":"Feature","geometry":{"type":"Point","coordinates":[1.6064836,42.9675019]},"properties":{"natural":"tree"}},
{"type":"Feature","geometry":{"type":"Point","coordinates":[1.605987,42.967608]},"properties":{"natural":"tree"}},
{"type":"Feature","geometry":{"type":"Point","coordinates":[1.6063794,42.9677557]},"properties":{"natural":"tree"}},
{"type":"Feature","geometry":{"type":"Point","coordinates":[1.606622,42.9676556]},"properties":{"natural":"tree"}},
{"type":"Feature","geometry":{"type":"Point","coordinates":[1.6054626,42.9679202]},"properties":{"natural":"tree"}},
{"type":"Feature","geometry":{"type":"Point","coordinates":[1.6054747,42.967994]},"properties":{"natural":"tree"}},
{"type":"Feature","geometry":{"type":"Point","coordinates":[1.6060374,42.9682943]},"properties":{"natural":"tree"}},
{"type":"Feature","geometry":{"type":"Point","coordinates":[1.6060016,42.9681561]},"properties":{"natural":"tree"}},
{"type":"Feature","geometry":{"type":"Point","coordinates":[1.6059632,42.9679508]},"properties":{"natural":"tree"}},
{"type":"Feature","geometry":{"type":"Point","coordinates":[1.6062605,42.9680539]},"properties":{"natural":"tree"}},
{"type":"Feature","geometry":{"type":"Point","coordinates":[1.6057302,42.9678584]},"properties":{"natural":"tree"}},
{"type":"Feature","geometry":{"type":"Point","coordinates":[1.607358,42.9677355]},"properties":{"natural":"tree"}},
{"type":"Feature","geometry":{"type":"Point","coordinates":[1.6071512,42.967851]},"properties":{"natural":"tree"}},
{"type":"Feature","geometry":{"type":"Point","coordinates":[1.6067526,42.9681056]},"properties":{"natural":"tree"}},
{"type":"Feature","geometry":{"type":"Point","coordinates":[1.6065409,42.9683081]},"properties":{"natural":"tree"}},
{"type":"Feature","geometry":{"type":"Point","coordinates":[1.606606,42.968208]},"properties":{"natural":"tree"}},
{"type":"Feature","geometry":{"type":"Point","coordinates":[1.6066033,42.9685673]},"properties":{"natural":"tree"}},
{"type":"Feature","geometry":{"type":"Point","coordinates":[1.6066409,42.9684534]},"properties":{"natural":"tree"}},
{"type":"Feature","geometry":{"type":"Point","coordinates":[1.6060685,42.9685758]},"properties":{"natural":"tree"}},
{"type":"Feature","geometry":{"type":"Point","coordinates":[1.606113,42.9686705]},"properties":{"natural":"tree"}},
{"type":"Feature","geometry":{"type":"Point","coordinates":[1.6061367,42.9684854]},"properties":{"natural":"tree"}},
{"type":"Feature","geometry":{"type":"Point","coordinates":[1.6062988,42.9679176]},"properties":{"natural":"tree"}},
{"type":"Feature","geometry":{"type":"Point","coordinates":[1.6077089,42.9675077]},"properties":{"natural":"tree"}},
{"type":"Feature","geometry":{"type":"Point","coordinates":[1.5753245,43.0025505]},"properties":{"leisure":"picnic_table"}},
{"type":"Feature","geometry":{"type":"Point","coordinates":[1.5618258,42.9058632]},"properties":{"ele":"1490","name":"Bout De Touron","natural":"peak"}},
{"type":"Feature","geometry":{"type":"Point","coordinates":[1.5767574,42.8954912]},"properties":{"direction":"NNE","ele":"1319","name":"Col Du Traucadou","natural":"saddle"}},
{"type":"Feature","geometry":{"type":"Point","coordinates":[1.6069956,42.9696215]},"properties":{"check_date":"2021-12-17","information":"terminal","tourism":"information"}},
{"type":"Feature","geometry":{"type":"Point","coordinates":[1.6069878,42.9697065]},"properties":{"check_date":"2021-07-03","information":"terminal","tourism":"information"}},
{"type":"Feature","geometry":{"type":"Point","coordinates":[1.596411,42.8362255]},"properties":{"name":"Sakany Accident","natural":"cave_entrance"}},
{"type":"Feature","geometry":{"type":"Point","coordinates":[1.5971465,42.8358795]},"properties":{"name":"Grotte des Amoureux","natural":"cave_entrance"}},
{"type":"Feature","geometry":{"type":"Point","coordinates":[1.5971576,42.8365189]},"properties":{"name":"Grotte supérieure des Echelles","natural":"cave_entrance"}},
{"type":"Feature","geometry":{"type":"Point","coordinates":[1.5404024,43.0313669]},"properties":{"addr:city":"Loubens","addr:postcode":"09120","addr:street":"Lieu-dit Le Portel","description":"Grotte ornée d’œuvres datant du Magdalénien (paléolithique supérieur), classée aux monuments historiques depuis 1969.","name":"Grotte du Portel","natural":"cave_entrance","tourism":"attraction","wikidata":"Q15950310","wikipedia":"fr:Grotte du Portel"}},
{"type":"Feature","geometry":{"type":"Point","coordinates":[1.5792798,42.9758649]},"properties":{"check_date":"2024-07-30","leisure":"picnic_table"}},
{"type":"Feature","geometry":{"type":"Point","coordinates":[1.6040915,42.8462657]},"properties":{"leaf_type":"broadleaved","natural":"tree"}},
{"type":"Feature","geometry":{"type":"Point","coordinates":[1.6042839,42.8462411]},"properties":{"natural":"tree"}},
{"type":"Feature","geometry":{"type":"Point","coordinates":[1.6043641,42.8463106]},"properties":{"natural":"tree"}},
{"type":"Feature","geometry":{"type":"Point","coordinates":[1.6044107,42.8461802]},"properties":{"natural":"tree"}},
{"type":"Feature","geometry":{"type":"Point","coordinates":[1.6044282,42.8463213]},"properties":{"natural":"tree"}},
{"type":"Feature","geometry":{"type":"Point","coordinates":[1.6037598,42.8460174]},"properties":{"natural":"tree"}},
{"type":"Feature","geometry":{"type":"Point","coordinates":[1.6077588,42.8464216]},"properties":{"natural":"tree"}},
{"type":"Feature","geometry":{"type":"Point","coordinates":[1.6076652,42.8464322]},"properties":{"natural":"tree"}},
{"type":"Feature","geometry":{"type":"Point","coordinates":[1.6075644,42.846448]},"properties":{"natural":"tree"}},
{"type":"Feature","geometry":{"type":"Point","coordinates":[1.6077564,42.8463371]},"properties":{"natural":"tree"}},
{"type":"Feature","geometry":{"type":"Point","coordinates":[1.6083494,42.8463477]},"properties":{"leaf_type":"broadleaved","natural":"tree"}},
{"type":"Feature","geometry":{"type":"Point","coordinates":[1.6082558,42.8462967]},"properties":{"natural":"tree"}},
{"type":"Feature","geometry":{"type":"Point","coordinates":[1.6081309,42.8462403]},"properties":{"natural":"tree"}},
{"type":"Feature","geometry":{"type":"Point","coordinates":[1.608105,42.8460176]},"properties":{"natural":"tree"}},
{"type":"Feature","geometry":{"type":"Point","coordinates":[1.6079941,42.8461594]},"properties":{"natural":"tree"}},
{"type":"Feature","geometry":{"type":"Point","coordinates":[1.6086351,42.8462351]},"properties":{"natural":"tree"}},
{"type":"Feature","geometry":{"type":"Point","coordinates":[1.6086567,42.8461594]},"properties":{"natural":"tree"}},
{"type":"Feature","geometry":{"type":"Point","coordinates":[1.6088127,42.8465396]},"properties":{"natural":"tree"}},
{"type":"Feature","geometry":{"type":"Point","coordinates":[1.6087959,42.8465008]},"properties":{"natural":"tree"}},
{"type":"Feature","geometry":{"type":"Point","coordinates":[1.6087791,42.8464304]},"properties":{"natural":"tree"}},
{"type":"Feature","geometry":{"type":"Point","coordinates":[1.6087695,42.8463812]},"properties":{"natural":"tree"}},
{"type":"Feature","geometry":{"type":"Point","coordinates":[1.6087743,42.8463301]},"properties":{"natural":"tree"}},
{"type":"Feature","geometry":{"type":"Point","coordinates":[1.6087671,42.8462333]},"properties":{"natural":"tree"}},
{"type":"Feature","geometry":{"type":"Point","coordinates":[1.6087767,42.8461699]},"properties":{"natural":"tree"}},
{"type":"Feature","geometry":{"type":"Point","coordinates":[1.6087911,42.8461224]},"properties":{"natural":"tree"}},
{"type":"Feature","geometry":{"type":"Point","coordinates":[1.6088989,42.8462341]},"properties":{"natural":"tree"}},
{"type":"Feature","geometry":{"type":"Point","coordinates":[1.6089965,42.8462383]},"properties":{"natural":"tree"}},
{"type":"Feature","geometry":{"type":"Point","coordinates":[1.6090272,42.8461838]},"properties":{"natural":"tree"}},
{"type":"Feature","geometry":{"type":"Point","coordinates":[1.6090242,42.8460984]},"properties":{"natural":"tree"}},
{"type":"Feature","geometry":{"type":"Point","coordinates":[1.6089324,42.8460481]},"properties":{"natural":"tree"}},
{"type":"Feature","geometry":{"type":"Point","coordinates":[1.6071527,42.8445547]},"properties":{"natural":"tree"}},
{"type":"Feature","geometry":{"type":"Point","coordinates":[1.6073135,42.844398]},"properties":{"natural":"tree"}},
{"type":"Feature","geometry":{"type":"Point","coordinates":[1.6073663,42.8442026]},"properties":{"natural":"tree"}},
{"type":"Feature","geometry":{"type":"Point","coordinates":[1.6078272,42.8445811]},"properties":{"natural":"tree"}},
{"type":"Feature","geometry":{"type":"Point","coordinates":[1.6079161,42.8444033]},"properties":{"natural":"tree"}},
{"type":"Feature","geometry":{"type":"Point","coordinates":[1.6077648,42.8444702]},"properties":{"natural":"tree"}},
{"type":"Feature","geometry":{"type":"Point","coordinates":[1.6078913,42.8443564]},"properties":{"natural":"tree"}},
{"type":"Feature","geometry":{"type":"Point","coordinates":[1.6075007,42.8445195]},"properties":{"natural":"tree"}},
{"type":"Feature","geometry":{"type":"Point","coordinates":[1.6076376000000002,42.8444913]},"properties":{"natural":"tree"}},
{"type":"Feature","geometry":{"type":"Point","coordinates":[1.6075896,42.8445582]},"properties":{"natural":"tree"}},
{"type":"Feature","geometry":{"type":"Point","coordinates":[1.609342,42.844097]},"properties":{"natural":"tree"}},
{"type":"Feature","geometry":{"type":"Point","coordinates":[1.6071142,42.843914]},"properties":{"natural":"tree"}},
{"type":"Feature","geometry":{"type":"Point","coordinates":[1.6073423,42.8436376]},"properties":{"natural":"tree"}},
{"type":"Feature","geometry":{"type":"Point","coordinates":[1.6072055,42.8437837]},"properties":{"natural":"tree"}},
{"type":"Feature","geometry":{"type":"Point","coordinates":[1.6073471,42.8432539]},"properties":{"natural":"tree"}},
{"type":"Feature","geometry":{"type":"Point","coordinates":[1.6072559,42.8433401]},"properties":{"natural":"tree"}},
{"type":"Feature","geometry":{"type":"Point","coordinates":[1.6077576,42.8432345]},"properties":{"natural":"tree"}},
{"type":"Feature","geometry":{"type":"Point","coordinates":[1.6075704,42.8433842]},"properties":{"natural":"tree"}},
{"type":"Feature","geometry":{"type":"Point","coordinates":[1.6074935,42.8434827]},"properties":{"natural":"tree"}},
{"type":"Feature","geometry":{"type":"Point","coordinates":[1.6076064,42.8432609]},"properties":{"natural":"tree"}},
{"type":"Feature","geometry":{"type":"Point","coordinates":[1.6076544,42.8433401]},"properties":{"natural":"tree"}},
{"type":"Feature","geometry":{"type":"Point","coordinates":[1.6074671,42.8431377]},"properties":{"natural":"tree"}},
{"type":"Feature","geometry":{"type":"Point","coordinates":[1.6077888,42.8430673]},"properties":{"natural":"tree"}},
{"type":"Feature","geometry":{"type":"Point","coordinates":[1.6081681,42.84293]},"properties":{"natural":"tree"}},
{"type":"Feature","geometry":{"type":"Point","coordinates":[1.6080337,42.8430251]},"properties":{"natural":"tree"}},
{"type":"Feature","geometry":{"type":"Point","coordinates":[1.6082506,42.8427742]},"properties":{"natural":"tree"}},
{"type":"Feature","geometry":{"type":"Point","coordinates":[1.6083702,42.8426973]},"properties":{"natural":"tree"}},
{"type":"Feature","geometry":{"type":"Point","coordinates":[1.6085669,42.8425883]},"properties":{"natural":"tree"}},
{"type":"Feature","geometry":{"type":"Point","coordinates":[1.6086893,42.8425177]},"properties":{"natural":"tree"}},
{"type":"Feature","geometry":{"type":"Point","coordinates":[1.6090697,42.8422613]},"properties":{"natural":"tree"}},
{"type":"Feature","geometry":{"type":"Point","coordinates":[1.6092306,42.8426091]},"properties":{"natural":"tree"}},
{"type":"Feature","geometry":{"type":"Point","coordinates":[1.6095306,42.842419]},"properties":{"natural":"tree"}},
{"type":"Feature","geometry":{"type":"Point","coordinates":[1.6098499,42.84228]},"properties":{"natural":"tree"}},
{"type":"Feature","geometry":{"type":"Point","coordinates":[1.6097899,42.8423486]},"properties":{"natural":"tree"}},
{"type":"Feature","geometry":{"type":"Point","coordinates":[1.6102148,42.8421444]},"properties":{"natural":"tree"}},
{"type":"Feature","geometry":{"type":"Point","coordinates":[1.6099916,42.8422201]},"properties":{"natural":"tree"}},
{"type":"Feature","geometry":{"type":"Point","coordinates":[1.6100852,42.8421902]},"properties":{"natural":"tree"}},
{"type":"Feature","geometry":{"type":"Point","coordinates":[1.6104309,42.8423803]},"properties":{"natural":"tree"}},
{"type":"Feature","geometry":{"type":"Point","coordinates":[1.6105077,42.8422923]},"properties":{"natural":"tree"}},
{"type":"Feature","geometry":{"type":"Point","coordinates":[1.6102268,42.842507]},"properties":{"natural":"tree"}},
{"type":"Feature","geometry":{"type":"Point","coordinates":[1.5849382,42.8370532]},"properties":{"archaeological_site":"megalith","heritage":"3","heritage:operator":"mhs","historic":"archaeological_site","megalith_type":"dolmen","mhs:inscription_date":"1995-07-17","name":"Site archéologique du dolmen et tumulus de La Plagne","ref:mhs":"PA00135432","source:heritage":"data.gouv.fr:Ministère de la Culture - 04/2015","wikidata":"Q22976076"}},
{"type":"Feature","geometry":{"type":"Point","coordinates":[1.6197823,42.8308098]},"properties":{"historic":"memorial","memorial":"war_memorial","ref:FR:MemorialGenWeb":"47631"}},
{"type":"Feature","geometry":{"type":"Point","coordinates":[1.617003,42.9370997]},"properties":{"leisure":"pitch","source":"data.gouv.fr:Le ministère des droits des femmes, de la ville, de la jeunesse et des sports - 11/2015","sport":"pelota","surface":"asphalt"}},
{"type":"Feature","geometry":{"type":"Point","coordinates":[1.6342797,42.8167502]},"properties":{"leisure":"slipway","source":"data.gouv.fr:Le ministère des droits des femmes, de la ville, de la jeunesse et des sports - 11/2015"}},
{"type":"Feature","geometry":{"type":"Point","coordinates":[1.6708481,42.8404823]},"properties":{"historic":"memorial","image":"File:Cazenave-Serres-et-Allens 40803.JPG","memorial":"war_memorial","ref:FR:MemorialGenWeb":"47615"}},
{"type":"Feature","geometry":{"type":"Point","coordinates":[1.6720269,42.8401976]},"properties":{"denomination":"catholic","historic":"wayside_shrine","religion":"christian"}},
{"type":"Feature","geometry":{"type":"Point","coordinates":[1.7119496,43.0289728]},"properties":{"historic":"ruins","image":"File:Malléon - église du cimetière.jpg","name":"Ancienne église"}},
{"type":"Feature","geometry":{"type":"Point","coordinates":[1.6304907,42.8816514]},"properties":{"historic":"memorial","image":"File:Mercus-Garrabet 4374.JPG","memorial":"war_memorial","ref:FR:MemorialGenWeb":"25071"}},
{"type":"Feature","geometry":{"type":"Point","coordinates":[1.6250714,42.8880677]},"properties":{"historic":"memorial","memorial":"war_memorial","ref:FR:MemorialGenWeb":"25070"}},
{"type":"Feature","geometry":{"type":"Point","coordinates":[1.6071081,42.8463974]},"properties":{"drinking_water":"yes","natural":"spring"}},
{"type":"Feature","geometry":{"type":"Point","coordinates":[1.6074443,42.8448421]},"properties":{"drinking_water":"yes","natural":"spring"}},
{"type":"Feature","geometry":{"type":"Point","coordinates":[1.5546699,42.8568712]},"properties":{"historic":"memorial","memorial":"war_memorial","memorial:conflict":"Algerian_War","name":"Commémoration du 19 Mars 1962","ref:FR:MemorialGenWeb":"131185"}},
{"type":"Feature","geometry":{"type":"Point","coordinates":[1.6077289,42.8445263]},"properties":{"historic":"memorial","inscription":"A la gloire des réseaux d'évasion des passeurs des évadés de France","memorial":"stele","name":"Stèle des réseaux d'évasion","ref:FR:MemorialGenWeb":"131473","war_memorial":"yes"}},
{"type":"Feature","geometry":{"type":"Point","coordinates":[1.6744381,43.0098345]},"properties":{"historic":"memorial","memorial":"war_memorial","ref:FR:MemorialGenWeb":"77625"}},
{"type":"Feature","geometry":{"type":"Point","coordinates":[1.731477,43.006106]},"properties":{"historic":"memorial","memorial":"war_memorial","ref:FR:MemorialGenWeb":"47161"}},
{"type":"Feature","geometry":{"type":"Point","coordinates":[1.5633322,42.9473772]},"properties":{"historic":"memorial","memorial":"war_memorial","ref:FR:MemorialGenWeb":"23965"}},
{"type":"Feature","geometry":{"type":"Point","coordinates":[1.6406933,42.9063427]},"properties":{"heritage":"3","heritage:operator":"mhs","historic":"ruins","mhs:inscription_date":"1950-04-17","name":"Pont du Diable","ref:mhs":"PA00093891","source:heritage":"Ministère de la Culture - 06/2019"}},
{"type":"Feature","geometry":{"type":"Point","coordinates":[1.6245836,42.9253944]},"properties":{"historic":"memorial","memorial":"stele","name":"Monument aux guérilleros","ref:FR:MemorialGenWeb":"139630","war_memorial":"yes"}},
{"type":"Feature","geometry":{"type":"Point","coordinates":[1.6245373,42.9255789]},"properties":{"denomination":"catholic","historic":"wayside_cross","religion":"christian"}},
{"type":"Feature","geometry":{"type":"Point","coordinates":[1.5368609,43.0286314]},"properties":{"historic":"memorial","memorial":"stele","name":"Stèle des guerilleros espagnols","ref:FR:MemorialGenWeb":"74460","war_memorial":"yes"}},
{"type":"Feature","geometry":{"type":"Point","coordinates":[1.6164926,42.8286195]},"properties":{"tourism":"picnic_site"}},
{"type":"Feature","geometry":{"type":"Point","coordinates":[1.6258973,42.8435838]},"properties":{"name":"Col de Martel","natural":"saddle"}},
{"type":"Feature","geometry":{"type":"Point","coordinates":[1.5329686,43.0155134]},"properties":{"leisure":"picnic_table"}},
{"type":"Feature","geometry":{"type":"Point","coordinates":[1.5620905,42.8237801]},"properties":{"name":"Gouffre du Tuc de Goulastre","natural":"cave_entrance"}},
{"type":"Feature","geometry":{"type":"Point","coordinates":[1.5724817,42.8234292]},"properties":{"name":"Gouffre de Génat","natural":"cave_entrance"}},
{"type":"Feature","geometry":{"type":"Point","coordinates":[1.5448292,43.0301585]},"properties":{"name":"Grotte de Couffet","natural":"cave_entrance"}},
{"type":"Feature","geometry":{"type":"Point","coordinates":[1.6076402,42.9643269]},"properties":{"check_date":"2023-02-05","information":"office","name":"Office de tourisme","name:en":"Tourism office","name:fr":"Office de tourisme","tourism":"information","wheelchair":"yes"}},
{"type":"Feature","geometry":{"type":"Point","coordinates":[1.6518812,42.8315863]},"properties":{"ele":"1166","name":"Col de Faboscur","natural":"saddle"}},
{"type":"Feature","geometry":{"type":"Point","coordinates":[1.6579588,42.8203261]},"properties":{"drinking_water":"yes","name":"Source de Lugeat","natural":"spring"}},
{"type":"Feature","geometry":{"type":"Point","coordinates":[1.6422198,42.8405505]},"properties":{"hiking":"yes","information":"guidepost","tourism":"information"}},
{"type":"Feature","geometry":{"type":"Point","coordinates":[1.6539498,42.8214161]},"properties":{"name":"Lugeat","tourism":"viewpoint"}},
{"type":"Feature","geometry":{"type":"Point","coordinates":[1.5057725,42.8189165]},"properties":{"natural":"spring"}},
{"type":"Feature","geometry":{"type":"Point","coordinates":[1.5078776,42.8176002]},"properties":{"natural":"spring"}},
{"type":"Feature","geometry":{"type":"Point","coordinates":[1.6256078,42.8828394]},"properties":{"bicycle":"yes","hiking":"yes","horse":"yes","information":"map","map_size":"region","map_type":"scheme","mtb":"yes","name":"Montagnes de Tarascon & du Vicdessos","ski":"yes","tourism":"information"}},
{"type":"Feature","geometry":{"type":"Point","coordinates":[1.6098431,42.9627543]},"properties":{"information":"map","map_size":"city","map_type":"scheme","tourism":"information"}},
{"type":"Feature","geometry":{"type":"Point","coordinates":[1.5865307,42.8171388]},"properties":{"historic":"memorial","memorial":"war_memorial","ref:FR:MemorialGenWeb":"21188"}},
{"type":"Feature","geometry":{"type":"Point","coordinates":[1.7160361,42.8489368]},"properties":{"ele":"1780","name":"Col d'Aygue Torte","natural":"saddle"}},
{"type":"Feature","geometry":{"type":"Point","coordinates":[1.6050099,42.9196666]},"properties":{"tourism":"viewpoint"}},
{"type":"Feature","geometry":{"type":"Point","coordinates":[1.6090355,42.9163625]},"properties":{"leisure":"picnic_table"}},
{"type":"Feature","geometry":{"type":"Point","coordinates":[1.6146895,43.0055258]},"properties":{"addr:city":"Foix","addr:postcode":"09000","addr:street":"ZA Foix Nord - Permilhac","name":"Brit Hotel Foix","operator":"Brit Hotel Développement","phone":"+33 5 61 05 36 10","tourism":"hostel","website":"https://www.brithotel.fr/occitanie/ariege/foix"}},
{"type":"Feature","geometry":{"type":"Point","coordinates":[1.6854411,42.9841304]},"properties":{"addr:city":"Gudas","addr:place":"Archelles","addr:postcode":"09120","contact:phone":"+33 637631415","contact:website":"http://archelles.com","guest_house":"agritourism","name":"Archelles","organic":"yes","place":"isolated_dwelling","tourism":"hostel"}},
{"type":"Feature","geometry":{"type":"Point","coordinates":[1.6903818,42.9527594]},"properties":{"ele":"964","name":"Cap de Touron","natural":"peak"}},
{"type":"Feature","geometry":{"type":"Point","coordinates":[1.6839123,42.9467361]},"properties":{"name":"Roc de l'Homme Mort","natural":"rock"}},
{"type":"Feature","geometry":{"type":"Point","coordinates":[1.6991097,42.9486091]},"properties":{"ele":"1011","name":"Pic de l'Aspre","natural":"peak","wikidata":"Q31652756"}},
{"type":"Feature","geometry":{"type":"Point","coordinates":[1.6466832,42.9558415]},"properties":{"name":"Pic de la Crouzette","natural":"peak"}},
{"type":"Feature","geometry":{"type":"Point","coordinates":[1.6629909,42.9502592]},"properties":{"ele":"969","name":"Roc Nègre","natural":"peak"}},
{"type":"Feature","geometry":{"type":"Point","coordinates":[1.6597509,42.9428997]},"properties":{"name":"Roc de Sainte-Julie","natural":"rock"}},
{"type":"Feature","geometry":{"type":"Point","coordinates":[1.635375,42.9963926]},"properties":{"name":"Roc de Lauzy","natural":"rock"}},
{"type":"Feature","geometry":{"type":"Point","coordinates":[1.729939,43.0351134]},"properties":{"name":"Grotte de Lauzit","natural":"cave_entrance"}},
{"type":"Feature","geometry":{"type":"Point","coordinates":[1.610081,42.9642046]},"properties":{"historic":"memorial","memorial":"war_memorial","ref:FR:MemorialGenWeb":"10919"}},
{"type":"Feature","geometry":{"type":"Point","coordinates":[1.5739149,42.8590911]},"properties":{"denomination":"catholic","historic":"wayside_cross","religion":"christian"}},
{"type":"Feature","geometry":{"type":"Point","coordinates":[1.5470982,43.0446273]},"properties":{"leisure":"playground","surface":"gravel"}},
{"type":"Feature","geometry":{"type":"Point","coordinates":[1.5469666,43.0453419]},"properties":{"historic":"memorial","inscription":"Noms des soldats tombés pour la France","memorial":"war_memorial","memorial:conflict":"WW1;WW2;First_Indochina_War;Algerian_War","ref:FR:MemorialGenWeb":"25068"}},
{"type":"Feature","geometry":{"type":"Point","coordinates":[1.6674281,42.87129]},"properties":{"leisure":"picnic_table"}},
{"type":"Feature","geometry":{"type":"Point","coordinates":[1.5212354,42.8278373]},"properties":{"hiking":"yes","information":"guidepost","source":"https://www.openstreetmap.org/note/1086084","tourism":"information"}},
{"type":"Feature","geometry":{"type":"Point","coordinates":[1.5429568,42.8182908]},"properties":{"ele":"1427","hiking":"yes","information":"guidepost","name":"Col de Lastris","source":"https://www.openstreetmap.org/note/1086091","tourism":"information"}},
{"type":"Feature","geometry":{"type":"Point","coordinates":[1.638878,42.8276032]},"properties":{"hiking":"yes","information":"guidepost","source":"https://www.openstreetmap.org/note/1084738","tourism":"information"}},
{"type":"Feature","geometry":{"type":"Point","coordinates":[1.6384468,42.8374396]},"properties":{"hiking":"yes","information":"guidepost","source":"https://www.openstreetmap.org/note/1084735","tourism":"information"}},
{"type":"Feature","geometry":{"type":"Point","coordinates":[1.6086401,42.9699787]},"properties":{"denomination":"catholic","historic":"wayside_cross","religion":"christian"}},
{"type":"Feature","geometry":{"type":"Point","coordinates":[1.7046136,42.9416725]},"properties":{"drinking_water":"yes","natural":"spring"}},
{"type":"Feature","geometry":{"type":"Point","coordinates":[1.5725186,42.8641985]},"properties":{"name":"Traoucos du Roc de Sedour","natural":"cave_entrance"}},
{"type":"Feature","geometry":{"type":"Point","coordinates":[1.5248413,42.9534333]},"properties":{"historic":"wayside_cross"}},
{"type":"Feature","geometry":{"type":"Point","coordinates":[1.6156629,42.9572549]},"properties":{"bench":"yes","leisure":"picnic_table","material":"wood"}},
{"type":"Feature","geometry":{"type":"Point","coordinates":[1.6126513,42.9590013]},"properties":{"barrier":"gate"}},
{"type":"Feature","geometry":{"type":"Point","coordinates":[1.6018333,42.9713688]},"properties":{"historic":"wayside_cross","name":"Croix de Saint-Sauveur"}},
{"type":"Feature","geometry":{"type":"Point","coordinates":[1.6061483,42.9649346]},"properties":{"internet_access":"yes","name":"Auberge du Léo","phone":"+33 5 61 65 09 04","tourism":"hotel","website":"http://www.leodefoix.com/"}},
{"type":"Feature","geometry":{"type":"Point","coordinates":[1.6153376,42.9573029]},"properties":{"bench":"yes","leisure":"picnic_table","material":"wood"}},
{"type":"Feature","geometry":{"type":"Point","coordinates":[1.6154878,42.9573304]},"properties":{"bench":"yes","leisure":"picnic_table","material":"wood"}},
{"type":"Feature","geometry":{"type":"Point","coordinates":[1.6155307,42.9573108]},"properties":{"bench":"yes","leisure":"picnic_table","material":"wood"}},
{"type":"Feature","geometry":{"type":"Point","coordinates":[1.6156568,42.9571586]},"properties":{"bench":"yes","leisure":"picnic_table","material":"wood"}},
{"type":"Feature","geometry":{"type":"Point","coordinates":[1.6148523,42.9588622]},"properties":{"access":"no","barrier":"gate"}},
{"type":"Feature","geometry":{"type":"Point","coordinates":[1.6417684,42.9072462]},"properties":{"tourism":"picnic_site"}},
{"type":"Feature","geometry":{"type":"Point","coordinates":[1.5234698,42.8258804]},"properties":{"information":"board","tourism":"information"}},
{"type":"Feature","geometry":{"type":"Point","coordinates":[1.6760932,42.8595113]},"properties":{"leisure":"picnic_table"}},
{"type":"Feature","geometry":{"type":"Point","coordinates":[1.5400554,43.0304965]},"properties":{"natural":"cave_entrance"}},
{"type":"Feature","geometry":{"type":"Point","coordinates":[1.5742983,42.8987325]},"properties":{"drinking_water":"yes","intermittent":"no","natural":"spring"}},
{"type":"Feature","geometry":{"type":"Point","coordinates":[1.6278206,42.9630503]},"properties":{"historic":"ruins","name":"Pech de Naut"}},
{"type":"Feature","geometry":{"type":"Point","coordinates":[1.5693361,42.8545925]},"properties":{"addr:city":"Tarascon-sur-Ariège","addr:place":"Les Pradals","addr:postcode":"09400","ele":"600","internet_access":"yes","internet_access:fee":"yes","level":"0","name":"Le clos des pradals","reservation":"recommended","smoking":"outside","tourism":"chalet","website":"https://www.leclosdespradals.com"}},
{"type":"Feature","geometry":{"type":"Point","coordinates":[1.6163238,42.965198]},"properties":{"tourism":"viewpoint"}},
{"type":"Feature","geometry":{"type":"Point","coordinates":[1.6204664,42.8261937]},"properties":{"name":"Grotte","natural":"cave_entrance"}},
{"type":"Feature","geometry":{"type":"Point","coordinates":[1.6206782,42.8269831]},"properties":{"name":"Grotte","natural":"cave_entrance"}},
{"type":"Feature","geometry":{"type":"Point","coordinates":[1.6192555,42.8291774]},"properties":{"historic":"wayside_cross","name":"Croix de la passion","shop":"religion"}},
{"type":"Feature","geometry":{"type":"Point","coordinates":[1.5833236,42.8385557]},"properties":{"name":"Fontaine Saint-Martin","natural":"spring"}},
{"type":"Feature","geometry":{"type":"Point","coordinates":[1.5456413,42.8827425]},"properties":{"name":"Sortie de Grotte de Siech","natural":"cave_entrance"}},
{"type":"Feature","geometry":{"type":"Point","coordinates":[1.5988303,42.8325943]},"properties":{"name":"Grotte de la Cote","natural":"cave_entrance"}},
{"type":"Feature","geometry":{"type":"Point","coordinates":[1.6548479,42.8215815]},"properties":{"hiking":"yes","information":"guidepost","tourism":"information"}},
{"type":"Feature","geometry":{"type":"Point","coordinates":[1.6176206,42.833759]},"properties":{"addr:housenumber":"30","addr:postcode":"09400","addr:street":"Promenade du Ruisseau","internet_access":"wlan","name":"Le Jardin d’En Vie","tourism":"guest_house","website":"http://lejardindenvie.com/"}},
{"type":"Feature","geometry":{"type":"Point","coordinates":[1.6242532,42.8835136]},"properties":{"leisure":"picnic_table","name":"Table et Banc"}},
{"type":"Feature","geometry":{"type":"Point","coordinates":[1.5409224,42.8603027]},"properties":{"name":"Source","natural":"spring"}},
{"type":"Feature","geometry":{"type":"Point","coordinates":[1.6143582,42.9543693]},"properties":{"natural":"tree"}},
{"type":"Feature","geometry":{"type":"Point","coordinates":[1.6142971,42.9544414]},"properties":{"natural":"tree"}},
{"type":"Feature","geometry":{"type":"Point","coordinates":[1.6149409,42.9547802]},"properties":{"natural":"tree"}},
{"type":"Feature","geometry":{"type":"Point","coordinates":[1.6148722,42.9547108]},"properties":{"natural":"tree"}},
{"type":"Feature","geometry":{"type":"Point","coordinates":[1.6150931,42.9548578]},"properties":{"natural":"tree"}},
{"type":"Feature","geometry":{"type":"Point","coordinates":[1.6153738,42.9547017]},"properties":{"natural":"tree"}},
{"type":"Feature","geometry":{"type":"Point","coordinates":[1.615284,42.9546195]},"properties":{"natural":"tree"}},
{"type":"Feature","geometry":{"type":"Point","coordinates":[1.6150943,42.954499]},"properties":{"natural":"tree"}},
{"type":"Feature","geometry":{"type":"Point","coordinates":[1.6153663,42.9551274]},"properties":{"natural":"tree"}},
{"type":"Feature","geometry":{"type":"Point","coordinates":[1.6155035,42.9552086]},"properties":{"natural":"tree"}},
{"type":"Feature","geometry":{"type":"Point","coordinates":[1.615288,42.9553556]},"properties":{"natural":"tree"}},
{"type":"Feature","geometry":{"type":"Point","coordinates":[1.6152083,42.9554042]},"properties":{"natural":"tree"}},
{"type":"Feature","geometry":{"type":"Point","coordinates":[1.6151516,42.9554376]},"properties":{"natural":"tree"}},
{"type":"Feature","geometry":{"type":"Point","coordinates":[1.6150502,42.9553476]},"properties":{"natural":"tree"}},
{"type":"Feature","geometry":{"type":"Point","coordinates":[1.6152126,42.9553092]},"properties":{"natural":"tree"}},
{"type":"Feature","geometry":{"type":"Point","coordinates":[1.6147025,42.9554609]},"properties":{"natural":"tree"}},
{"type":"Feature","geometry":{"type":"Point","coordinates":[1.6148658,42.9556573]},"properties":{"natural":"tree"}},
{"type":"Feature","geometry":{"type":"Point","coordinates":[1.6148019,42.955675]},"properties":{"natural":"tree"}},
{"type":"Feature","geometry":{"type":"Point","coordinates":[1.6147611,42.9557065]},"properties":{"natural":"tree"}},
{"type":"Feature","geometry":{"type":"Point","coordinates":[1.6147138,42.9557379]},"properties":{"natural":"tree"}},
{"type":"Feature","geometry":{"type":"Point","coordinates":[1.6145705,42.955821]},"properties":{"natural":"tree"}},
{"type":"Feature","geometry":{"type":"Point","coordinates":[1.614522,42.9558524]},"properties":{"natural":"tree"}},
{"type":"Feature","geometry":{"type":"Point","coordinates":[1.614478,42.9558855]},"properties":{"natural":"tree"}},
{"type":"Feature","geometry":{"type":"Point","coordinates":[1.6143854,42.9559395]},"properties":{"natural":"tree"}},
{"type":"Feature","geometry":{"type":"Point","coordinates":[1.6143469,42.9560363]},"properties":{"natural":"tree"}},
{"type":"Feature","geometry":{"type":"Point","coordinates":[1.6142301,42.956075]},"properties":{"natural":"tree"}},
{"type":"Feature","geometry":{"type":"Point","coordinates":[1.6142796,42.955996]},"properties":{"natural":"tree"}},
{"type":"Feature","geometry":{"type":"Point","coordinates":[1.6143325,42.9559661]},"properties":{"natural":"tree"}},
{"type":"Feature","geometry":{"type":"Point","coordinates":[1.6142444,42.9560234]},"properties":{"natural":"tree"}},
{"type":"Feature","geometry":{"type":"Point","coordinates":[1.6141937,42.9560516]},"properties":{"natural":"tree"}},
{"type":"Feature","geometry":{"type":"Point","coordinates":[1.6141452,42.9560815]},"properties":{"natural":"tree"}},
{"type":"Feature","geometry":{"type":"Point","coordinates":[1.6141011,42.9561081]},"properties":{"natural":"tree"}},
{"type":"Feature","geometry":{"type":"Point","coordinates":[1.6140571,42.9561379]},"properties":{"natural":"tree"}},
{"type":"Feature","geometry":{"type":"Point","coordinates":[1.6139954,42.9562274]},"properties":{"natural":"tree"}},
{"type":"Feature","geometry":{"type":"Point","coordinates":[1.6139744,42.9562685]},"properties":{"natural":"tree"}},
{"type":"Feature","geometry":{"type":"Point","coordinates":[1.6139105,42.9562202]},"properties":{"natural":"tree"}},
{"type":"Feature","geometry":{"type":"Point","coordinates":[1.613948,42.956246]},"properties":{"natural":"tree"}},
{"type":"Feature","geometry":{"type":"Point","coordinates":[1.6144603,42.9560645]},"properties":{"natural":"tree"}},
{"type":"Feature","geometry":{"type":"Point","coordinates":[1.6145926,42.9560524]},"properties":{"natural":"tree"}},
{"type":"Feature","geometry":{"type":"Point","coordinates":[1.6145253,42.956054]},"properties":{"natural":"tree"}},
{"type":"Feature","geometry":{"type":"Point","coordinates":[1.6147204,42.9560331]},"properties":{"natural":"tree"}},
{"type":"Feature","geometry":{"type":"Point","coordinates":[1.6148923,42.9560121]},"properties":{"natural":"tree"}},
{"type":"Feature","geometry":{"type":"Point","coordinates":[1.6150146,42.9559968]},"properties":{"natural":"tree"}},
{"type":"Feature","geometry":{"type":"Point","coordinates":[1.6151264,42.9559059]},"properties":{"natural":"tree"}},
{"type":"Feature","geometry":{"type":"Point","coordinates":[1.6151236,42.9558625]},"properties":{"natural":"tree"}},
{"type":"Feature","geometry":{"type":"Point","coordinates":[1.6151151,42.9558128]},"properties":{"natural":"tree"}},
{"type":"Feature","geometry":{"type":"Point","coordinates":[1.6151038,42.9557705]},"properties":{"natural":"tree"}},
{"type":"Feature","geometry":{"type":"Point","coordinates":[1.6150798,42.9557291]},"properties":{"natural":"tree"}},
{"type":"Feature","geometry":{"type":"Point","coordinates":[1.6150615,42.9556898]},"properties":{"natural":"tree"}},
{"type":"Feature","geometry":{"type":"Point","coordinates":[1.6149993,42.9556009]},"properties":{"natural":"tree"}},
{"type":"Feature","geometry":{"type":"Point","coordinates":[1.614988,42.9555585]},"properties":{"natural":"tree"}},
{"type":"Feature","geometry":{"type":"Point","coordinates":[1.6151194,42.955605]},"properties":{"diameter":"10m","natural":"tree"}},
{"type":"Feature","geometry":{"type":"Point","coordinates":[1.6156477,42.9559855]},"properties":{"natural":"tree"}},
{"type":"Feature","geometry":{"type":"Point","coordinates":[1.6157932,42.9559814]},"properties":{"natural":"tree"}},
{"type":"Feature","geometry":{"type":"Point","coordinates":[1.6157314,42.955846]},"properties":{"natural":"tree"}},
{"type":"Feature","geometry":{"type":"Point","coordinates":[1.6155926,42.9556112]},"properties":{"natural":"tree"}},
{"type":"Feature","geometry":{"type":"Point","coordinates":[1.615457,42.9560155]},"properties":{"natural":"tree"}},
{"type":"Feature","geometry":{"type":"Point","coordinates":[1.6152296,42.9560579]},"properties":{"natural":"tree"}},
{"type":"Feature","geometry":{"type":"Point","coordinates":[1.615166,42.9560403]},"properties":{"denotation":"urban","diameter":"10m","natural":"tree"}},
{"type":"Feature","geometry":{"type":"Point","coordinates":[1.6142452,42.9562984]},"properties":{"natural":"tree"}},
{"type":"Feature","geometry":{"type":"Point","coordinates":[1.6135178,42.9566815]},"properties":{"natural":"tree"}},
{"type":"Feature","geometry":{"type":"Point","coordinates":[1.6136089,42.9566294]},"properties":{"natural":"tree"}},
{"type":"Feature","geometry":{"type":"Point","coordinates":[1.6137112,42.9565609]},"properties":{"natural":"tree"}},
{"type":"Feature","geometry":{"type":"Point","coordinates":[1.6137511,42.9565381]},"properties":{"natural":"tree"}},
{"type":"Feature","geometry":{"type":"Point","coordinates":[1.6137948,42.9565107]},"properties":{"natural":"tree"}},
{"type":"Feature","geometry":{"type":"Point","coordinates":[1.6138335,42.9564861]},"properties":{"natural":"tree"}},
{"type":"Feature","geometry":{"type":"Point","coordinates":[1.613317,42.9566659]},"properties":{"natural":"tree"}},
{"type":"Feature","geometry":{"type":"Point","coordinates":[1.613443,42.9565737]},"properties":{"natural":"tree"}},
{"type":"Feature","geometry":{"type":"Point","coordinates":[1.6134099,42.9566087]},"properties":{"natural":"tree"}},
{"type":"Feature","geometry":{"type":"Point","coordinates":[1.6135066,42.9565463]},"properties":{"natural":"tree"}},
{"type":"Feature","geometry":{"type":"Point","coordinates":[1.613312,42.956455]},"properties":{"natural":"tree"}},
{"type":"Feature","geometry":{"type":"Point","coordinates":[1.6133045,42.9564988]},"properties":{"natural":"tree"}},
{"type":"Feature","geometry":{"type":"Point","coordinates":[1.6132908,42.9565518]},"properties":{"natural":"tree"}},
{"type":"Feature","geometry":{"type":"Point","coordinates":[1.6132683,42.9565783]},"properties":{"natural":"tree"}},
{"type":"Feature","geometry":{"type":"Point","coordinates":[1.6132247,42.9566102]},"properties":{"natural":"tree"}},
{"type":"Feature","geometry":{"type":"Point","coordinates":[1.63555,42.9339401]},"properties":{"natural":"tree"}},
{"type":"Feature","geometry":{"type":"Point","coordinates":[1.6356734,42.9338053]},"properties":{"natural":"tree"}},
{"type":"Feature","geometry":{"type":"Point","coordinates":[1.635688,42.9340182]},"properties":{"natural":"tree"}},
{"type":"Feature","geometry":{"type":"Point","coordinates":[1.6357633,42.9340473]},"properties":{"natural":"tree"}},
{"type":"Feature","geometry":{"type":"Point","coordinates":[1.6358366,42.9340757]},"properties":{"natural":"tree"}},
{"type":"Feature","geometry":{"type":"Point","coordinates":[1.6359216,42.93412]},"properties":{"natural":"tree"}},
{"type":"Feature","geometry":{"type":"Point","coordinates":[1.6356787,42.9343402]},"properties":{"natural":"tree"}},
{"type":"Feature","geometry":{"type":"Point","coordinates":[1.6355052,42.9342709]},"properties":{"natural":"tree"}},
{"type":"Feature","geometry":{"type":"Point","coordinates":[1.6360815,42.9340167]},"properties":{"natural":"tree"}},
{"type":"Feature","geometry":{"type":"Point","coordinates":[1.6360052,42.9339797]},"properties":{"natural":"tree"}},
{"type":"Feature","geometry":{"type":"Point","coordinates":[1.6359288,42.9339555]},"properties":{"natural":"tree"}},
{"type":"Feature","geometry":{"type":"Point","coordinates":[1.6358553,42.9339133]},"properties":{"natural":"tree"}},
{"type":"Feature","geometry":{"type":"Point","coordinates":[1.6357804,42.9338858]},"properties":{"natural":"tree"}},
{"type":"Feature","geometry":{"type":"Point","coordinates":[1.6360708,42.9341766]},"properties":{"natural":"tree"}},
{"type":"Feature","geometry":{"type":"Point","coordinates":[1.6361678,42.9340428]},"properties":{"natural":"tree"}},
{"type":"Feature","geometry":{"type":"Point","coordinates":[1.6356605,42.9343341]},"properties":{"natural":"tree"}},
{"type":"Feature","geometry":{"type":"Point","coordinates":[1.6356405999999999,42.9343249]},"properties":{"natural":"tree"}},
{"type":"Feature","geometry":{"type":"Point","coordinates":[1.6354947,42.934264400000007]},"properties":{"natural":"tree"}},
{"type":"Feature","geometry":{"type":"Point","coordinates":[1.6347627,42.9352948]},"properties":{"natural":"tree"}},
{"type":"Feature","geometry":{"type":"Point","coordinates":[1.6378455,42.9332104]},"properties":{"natural":"tree"}},
{"type":"Feature","geometry":{"type":"Point","coordinates":[1.6378845,42.9332257]},"properties":{"natural":"tree"}},
{"type":"Feature","geometry":{"type":"Point","coordinates":[1.6380407,42.9329695]},"properties":{"natural":"tree"}},
{"type":"Feature","geometry":{"type":"Point","coordinates":[1.6380825,42.9329869]},"properties":{"natural":"tree"}},
{"type":"Feature","geometry":{"type":"Point","coordinates":[1.638293,42.9327399]},"properties":{"natural":"tree"}},
{"type":"Feature","geometry":{"type":"Point","coordinates":[1.6382386,42.9327134]},"properties":{"natural":"tree"}},
{"type":"Feature","geometry":{"type":"Point","coordinates":[1.6277011,43.008766]},"properties":{"addr:housenumber":"ldt","addr:street":"Encouloum-Marseillas","capacity:caravans":"taille limitée","capacity:persons":"6 emplacements","capacity:tents":"6","charge":"6 € /pers./nuit","description":"Camping \"La ferme de Marseillas\"","fee":"yes","name":"La ferme de Marseillas","operator":"Christine P","payment:cash":"yes","power_supply":"yes","power_supply:maxcurrent":"5","static_caravans":"no","tents":"yes","toilets":"yes","tourism":"camp_site","website":"https://marseillas.wixsite.com/v2017"}},
{"type":"Feature","geometry":{"type":"Point","coordinates":[1.6033083,42.9360708]},"properties":{"addr:city":"Ferrières-sur-Ariège","addr:postcode":"09000","addr:street":"Lieu-dit lacout, Chemin du Col de la Perche","name":"Gîte le prat de Lacout","operator":"Xavier Ferrand,","phone":"+33 6 88 72 03 26","tourism":"chalet"}},
{"type":"Feature","geometry":{"type":"Point","coordinates":[1.6215801,42.831309]},"properties":{"name":"Gîte du couchant","network":"Gîtes de France","tourism":"chalet"}},
{"type":"Feature","geometry":{"type":"Point","coordinates":[1.6214684,42.8312305]},"properties":{"name":"Gîte du levant","network":"Gîtes de France","tourism":"chalet"}},
{"type":"Feature","geometry":{"type":"Point","coordinates":[1.5220339,42.9918586]},"properties":{"ele":"808","name":"Lespinassière","natural":"peak"}},
{"type":"Feature","geometry":{"type":"Point","coordinates":[1.5126685,42.991168]},"properties":{"ele":"917","name":"Montcoustan","natural":"peak"}},
{"type":"Feature","geometry":{"type":"Point","coordinates":[1.5809301,42.9619426]},"properties":{"ele":"496","name":"Le Peyrou","natural":"peak"}},
{"type":"Feature","geometry":{"type":"Point","coordinates":[1.5583381,42.9503671]},"properties":{"ele":"583","historic":"wayside_cross"}},
{"type":"Feature","geometry":{"type":"Point","coordinates":[1.5584024,42.9505216]},"properties":{"name":"Peyrou","natural":"peak"}},
{"type":"Feature","geometry":{"type":"Point","coordinates":[1.5715625,42.8517908]},"properties":{"material":"metal;stone;plastic;paint","tourism":"artwork"}},
{"type":"Feature","geometry":{"type":"Point","coordinates":[1.608978,42.9667295]},"properties":{"direction":"-125","tourism":"viewpoint"}},
{"type":"Feature","geometry":{"type":"Point","coordinates":[1.605164,42.9757904]},"properties":{"leisure":"playground"}},
{"type":"Feature","geometry":{"type":"Point","coordinates":[1.5457193,42.8626446]},"properties":{"ele":"1001","name":"La Roche Ronde","natural":"peak"}},
{"type":"Feature","geometry":{"type":"Point","coordinates":[1.562486,42.8556561]},"properties":{"name":"Les Forges d'Enfalits","tourism":"guest_house"}},
{"type":"Feature","geometry":{"type":"Point","coordinates":[1.6729622,42.9805896]},"properties":{"historic":"memorial"}},
{"type":"Feature","geometry":{"type":"Point","coordinates":[1.5721703,42.8688879]},"properties":{"access":"yes","ele":"880","name":"Grotte de Pradières","natural":"cave_entrance"}},
{"type":"Feature","geometry":{"type":"Point","coordinates":[1.578456,42.8644195]},"properties":{"access":"yes","name":"Grotte","natural":"cave_entrance"}},
{"type":"Feature","geometry":{"type":"Point","coordinates":[1.5840774,42.8670179]},"properties":{"access":"yes","name":"Grotte","natural":"cave_entrance"}},
{"type":"Feature","geometry":{"type":"Point","coordinates":[1.5770685,42.8675161]},"properties":{"access":"yes","name":"Grotte","natural":"cave_entrance"}},
{"type":"Feature","geometry":{"type":"Point","coordinates":[1.5805838,42.8637316]},"properties":{"access":"yes","name":"Grotte","natural":"cave_entrance"}},
{"type":"Feature","geometry":{"type":"Point","coordinates":[1.5786107,42.8633068]},"properties":{"name":"Grotte","natural":"cave_entrance"}},
{"type":"Feature","geometry":{"type":"Point","coordinates":[1.596131,42.9601224]},"properties":{"natural":"tree"}},
{"type":"Feature","geometry":{"type":"Point","coordinates":[1.5959831,42.9599845]},"properties":{"natural":"tree"}},
{"type":"Feature","geometry":{"type":"Point","coordinates":[1.5962169,42.9599452]},"properties":{"natural":"tree"}},
{"type":"Feature","geometry":{"type":"Point","coordinates":[1.5961298,42.9600351]},"properties":{"leisure":"playground"}},
{"type":"Feature","geometry":{"type":"Point","coordinates":[1.599203,42.9580631]},"properties":{"access":"yes","leisure":"playground"}},
{"type":"Feature","geometry":{"type":"Point","coordinates":[1.6080487,42.846067]},"properties":{"natural":"tree"}},
{"type":"Feature","geometry":{"type":"Point","coordinates":[1.7173366,42.8385856]},"properties":{"ele":"1937","name":"Pic de l'Estagnole","natural":"peak"}},
{"type":"Feature","geometry":{"type":"Point","coordinates":[1.7154926,42.8401021]},"properties":{"ele":"1930","name":"SN1925","natural":"peak"}},
{"type":"Feature","geometry":{"type":"Point","coordinates":[1.7204128,42.8524235]},"properties":{"ele":"1977","name":"Les Terbèzes","natural":"peak"}},
{"type":"Feature","geometry":{"type":"Point","coordinates":[1.6292985,43.0457051]},"properties":{"historic":"memorial","ref:FR:MemorialGenWeb":"8739"}},
{"type":"Feature","geometry":{"type":"Point","coordinates":[1.6367433,42.8248056]},"properties":{"denomination":"catholic","historic":"wayside_cross","religion":"christian"}},
{"type":"Feature","geometry":{"type":"Point","coordinates":[1.6355839,42.8234132]},"properties":{"historic":"wayside_cross","source":"IGN - 09/2020"}},
{"type":"Feature","geometry":{"type":"Point","coordinates":[1.5444737,42.9340466]},"properties":{"ele":"895","hiking":"yes","information":"guidepost","name":"Le Massadel","tourism":"information"}},
{"type":"Feature","geometry":{"type":"Point","coordinates":[1.5339661,42.9223824]},"properties":{"name":"Le Calmil","natural":"spring"}},
{"type":"Feature","geometry":{"type":"Point","coordinates":[1.5642683,42.94226]},"properties":{"natural":"spring"}},
{"type":"Feature","geometry":{"type":"Point","coordinates":[1.5863757,42.817412]},"properties":{"historic":"wayside_cross","source":"IGN - 09/2020"}},
{"type":"Feature","geometry":{"type":"Point","coordinates":[1.6457469,42.8538384]},"properties":{"historic":"wayside_shrine","source":"IGN - 09/2020"}},
{"type":"Feature","geometry":{"type":"Point","coordinates":[1.6457062,42.8537533]},"properties":{"historic":"wayside_cross","source":"IGN - 09/2020"}},
{"type":"Feature","geometry":{"type":"Point","coordinates":[1.5043106,42.9235053]},"properties":{"natural":"spring"}},
{"type":"Feature","geometry":{"type":"Point","coordinates":[1.5269143,42.917595]},"properties":{"natural":"spring"}},
{"type":"Feature","geometry":{"type":"Point","coordinates":[1.7222593,42.9769755]},"properties":{"natural":"spring"}},
{"type":"Feature","geometry":{"type":"Point","coordinates":[1.6959726,42.9859323]},"properties":{"ele":"680","natural":"peak"}},
{"type":"Feature","geometry":{"type":"Point","coordinates":[1.7044274,42.9835693]},"properties":{"ele":"672","natural":"peak"}},
{"type":"Feature","geometry":{"type":"Point","coordinates":[1.7262165,42.9789761]},"properties":{"natural":"spring"}},
{"type":"Feature","geometry":{"type":"Point","coordinates":[1.7067055,42.9780842]},"properties":{"natural":"tree"}},
{"type":"Feature","geometry":{"type":"Point","coordinates":[1.7062196,42.9781153]},"properties":{"natural":"tree"}},
{"type":"Feature","geometry":{"type":"Point","coordinates":[1.5563366,42.9608756]},"properties":{"information":"board","tourism":"information"}},
{"type":"Feature","geometry":{"type":"Point","coordinates":[1.5580839,42.9606842]},"properties":{"information":"board","tourism":"information"}},
{"type":"Feature","geometry":{"type":"Point","coordinates":[1.5585199,42.9609726]},"properties":{"name":"La Barguillère","tourism":"hotel"}},
{"type":"Feature","geometry":{"type":"Point","coordinates":[1.7060673,42.9744229]},"properties":{"natural":"cirque"}},
{"type":"Feature","geometry":{"type":"Point","coordinates":[1.7076002,42.9748934]},"properties":{"natural":"spring"}},
{"type":"Feature","geometry":{"type":"Point","coordinates":[1.6069738,42.9634796]},"properties":{"natural":"tree"}},
{"type":"Feature","geometry":{"type":"Point","coordinates":[1.60712,42.9635012]},"properties":{"natural":"tree"}},
{"type":"Feature","geometry":{"type":"Point","coordinates":[1.6072622,42.9635218]},"properties":{"natural":"tree"}},
{"type":"Feature","geometry":{"type":"Point","coordinates":[1.6074124,42.9635434]},"properties":{"natural":"tree"}},
{"type":"Feature","geometry":{"type":"Point","coordinates":[1.6075425,42.9635562]},"properties":{"natural":"tree"}},
{"type":"Feature","geometry":{"type":"Point","coordinates":[1.6076927,42.9635807]},"properties":{"natural":"tree"}},
{"type":"Feature","geometry":{"type":"Point","coordinates":[1.6078375,42.9635984]},"properties":{"natural":"tree"}},
{"type":"Feature","geometry":{"type":"Point","coordinates":[1.7073487,42.977331]},"properties":{"natural":"tree"}},
{"type":"Feature","geometry":{"type":"Point","coordinates":[1.6052092,42.9635997]},"properties":{"natural":"tree"}},
{"type":"Feature","geometry":{"type":"Point","coordinates":[1.6155283,42.9578769]},"properties":{"natural":"tree"}},
{"type":"Feature","geometry":{"type":"Point","coordinates":[1.6156624,42.9578926]},"properties":{"natural":"tree"}},
{"type":"Feature","geometry":{"type":"Point","coordinates":[1.615869,42.9577768]},"properties":{"natural":"tree"}},
{"type":"Feature","geometry":{"type":"Point","coordinates":[1.6158556,42.9578671]},"properties":{"natural":"tree"}},
{"type":"Feature","geometry":{"type":"Point","coordinates":[1.5906816,42.9766861]},"properties":{"hiking":"yes","information":"guidepost","tourism":"information"}},
{"type":"Feature","geometry":{"type":"Point","coordinates":[1.6019734,42.9712971]},"properties":{"tourism":"viewpoint"}},
{"type":"Feature","geometry":{"type":"Point","coordinates":[1.6721646,42.9779829]},"properties":{"natural":"tree"}},
{"type":"Feature","geometry":{"type":"Point","coordinates":[1.6722142,42.9780329]},"properties":{"natural":"tree"}},
{"type":"Feature","geometry":{"type":"Point","coordinates":[1.5339817,42.9445573]},"properties":{"hiking":"yes","information":"guidepost","tourism":"information"}},
{"type":"Feature","geometry":{"type":"Point","coordinates":[1.7170716,42.8840451]},"properties":{"drinking_water":"yes","image":"http://img.geocaching.com/cache/large/658735bc-c20e-4cf4-bd12-268d21a9a047.jpg","intermittent":"yes","name":"Cascade de Tragine","natural":"spring","salt":"no","tidal":"no"}},
{"type":"Feature","geometry":{"type":"Point","coordinates":[1.719946,42.90632]},"properties":{"historic":"wayside_cross","material":"fer","name":"Calvaire de freychenet"}},
{"type":"Feature","geometry":{"type":"Point","coordinates":[1.7163529,42.8993868]},"properties":{"tourism":"viewpoint"}},
{"type":"Feature","geometry":{"type":"Point","coordinates":[1.518538,42.969491]},"properties":{"natural":"tree"}},
{"type":"Feature","geometry":{"type":"Point","coordinates":[1.5188706,42.9692319]},"properties":{"natural":"tree"}},
{"type":"Feature","geometry":{"type":"Point","coordinates":[1.5186976,42.9692957]},"properties":{"natural":"tree"}},
{"type":"Feature","geometry":{"type":"Point","coordinates":[1.5184656,42.9687079]},"properties":{"natural":"tree"}},
{"type":"Feature","geometry":{"type":"Point","coordinates":[1.5190436,42.9688276]},"properties":{"natural":"tree"}},
{"type":"Feature","geometry":{"type":"Point","coordinates":[1.5190262,42.9689287]},"properties":{"natural":"tree"}},
{"type":"Feature","geometry":{"type":"Point","coordinates":[1.5190141,42.9690219]},"properties":{"natural":"tree"}},
{"type":"Feature","geometry":{"type":"Point","coordinates":[1.5187982,42.9690514]},"properties":{"natural":"tree"}},
{"type":"Feature","geometry":{"type":"Point","coordinates":[1.5188076,42.9689513]},"properties":{"natural":"tree"}},
{"type":"Feature","geometry":{"type":"Point","coordinates":[1.518825,42.9688698]},"properties":{"natural":"tree"}},
{"type":"Feature","geometry":{"type":"Point","coordinates":[1.5188424,42.9687854]},"properties":{"natural":"tree"}},
{"type":"Feature","geometry":{"type":"Point","coordinates":[1.5193708,42.9690671]},"properties":{"natural":"tree"}},
{"type":"Feature","geometry":{"type":"Point","coordinates":[1.5198469,42.9693144]},"properties":{"natural":"tree"}},
{"type":"Feature","geometry":{"type":"Point","coordinates":[1.5197155,42.9693134]},"properties":{"natural":"tree"}},
{"type":"Feature","geometry":{"type":"Point","coordinates":[1.5198013,42.9689528]},"properties":{"natural":"tree"}},
{"type":"Feature","geometry":{"type":"Point","coordinates":[1.5197437,42.9689591]},"properties":{"natural":"tree"}},
{"type":"Feature","geometry":{"type":"Point","coordinates":[1.5197611,42.9689964]},"properties":{"natural":"tree"}},
{"type":"Feature","geometry":{"type":"Point","coordinates":[1.5198704,42.969174]},"properties":{"natural":"tree"}},
{"type":"Feature","geometry":{"type":"Point","coordinates":[1.5200695,42.9692324]},"properties":{"natural":"tree"}},
{"type":"Feature","geometry":{"type":"Point","coordinates":[1.5202774,42.9691215]},"properties":{"natural":"tree"}},
{"type":"Feature","geometry":{"type":"Point","coordinates":[1.6071367,42.9625537]},"properties":{"natural":"tree"}},
{"type":"Feature","geometry":{"type":"Point","coordinates":[1.5702812,42.9686834]},"properties":{"natural":"spring"}},
{"type":"Feature","geometry":{"type":"Point","coordinates":[1.5803275,42.9752491]},"properties":{"leisure":"picnic_table"}},
{"type":"Feature","geometry":{"type":"Point","coordinates":[1.5742847,42.9794705]},"properties":{"natural":"spring"}},
{"type":"Feature","geometry":{"type":"Point","coordinates":[1.5707861,42.9798091]},"properties":{"natural":"spring"}},
{"type":"Feature","geometry":{"type":"Point","coordinates":[1.5767443,42.9764725]},"properties":{"natural":"spring"}},
{"type":"Feature","geometry":{"type":"Point","coordinates":[1.5242048,42.9405493]},"properties":{"natural":"spring"}},
{"type":"Feature","geometry":{"type":"Point","coordinates":[1.5022072,43.0107426]},"properties":{"historic":"wayside_cross","source":"IGN - 09/2020"}},
{"type":"Feature","geometry":{"type":"Point","coordinates":[1.5034633,43.01358]},"properties":{"historic":"wayside_cross","source":"IGN - 09/2020"}},
{"type":"Feature","geometry":{"type":"Point","coordinates":[1.5409859,42.9779186]},"properties":{"historic":"wayside_cross","source":"IGN - 09/2020"}},
{"type":"Feature","geometry":{"type":"Point","coordinates":[1.5424486,42.9745476]},"properties":{"historic":"wayside_cross","source":"IGN - 09/2020"}},
{"type":"Feature","geometry":{"type":"Point","coordinates":[1.5427861,42.9943182]},"properties":{"man_made":"spring_box","natural":"spring","source":"IGN - 09/2020"}},
{"type":"Feature","geometry":{"type":"Point","coordinates":[1.5373244,43.0120974]},"properties":{"historic":"wayside_cross","source":"IGN - 09/2020"}},
{"type":"Feature","geometry":{"type":"Point","coordinates":[1.5214434,42.9087944]},"properties":{"natural":"spring"}},
{"type":"Feature","geometry":{"type":"Point","coordinates":[1.5201884,42.9083282]},"properties":{"natural":"spring"}},
{"type":"Feature","geometry":{"type":"Point","coordinates":[1.5232615,42.9083452]},"properties":{"natural":"spring"}},
{"type":"Feature","geometry":{"type":"Point","coordinates":[1.5203843,42.9081277]},"properties":{"natural":"spring"}},
{"type":"Feature","geometry":{"type":"Point","coordinates":[1.5195169,42.9105917]},"properties":{"name":"Font du Curé","natural":"spring"}},
{"type":"Feature","geometry":{"type":"Point","coordinates":[1.6072319,42.9643666]},"properties":{"barrier":"gate"}},
{"type":"Feature","geometry":{"type":"Point","coordinates":[1.7037003,42.8740309]},"properties":{"name":"Cabane de Torre","tourism":"wilderness_hut"}},
{"type":"Feature","geometry":{"type":"Point","coordinates":[1.613873,42.9890342]},"properties":{"leisure":"picnic_table"}},
{"type":"Feature","geometry":{"type":"Point","coordinates":[1.6135056,42.9900113]},"properties":{"leisure":"picnic_table"}},
{"type":"Feature","geometry":{"type":"Point","coordinates":[1.7320587,42.8305936]},"properties":{"ele":"2074","name":"Pic du Han","natural":"peak"}},
{"type":"Feature","geometry":{"type":"Point","coordinates":[1.7291174,42.8326399]},"properties":{"ele":"1916","natural":"saddle"}},
{"type":"Feature","geometry":{"type":"Point","coordinates":[1.728468,42.8326136]},"properties":{"ele":"1933","natural":"peak"}},
{"type":"Feature","geometry":{"type":"Point","coordinates":[1.7258022,42.8331383]},"properties":{"ele":"1890","name":"Col du Han","natural":"saddle"}},
{"type":"Feature","geometry":{"type":"Point","coordinates":[1.7262587,42.8314731]},"properties":{"natural":"spring"}},
{"type":"Feature","geometry":{"type":"Point","coordinates":[1.7195686,42.8212729]},"properties":{"ele":"1584","natural":"peak"}},
{"type":"Feature","geometry":{"type":"Point","coordinates":[1.7239948,42.833261]},"properties":{"ele":"1931","name":"SN 1831","natural":"peak"}},
{"type":"Feature","geometry":{"type":"Point","coordinates":[1.7151635,42.8961097]},"properties":{"addr:city":"Tragine","addr:street":"Place principale","guest_house":"Maison_à_louer","internet_access":"yes","internet_access:fee":"no","operator":"Bacabe","rooms":"2","tourism":"guest_house"}},
{"type":"Feature","geometry":{"type":"Point","coordinates":[1.7054972,42.8660281]},"properties":{"ele":"1668","name":"Col de Rieutort","natural":"saddle"}},
{"type":"Feature","geometry":{"type":"Point","coordinates":[1.6634914,42.9009396]},"properties":{"ele":"618","name":"Roc de Carol","natural":"peak"}},
{"type":"Feature","geometry":{"type":"Point","coordinates":[1.6916929,42.8966724]},"properties":{"ele":"1133","name":"Roc du Milla","natural":"peak"}},
{"type":"Feature","geometry":{"type":"Point","coordinates":[1.6814681,42.9015056]},"properties":{"ele":"960","name":"Roc de St-Genès","natural":"peak"}},
{"type":"Feature","geometry":{"type":"Point","coordinates":[1.6927543,42.8956283]},"properties":{"ele":"1106","name":"Col du Milla","natural":"saddle"}},
{"type":"Feature","geometry":{"type":"Point","coordinates":[1.5988326,42.8705378]},"properties":{"historic":"memorial","memorial":"war_memorial","ref:FR:MemorialGenWeb":"20204"}},
{"type":"Feature","geometry":{"type":"Point","coordinates":[1.6454092,42.9172004]},"properties":{"natural":"tree"}},
{"type":"Feature","geometry":{"type":"Point","coordinates":[1.6547996,42.9150887]},"properties":{"natural":"tree"}},
{"type":"Feature","geometry":{"type":"Point","coordinates":[1.6549095,42.915021]},"properties":{"natural":"tree"}},
{"type":"Feature","geometry":{"type":"Point","coordinates":[1.6550168,42.9154138]},"properties":{"natural":"tree"}},