{"type":"FeatureCollection","features":[
{"type":"Feature","geometry":{"type":"Point","coordinates":[7.2691921,48.0599159]},"properties":{"addr:postcode":"68920","addr:street":"Route des Cinq Châteaux","alt_name":"Château de Hohlandsberg","alt_name:de":"Hohlandsburg","alt_name:fr":"Château de Hohlandsberg","contact:phone":"+33 3 89 30 10 20","contact:postcode":"68920","contact:street":"Route des Cinq Châteaux","contact:website":"http://www.chateau-hohlandsbourg.com","fee":"yes","heritage":"2","heritage:operator":"mhs","historic":"castle","mhs:inscription_date":"1840","name":"Château du Hohlandsbourg","name:de":"Burg Hohlandsberg","name:fr":"Château du Hohlandsbourg","place":"locality","ref:mhs":"PA00085738","ruins":"yes","source:heritage":"data.gouv.fr, Ministère de la Culture - 2016","start_date":"C13","tourism":"attraction","wikidata":"Q839242","wikipedia":"fr:Château du Hohlandsbourg"}},
{"type":"Feature","geometry":{"type":"Point","coordinates":[7.3074235,48.0422537]},"properties":{"tourism":"viewpoint"}},
{"type":"Feature","geometry":{"type":"Point","coordinates":[7.3069062,48.0429784]},"properties":{"name":"Cour Unterlinden","tourism":"guest_house"}},
{"type":"Feature","geometry":{"type":"Point","coordinates":[7.3554682,48.0802676]},"properties":{"check_date":"2024-05-19","information":"office","name":"Office du Tourisme","opening_hours":"Mo-Sa 09:00-18:00, Su,PH 10:00-01:00","tourism":"information"}},
{"type":"Feature","geometry":{"type":"Point","coordinates":[7.3580764,48.076903]},"properties":{"highway":"street_lamp","lamp_mount":"wall","lamp_type":"led","light:colour":"yellow"}},
{"type":"Feature","geometry":{"type":"Point","coordinates":[7.354183,48.0770127]},"properties":{"artist_name":"Frédéric Auguste Bartholdi","artwork_type":"sculpture","heritage":"2","heritage:operator":"mhs","historic":"memorial","inscription":"AU GENERAL RAPP SES COMPATRIOTES ET SES ANCIENS FRERES D’ARMES. MA PAROLE EST SACREE","material":"bronze","memorial":"statue","mhs:inscription_date":"1946-08-06","name":"Statue du Général Jean Rapp","ref:mhs":"PA00085408","start_date":"1856-08-31","subject:wikidata":"Q3497599","subject:wikipedia":"fr:Jean Rapp","tourism":"artwork","wheelchair":"yes"}},
{"type":"Feature","geometry":{"type":"Point","coordinates":[7.3527612,48.0755785]},"properties":{"artist_name":"Frédéric Auguste Bartholdi","artwork_type":"sculpture","heritage":"2","heritage:operator":"mhs","historic":"memorial","mapillary":"2000018970150317","material":"bronze","memorial":"statue","mhs:inscription_date":"1946-08-07","name":"Statue d'Armand Joseph Bruat","name:ru":"Фонтан адмирала Брюа","ref:mhs":"PA00085407","start_date":"1864-08-21","subject:wikidata":"Q3497594","subject:wikipedia":"fr:Armand Joseph Bruat","tourism":"artwork","wheelchair":"yes"}},
{"type":"Feature","geometry":{"type":"Point","coordinates":[7.3577627,48.0755368]},"properties":{"historic":"monument","name":"Théophile Conrad Pfeffel","tourism":"attraction"}},
{"type":"Feature","geometry":{"type":"Point","coordinates":[7.2626914,48.0498197]},"properties":{"name":"Repos du Chasseur","tourism":"picnic_site"}},
{"type":"Feature","geometry":{"type":"Point","coordinates":[7.2618495,48.0502785]},"properties":{"name":"Rocher Turenne","name:de":"Hexenfelsen","natural":"rock","tourism":"attraction"}},
{"type":"Feature","geometry":{"type":"Point","coordinates":[7.2423162,48.0361669]},"properties":{"ele":"722","natural":"saddle"}},
{"type":"Feature","geometry":{"type":"Point","coordinates":[7.275709,48.0366783]},"properties":{"ele":"500","hiking":"yes","information":"guidepost","name":"Damensessel","operator":"Club Vosgien","tourism":"information"}},
{"type":"Feature","geometry":{"type":"Point","coordinates":[7.3511561,48.077344]},"properties":{"historic":"monument","name":"Maréchal de Lattre de Tassigny","source":"cadastre-dgi-fr source : Direction Générale des Impôts - Cadastre. Mise à jour : 2010","tourism":"attraction"}},
{"type":"Feature","geometry":{"type":"Point","coordinates":[7.3548399,48.0734677]},"properties":{"artist_name":"F.A. Bartholdi","artwork_type":"sculpture","historic":"monument","name":"Gustave Adolphe Hirn","source":"cadastre-dgi-fr source : Direction Générale des Impôts - Cadastre. Mise à jour : 2010","tourism":"artwork","wheelchair":"yes"}},
{"type":"Feature","geometry":{"type":"Point","coordinates":[7.332101,48.080999]},"properties":{"addr:city":"Colmar","addr:housenumber":"15","addr:postcode":"68000","addr:street":"Rue Robert Schuman"}},
{"type":"Feature","geometry":{"type":"Point","coordinates":[7.3320856,48.0809908]},"properties":{"entrance":"main"}},
{"type":"Feature","geometry":{"type":"Point","coordinates":[7.3531423,48.0704895]},"properties":{"artist_name":"Hubert Louis-Noel - Antoine Rubin","artwork_type":"sculpture","historic":"memorial","material":"bronze","memorial":"statue","name":"Statue de Frédéric Auguste Bartholdi","source":"cadastre-dgi-fr source : Direction Générale des Impôts - Cadastre. Mise à jour : 2010","start_date":"1907","subject:wikidata":"Q223274","subject:wikipedia":"fr:Auguste Bartholdi","tourism":"artwork"}},
{"type":"Feature","geometry":{"type":"Point","coordinates":[7.3559777,48.0764288]},"properties":{"addr:housenumber":"1"}},
{"type":"Feature","geometry":{"type":"Point","coordinates":[7.3557839,48.0764161]},"properties":{"addr:housenumber":"3"}},
{"type":"Feature","geometry":{"type":"Point","coordinates":[7.3560729,48.0763576]},"properties":{"addr:housenumber":"16"}},
{"type":"Feature","geometry":{"type":"Point","coordinates":[7.3549151,48.0745447]},"properties":{"contact:city":"Colmar","contact:country":"FR","contact:housenumber":"14","contact:postcode":"68000","contact:street":"Rue Chauffour","name":"Romantic Studio Center","tourism":"hostel"}},
{"type":"Feature","geometry":{"type":"Point","coordinates":[7.3590973,48.0792991]},"properties":{"addr:housenumber":"4","source":"cadastre-dgi-fr source : Direction Générale des Impôts - Cadastre. Mise à jour : 2010"}},
{"type":"Feature","geometry":{"type":"Point","coordinates":[7.3593408,48.0764197]},"properties":{"addr:housenumber":"38","source":"cadastre-dgi-fr source : Direction Générale des Impôts - Cadastre. Mise à jour : 2010"}},
{"type":"Feature","geometry":{"type":"Point","coordinates":[7.3581212,48.0768945]},"properties":{"addr:housenumber":"16","source":"cadastre-dgi-fr source : Direction Générale des Impôts - Cadastre. Mise à jour : 2010"}},
{"type":"Feature","geometry":{"type":"Point","coordinates":[7.3573042,48.0815114]},"properties":{"addr:housenumber":"5","source":"cadastre-dgi-fr source : Direction Générale des Impôts - Cadastre. Mise à jour : 2010"}},
{"type":"Feature","geometry":{"type":"Point","coordinates":[7.357466,48.0776616]},"properties":{"addr:housenumber":"4","source":"cadastre-dgi-fr source : Direction Générale des Impôts - Cadastre. Mise à jour : 2010"}},
{"type":"Feature","geometry":{"type":"Point","coordinates":[7.3576509,48.077598]},"properties":{"addr:housenumber":"22","source":"cadastre-dgi-fr source : Direction Générale des Impôts - Cadastre. Mise à jour : 2010"}},
{"type":"Feature","geometry":{"type":"Point","coordinates":[7.3577963,48.0778007]},"properties":{"addr:housenumber":"24","source":"cadastre-dgi-fr source : Direction Générale des Impôts - Cadastre. Mise à jour : 2010"}},
{"type":"Feature","geometry":{"type":"Point","coordinates":[7.3555401,48.0786266]},"properties":{"addr:housenumber":"19","source":"cadastre-dgi-fr source : Direction Générale des Impôts - Cadastre. Mise à jour : 2010"}},
{"type":"Feature","geometry":{"type":"Point","coordinates":[7.3545042,48.0789034]},"properties":{"addr:housenumber":"29","source":"cadastre-dgi-fr source : Direction Générale des Impôts - Cadastre. Mise à jour : 2010"}},
{"type":"Feature","geometry":{"type":"Point","coordinates":[7.3550595,48.0786187]},"properties":{"addr:housenumber":"28","source":"cadastre-dgi-fr source : Direction Générale des Impôts - Cadastre. Mise à jour : 2010"}},
{"type":"Feature","geometry":{"type":"Point","coordinates":[7.3493685,48.0771877]},"properties":{"addr:housenumber":"2","source":"cadastre-dgi-fr source : Direction Générale des Impôts - Cadastre. Mise à jour : 2010"}},
{"type":"Feature","geometry":{"type":"Point","coordinates":[7.3496615,48.077175]},"properties":{"addr:housenumber":"3","source":"cadastre-dgi-fr source : Direction Générale des Impôts - Cadastre. Mise à jour : 2010"}},
{"type":"Feature","geometry":{"type":"Point","coordinates":[7.3498396,48.0764807]},"properties":{"addr:housenumber":"1","source":"cadastre-dgi-fr source : Direction Générale des Impôts - Cadastre. Mise à jour : 2010"}},
{"type":"Feature","geometry":{"type":"Point","coordinates":[7.3554987,48.0750834]},"properties":{"addr:housenumber":"15","source":"cadastre-dgi-fr source : Direction Générale des Impôts - Cadastre. Mise à jour : 2010"}},
{"type":"Feature","geometry":{"type":"Point","coordinates":[7.3568151,48.0736055]},"properties":{"addr:housenumber":"5","source":"cadastre-dgi-fr source : Direction Générale des Impôts - Cadastre. Mise à jour : 2010"}},
{"type":"Feature","geometry":{"type":"Point","coordinates":[7.3476154,48.0726037]},"properties":{"addr:city":"Colmar","addr:country":"FR","addr:housenumber":"7","addr:postcode":"68000","addr:street":"Place de la Gare","source":"cadastre-dgi-fr source : Direction Générale des Impôts - Cadastre. Mise à jour : 2010"}},
{"type":"Feature","geometry":{"type":"Point","coordinates":[7.3587456,48.0736024]},"properties":{"addr:housenumber":"11","source":"cadastre-dgi-fr source : Direction Générale des Impôts - Cadastre. Mise à jour : 2010"}},
{"type":"Feature","geometry":{"type":"Point","coordinates":[7.3582087,48.0737852]},"properties":{"addr:housenumber":"7","source":"cadastre-dgi-fr source : Direction Générale des Impôts - Cadastre. Mise à jour : 2010"}},
{"type":"Feature","geometry":{"type":"Point","coordinates":[7.3584075,48.0719223]},"properties":{"addr:housenumber":"2","source":"cadastre-dgi-fr source : Direction Générale des Impôts - Cadastre. Mise à jour : 2010"}},
{"type":"Feature","geometry":{"type":"Point","coordinates":[7.3573984,48.085973]},"properties":{"addr:housenumber":"2","source":"cadastre-dgi-fr source : Direction Générale des Impôts - Cadastre. Mise à jour : 2010"}},
{"type":"Feature","geometry":{"type":"Point","coordinates":[7.3576749,48.0858528]},"properties":{"addr:housenumber":"17","source":"cadastre-dgi-fr source : Direction Générale des Impôts - Cadastre. Mise à jour : 2010"}},
{"type":"Feature","geometry":{"type":"Point","coordinates":[7.346485,48.0827431]},"properties":{"description":"Calvaire","historic":"wayside_cross","source":"cadastre-dgi-fr source : Direction Générale des Impôts - Cadastre. Mise à jour : 2010"}},
{"type":"Feature","geometry":{"type":"Point","coordinates":[7.3371377,48.0719518]},"properties":{"historic":"wayside_cross","name":"Calvaire","source":"cadastre-dgi-fr source : Direction Générale des Impôts - Cadastre. Mise à jour : 2010"}},
{"type":"Feature","geometry":{"type":"Point","coordinates":[7.3499775,48.0666814]},"properties":{"addr:housenumber":"24","source":"cadastre-dgi-fr source : Direction Générale des Impôts - Cadastre. Mise à jour : 2010"}},
{"type":"Feature","geometry":{"type":"Point","coordinates":[7.287082,48.0836347]},"properties":{"highway":"mini_roundabout"}},
{"type":"Feature","geometry":{"type":"Point","coordinates":[7.2823871,48.082743]},"properties":{"highway":"mini_roundabout"}},
{"type":"Feature","geometry":{"type":"Point","coordinates":[7.282254,48.0747858]},"properties":{"historic":"memorial","memorial":"war_memorial","name":"Monument aux Morts","source":"cadastre-dgi-fr source : Direction Générale des Impôts - Cadastre. Mise à jour : 2010"}},
{"type":"Feature","geometry":{"type":"Point","coordinates":[7.3583776,48.0740091]},"properties":{"addr:housenumber":"8","source":"cadastre-dgi-fr source : Direction Générale des Impôts - Cadastre. Mise à jour : 2010"}},
{"type":"Feature","geometry":{"type":"Point","coordinates":[7.3522923,48.0796491]},"properties":{"addr:housenumber":"15","source":"cadastre-dgi-fr source : Direction Générale des Impôts - Cadastre. Mise à jour : 2010"}},
{"type":"Feature","geometry":{"type":"Point","coordinates":[7.3553763,48.0768229]},"properties":{"brand":"Ibis Styles","brand:wikidata":"Q3147425","brand:wikipedia":"fr:Ibis Styles","contact:city":"Colmar","contact:housenumber":"11","contact:phone":"+33 3 89232625","contact:postcode":"68000","contact:street":"Boulevard du Champ de Mars","contact:website":"https://www.accorhotels.com/de/hotel-7005-ibis-styles-colmar-centre","internet_access":"wlan","internet_access:fee":"no","name":"ibis Styles Colmar Centre","stars":"3","tourism":"hotel"}},
{"type":"Feature","geometry":{"type":"Point","coordinates":[7.307308,48.0425446]},"properties":{"information":"office","name":"Office de Tourisme","opening_hours":"Jan-Mar Mo-Sa 09:30-12:00,14:00-17:00; Apr,Nov Mo-Fr 09:30-12:30,13:30-18:00; Apr,Nov Sa 09:30-12:30,13:30-17:00; May-Oct,Dec Mo-Fr 09:30-12:30,13:30-18:00; May-Oct,Dec Sa 09:30-12:30,13:30-17:00; May-Oct,Dec Su,PH 10:00-13:00","tourism":"information","wheelchair":"limited"}},
{"type":"Feature","geometry":{"type":"Point","coordinates":[7.2985251,48.0571571]},"properties":{"historic":"monument","name":"Grotte de Lourdes","source":"cadastre-dgi-fr source : Direction Générale des Impôts - Cadastre. Mise à jour : 2010","start_date":"1912"}},
{"type":"Feature","geometry":{"type":"Point","coordinates":[7.3058665,48.0428623]},"properties":{"historic":"memorial","memorial":"war_memorial","name":"Monument aux Morts","source":"cadastre-dgi-fr source : Direction Générale des Impôts - Cadastre. Mise à jour : 2010"}},
{"type":"Feature","geometry":{"type":"Point","coordinates":[7.354044,48.0755058]},"properties":{"artwork_type":"statue","historic":"memorial","inscription":"THOMAS Charles Xavier INVENTEUR DE LA PREMIERE MACHINE A CALCULER INDUSTRIELLE NÉ À COLMAR en 1785 - MORT À PARIS EN 1870","material":"stone","name":"Buste de Charles- Xavier Thomas","source":"cadastre-dgi-fr source : Direction Générale des Impôts - Cadastre. Mise à jour : 2010","subject:wikidata":"Q1066523","subject:wikipedia":"fr:Charles Xavier Thomas de Colmar"}},
{"type":"Feature","geometry":{"type":"Point","coordinates":[7.3546466,48.077412699999999]},"properties":{"historic":"monument","name":"Jean-Jacques Waltz (alias Hansi)","source":"cadastre-dgi-fr source : Direction Générale des Impôts - Cadastre. Mise à jour : 2010"}},
{"type":"Feature","geometry":{"type":"Point","coordinates":[7.3288137,48.0179463]},"properties":{"historic":"memorial","memorial":"war_memorial","name":"Monument aux Morts","source":"cadastre-dgi-fr source : Direction Générale des Impôts - Cadastre. Mise à jour : 2010"}},
{"type":"Feature","geometry":{"type":"Point","coordinates":[7.2558329,47.9707244]},"properties":{"historic":"wayside_shrine","name":"Notre-Dame du Hubel","religion":"christian"}},
{"type":"Feature","geometry":{"type":"Point","coordinates":[7.295951,48.0112786]},"properties":{"historic":"wayside_cross","name":"Calvaire","source":"cadastre-dgi-fr source : Direction Générale des Impôts - Cadastre. Mise à jour : 2010"}},
{"type":"Feature","geometry":{"type":"Point","coordinates":[7.2770122,48.00254]},"properties":{"bicycle":"yes","foot":"yes","historic":"city_gate","horse":"yes","motor_vehicle":"yes"}},
{"type":"Feature","geometry":{"type":"Point","coordinates":[7.2837404,47.9864562]},"properties":{"historic":"wayside_cross","name":"Calvaire","source":"cadastre-dgi-fr source : Direction Générale des Impôts - Cadastre. Mise à jour : 2010"}},
{"type":"Feature","geometry":{"type":"Point","coordinates":[7.2780189,47.9843964]},"properties":{"historic":"wayside_cross","name":"Calvaire","source":"cadastre-dgi-fr source : Direction Générale des Impôts - Cadastre. Mise à jour : 2010"}},
{"type":"Feature","geometry":{"type":"Point","coordinates":[7.279223,47.9865236]},"properties":{"historic":"wayside_cross","name":"Calvaire","source":"cadastre-dgi-fr source : Direction Générale des Impôts - Cadastre. Mise à jour : 2010"}},
{"type":"Feature","geometry":{"type":"Point","coordinates":[7.2949505,48.0184203]},"properties":{"historic":"memorial","memorial":"war_memorial","name":"Monument aux Morts","source":"cadastre-dgi-fr source : Direction Générale des Impôts - Cadastre. Mise à jour : 2010"}},
{"type":"Feature","geometry":{"type":"Point","coordinates":[7.2948893,48.0184236]},"properties":{"historic":"wayside_cross","name":"Calvaire","source":"cadastre-dgi-fr source : Direction Générale des Impôts - Cadastre. Mise à jour : 2010"}},
{"type":"Feature","geometry":{"type":"Point","coordinates":[7.3310771,47.98297]},"properties":{"source":"cadastre-dgi-fr source : Direction Générale des Impôts - Cadastre. Mise à jour : 2010","tourism":"picnic_site"}},
{"type":"Feature","geometry":{"type":"Point","coordinates":[7.2854079,48.0739081]},"properties":{"addr:city":"Wintzenheim","addr:country":"FR","addr:housenumber":"91","addr:postcode":"68920","addr:street":"Rue Clemenceau","source":"cadastre-dgi-fr source : Direction Générale des Impôts - Cadastre. Mise à jour : 2010"}},
{"type":"Feature","geometry":{"type":"Point","coordinates":[7.2814215,48.0822289]},"properties":{"addr:city":"Turckheim","addr:country":"FR","addr:housenumber":"29","addr:postcode":"68230","addr:street":"Route Romaine","source":"cadastre-dgi-fr source : Direction Générale des Impôts - Cadastre. Mise à jour : 2010"}},
{"type":"Feature","geometry":{"type":"Point","coordinates":[7.2804825,48.0854178]},"properties":{"historic":"monument","name":"Monument Charles Grad","source":"cadastre-dgi-fr source : Direction Générale des Impôts - Cadastre. Mise à jour : 2010"}},
{"type":"Feature","geometry":{"type":"Point","coordinates":[7.2702942,48.0841012]},"properties":{"historic":"wayside_cross","name":"Calvaire","source":"cadastre-dgi-fr source : Direction Générale des Impôts - Cadastre. Mise à jour : 2010"}},
{"type":"Feature","geometry":{"type":"Point","coordinates":[7.2983594,48.0592435]},"properties":{"addr:city":"Wettolsheim","addr:country":"FR","addr:housenumber":"20","addr:postcode":"68920","addr:street":"Rue Sainte-Gertrude","source":"cadastre-dgi-fr source : Direction Générale des Impôts - Cadastre. Mise à jour : 2010"}},
{"type":"Feature","geometry":{"type":"Point","coordinates":[7.3009482,48.0563031]},"properties":{"historic":"wayside_cross","name":"Calvaire","source":"cadastre-dgi-fr source : Direction Générale des Impôts - Cadastre. Mise à jour : 2010"}},
{"type":"Feature","geometry":{"type":"Point","coordinates":[7.3036947,48.0610481]},"properties":{"historic":"wayside_cross","name":"Calvaire","source":"cadastre-dgi-fr source : Direction Générale des Impôts - Cadastre. Mise à jour : 2010"}},
{"type":"Feature","geometry":{"type":"Point","coordinates":[7.2884772,48.0465228]},"properties":{"historic":"wayside_cross","name":"Calvaire","source":"cadastre-dgi-fr source : Direction Générale des Impôts - Cadastre. Mise à jour : 2010"}},
{"type":"Feature","geometry":{"type":"Point","coordinates":[7.2862832,48.0469139]},"properties":{"historic":"wayside_cross","name":"Calvaire","source":"cadastre-dgi-fr source : Direction Générale des Impôts - Cadastre. Mise à jour : 2010"}},
{"type":"Feature","geometry":{"type":"Point","coordinates":[7.2862975,48.0538785]},"properties":{"historic":"wayside_cross","name":"Calvaire","source":"cadastre-dgi-fr source : Direction Générale des Impôts - Cadastre. Mise à jour : 2010"}},
{"type":"Feature","geometry":{"type":"Point","coordinates":[7.3031277,48.0602424]},"properties":{"addr:city":"Wettolsheim","addr:country":"FR","addr:housenumber":"9","addr:postcode":"68920","addr:street":"Rue Herzog","source":"cadastre-dgi-fr source : Direction Générale des Impôts - Cadastre. Mise à jour : 2010"}},
{"type":"Feature","geometry":{"type":"Point","coordinates":[7.309142,48.0422564]},"properties":{"addr:city":"Eguisheim","addr:country":"FR","addr:housenumber":"12","addr:postcode":"68420","addr:street":"Grand'Rue","source":"cadastre-dgi-fr source : Direction Générale des Impôts - Cadastre. Mise à jour : 2010"}},
{"type":"Feature","geometry":{"type":"Point","coordinates":[7.3095597,48.0421816]},"properties":{"addr:city":"Eguisheim","addr:country":"FR","addr:housenumber":"10","addr:postcode":"68420","addr:street":"Grand'Rue","source":"cadastre-dgi-fr source : Direction Générale des Impôts - Cadastre. Mise à jour : 2010"}},
{"type":"Feature","geometry":{"type":"Point","coordinates":[7.3075182,48.0423505]},"properties":{"addr:city":"Eguisheim","addr:country":"FR","addr:housenumber":"1","addr:postcode":"68420","addr:street":"Rue du Rempart Sud","source":"cadastre-dgi-fr source : Direction Générale des Impôts - Cadastre. Mise à jour : 2010"}},
{"type":"Feature","geometry":{"type":"Point","coordinates":[7.3057903,48.0430417]},"properties":{"addr:city":"Eguisheim","addr:country":"FR","addr:housenumber":"26","addr:postcode":"68420","addr:street":"Grand'Rue","source":"cadastre-dgi-fr source : Direction Générale des Impôts - Cadastre. Mise à jour : 2010"}},
{"type":"Feature","geometry":{"type":"Point","coordinates":[7.3054748,48.0424792]},"properties":{"historic":"monument","name":"Statue","source":"cadastre-dgi-fr source : Direction Générale des Impôts - Cadastre. Mise à jour : 2010"}},
{"type":"Feature","geometry":{"type":"Point","coordinates":[7.3129233,48.0440933]},"properties":{"addr:city":"Eguisheim","addr:country":"FR","addr:housenumber":"5","addr:postcode":"68420","addr:street":"Rue du 1er R.E.C.","source":"cadastre-dgi-fr source : Direction Générale des Impôts - Cadastre. Mise à jour : 2010"}},
{"type":"Feature","geometry":{"type":"Point","coordinates":[7.3570327,48.0726413]},"properties":{"name":"La petite Venise","name:ru":"Маленькая Венеция","tourism":"viewpoint"}},
{"type":"Feature","geometry":{"type":"Point","coordinates":[7.3593602,48.0745736]},"properties":{"artist_name":"F.A. Bartholdi","artwork_type":"sculpture","name":"Le Petit Vigneron","tourism":"artwork"}},
{"type":"Feature","geometry":{"type":"Point","coordinates":[7.3555565,48.0798635]},"properties":{"addr:city":"Colmar","addr:postcode":"68000","addr:street":"Place Unterlinden","fee":"yes","name":"Musée Unterlinden","name:de":"Unterlinden-Museum","name:en":"Unterlinden Museum","name:zh":"菩提树下博物馆","opening_hours":"Mo, We-Su 10:00-18:00; Th 10:00-20:00","ref:FR:museofile":"M0028","source":"Ministère de la Culture - Muséofile - 09/2019","tourism":"museum","website":"https://www.musee-unterlinden.com","wikidata":"Q1851283","wikipedia":"fr:Musée Unterlinden"}},
{"type":"Feature","geometry":{"type":"Point","coordinates":[7.358225,48.0738104]},"properties":{"check_date":"2024-05-19","name":"Le Colombier","stars":"3","tourism":"hotel"}},
{"type":"Feature","geometry":{"type":"Point","coordinates":[7.2638704,48.0545083]},"properties":{"alt_name":"Frauenbrunnen","name":"La Fontaine de la Dame","natural":"spring","note":"source"}},
{"type":"Feature","geometry":{"type":"Point","coordinates":[7.2657838,48.0026716]},"properties":{"board_type":"notice","check_date":"2023-10-02","information":"board","name":"Site d'escalade Gueberschwihr","tourism":"information"}},
{"type":"Feature","geometry":{"type":"Point","coordinates":[7.3229745,48.0671452]},"properties":{"historic":"wayside_cross","name":"Croix Blanche"}},
{"type":"Feature","geometry":{"type":"Point","coordinates":[7.3375999,48.0609602]},"properties":{"denomination":"catholic","description":"Calvaire","historic":"wayside_cross","religion":"christian","source":"cadastre-dgi-fr source : Direction Générale des Impôts - Cadastre. Mise à jour : 2011"}},
{"type":"Feature","geometry":{"type":"Point","coordinates":[7.2790852,48.0322124]},"properties":{"historic":"wayside_cross","name":"Calvaire","source":"cadastre-dgi-fr source : Direction Générale des Impôts - Cadastre. Mise à jour : 2011"}},
{"type":"Feature","geometry":{"type":"Point","coordinates":[7.3001206,48.0110085]},"properties":{"historic":"memorial","name":"Monument aux morts","source":"cadastre-dgi-fr source : Direction Générale des Impôts - Cadastre. Mise à jour : 2011"}},
{"type":"Feature","geometry":{"type":"Point","coordinates":[7.2766499,48.0662163]},"properties":{"addr:city":"Wintzenheim","addr:postcode":"68920","addr:street":"Chemin du Panorama","ele":"400","historic":"memorial","inscription":"La section du Club Vosgien Wintzenheim Hohlandsbourg à son fondateur et président A Meyer 1885 1885","material":"stone","memorial":"obelisk","name":"Monument Meyer"}},
{"type":"Feature","geometry":{"type":"Point","coordinates":[7.2830182,48.0621741]},"properties":{"historic":"monument","name":"Grotte"}},
{"type":"Feature","geometry":{"type":"Point","coordinates":[7.2835961,48.0623036]},"properties":{"historic":"monument","name":"Grotte"}},
{"type":"Feature","geometry":{"type":"Point","coordinates":[7.2847282,48.0627374]},"properties":{"historic":"wayside_cross"}},
{"type":"Feature","geometry":{"type":"Point","coordinates":[7.2846942,48.0628224]},"properties":{"historic":"wayside_cross"}},
{"type":"Feature","geometry":{"type":"Point","coordinates":[7.2796766,48.0652118]},"properties":{"historic":"monument","name":"Saint-Joseph"}},
{"type":"Feature","geometry":{"type":"Point","coordinates":[7.2650654,48.0506427]},"properties":{"ele":"605","name":"Col du Wilsbach","natural":"saddle"}},
{"type":"Feature","geometry":{"type":"Point","coordinates":[7.2751325,48.0522723]},"properties":{"barrier":"sally_port","bicycle":"no","foot":"yes"}},
{"type":"Feature","geometry":{"type":"Point","coordinates":[7.2797821,48.0542221]},"properties":{"hiking":"yes","information":"guidepost","operator":"Club Vosgien","tourism":"information"}},
{"type":"Feature","geometry":{"type":"Point","coordinates":[7.2797283,48.0651316]},"properties":{"historic":"wayside_cross"}},
{"type":"Feature","geometry":{"type":"Point","coordinates":[7.2506717,48.0665324]},"properties":{"tourism":"viewpoint"}},
{"type":"Feature","geometry":{"type":"Point","coordinates":[7.2495992,48.007236]},"properties":{"historic":"wayside_cross","name":"Calvaire","source":"cadastre-dgi-fr source : Direction Générale des Impôts - Cadastre. Mise à jour : 2011"}},
{"type":"Feature","geometry":{"type":"Point","coordinates":[7.2494774,48.0075053]},"properties":{"historic":"wayside_cross","name":"Calvaire","source":"cadastre-dgi-fr source : Direction Générale des Impôts - Cadastre. Mise à jour : 2011"}},
{"type":"Feature","geometry":{"type":"Point","coordinates":[7.2494931,48.0075357]},"properties":{"historic":"wayside_cross","name":"Calvaire","source":"cadastre-dgi-fr source : Direction Générale des Impôts - Cadastre. Mise à jour : 2011"}},
{"type":"Feature","geometry":{"type":"Point","coordinates":[7.2426968,48.0799634]},"properties":{"building":"yes","historic":"wayside_shrine"}},
{"type":"Feature","geometry":{"type":"Point","coordinates":[7.3137594,48.0839019]},"properties":{"addr:city":"Wintzenheim","addr:country":"FR","addr:housenumber":"27","addr:postcode":"68920","addr:street":"Rue Herzog","source":"cadastre-dgi-fr source : Direction Générale des Impôts - Cadastre. Mise à jour : 2012"}},
{"type":"Feature","geometry":{"type":"Point","coordinates":[7.3063716,48.0427115]},"properties":{"historic":"monument","mapillary":"472109784022034","name":"Statue Saint-Léon","source":"cadastre-dgi-fr source : Direction Générale des Impôts - Cadastre. Mise à jour : 2010"}},
{"type":"Feature","geometry":{"type":"Point","coordinates":[7.2910614,48.0721873]},"properties":{"leisure":"playground"}},
{"type":"Feature","geometry":{"type":"Point","coordinates":[7.2913672,48.0750404]},"properties":{"leisure":"sports_centre"}},
{"type":"Feature","geometry":{"type":"Point","coordinates":[7.2782044,48.0350356]},"properties":{"tourism":"picnic_site"}},
{"type":"Feature","geometry":{"type":"Point","coordinates":[7.2650983,47.9942555]},"properties":{"tourism":"picnic_site"}},
{"type":"Feature","geometry":{"type":"Point","coordinates":[7.2741526,48.0357447]},"properties":{"tourism":"picnic_site"}},
{"type":"Feature","geometry":{"type":"Point","coordinates":[7.2424835,47.9936181]},"properties":{"name":"Heiliger Baum","tourism":"picnic_site"}},
{"type":"Feature","geometry":{"type":"Point","coordinates":[7.3565002,48.0762613]},"properties":{"contact:city":"Colmar","contact:country":"FR","contact:email":"info@hotelquatorze.com","contact:fax":"+33 3 89 20 45 29","contact:housenumber":"14","contact:phone":"+33 3 89 20 45 20","contact:postcode":"68000","contact:street":"Rue des Augustins","contact:website":"http://hotelquatorze.com","name":"Hôtel Quatorze","source":"cadastre-dgi-fr source : Direction Générale des Impôts - Cadastre. Mise à jour : 2012","stars":"4","tourism":"hotel"}},
{"type":"Feature","geometry":{"type":"Point","coordinates":[7.2434224,48.0626033]},"properties":{"source":"survey","tourism":"picnic_site"}},
{"type":"Feature","geometry":{"type":"Point","coordinates":[7.2990804,48.0429495]},"properties":{"motorhome":"designated","tourism":"camp_pitch"}},
{"type":"Feature","geometry":{"type":"Point","coordinates":[7.2808653,48.0347801]},"properties":{"historic":"memorial","memorial":"war_memorial","name":"Monument aux Morts","source":"cadastre-dgi-fr source : Direction Générale des Impôts - Cadastre. Mise à jour : 2013"}},
{"type":"Feature","geometry":{"type":"Point","coordinates":[7.2818549,48.0104462]},"properties":{"historic":"wayside_cross"}},
{"type":"Feature","geometry":{"type":"Point","coordinates":[7.2775579,48.0189764]},"properties":{"tourism":"picnic_site"}},
{"type":"Feature","geometry":{"type":"Point","coordinates":[7.2758309,48.0189885]},"properties":{"tourism":"picnic_site"}},
{"type":"Feature","geometry":{"type":"Point","coordinates":[7.2737131,48.0174562]},"properties":{"historic":"wayside_cross","material":"sandstone"}},
{"type":"Feature","geometry":{"type":"Point","coordinates":[7.2663144,48.0137771]},"properties":{"tourism":"information"}},
{"type":"Feature","geometry":{"type":"Point","coordinates":[7.2746728,48.0073126]},"properties":{"direction":"100","tourism":"viewpoint"}},
{"type":"Feature","geometry":{"type":"Point","coordinates":[7.2704318,48.0397771]},"properties":{"board_type":"hiking","check_date":"2021-08-10","information":"board","name":"Sentier des carrières","tourism":"information"}},
{"type":"Feature","geometry":{"type":"Point","coordinates":[7.2725054,48.0416951]},"properties":{"historic":"wayside_cross"}},
{"type":"Feature","geometry":{"type":"Point","coordinates":[7.2982068,48.0441605]},"properties":{"historic":"wayside_cross"}},
{"type":"Feature","geometry":{"type":"Point","coordinates":[7.2757997,48.0041542]},"properties":{"natural":"tree"}},
{"type":"Feature","geometry":{"type":"Point","coordinates":[7.2753504,48.0043821]},"properties":{"natural":"tree"}},
{"type":"Feature","geometry":{"type":"Point","coordinates":[7.2787404,47.9973907]},"properties":{"natural":"tree"}},
{"type":"Feature","geometry":{"type":"Point","coordinates":[7.2800468,48.0051765]},"properties":{"addr:city":"Gueberschwihr","addr:housenumber":"33","addr:postcode":"68420","addr:street":"Rue des Forgerons","name":"Relais du Vignoble","tourism":"hotel"}},
{"type":"Feature","geometry":{"type":"Point","coordinates":[7.2749912,48.0045941]},"properties":{"information":"board","tourism":"information"}},
{"type":"Feature","geometry":{"type":"Point","coordinates":[7.2458764,48.0136983]},"properties":{"tourism":"picnic_site"}},
{"type":"Feature","geometry":{"type":"Point","coordinates":[7.2642469,48.0648376]},"properties":{"covered":"no","leisure":"picnic_table","material":"wood"}},
{"type":"Feature","geometry":{"type":"Point","coordinates":[7.2640949,48.0649392]},"properties":{"covered":"no","leisure":"picnic_table","material":"wood"}},
{"type":"Feature","geometry":{"type":"Point","coordinates":[7.2776106,48.0113286]},"properties":{"direction":"100","tourism":"viewpoint"}},
{"type":"Feature","geometry":{"type":"Point","coordinates":[7.2579954,47.9695277]},"properties":{"direction":"160","tourism":"viewpoint"}},
{"type":"Feature","geometry":{"type":"Point","coordinates":[7.259782,48.0658083]},"properties":{"information":"guidepost","tourism":"information"}},
{"type":"Feature","geometry":{"type":"Point","coordinates":[7.3462785,48.0734921]},"properties":{"leisure":"tanning_salon","name":"Sun blue solarium"}},
{"type":"Feature","geometry":{"type":"Point","coordinates":[7.3414559,48.0639484]},"properties":{"leisure":"fitness_centre","name":"Amazonia"}},
{"type":"Feature","geometry":{"type":"Point","coordinates":[7.3113094,48.0417276]},"properties":{"denomination":"catholic","historic":"wayside_cross","name":"Calvaire","religion":"christian","source":"cadastre-dgi-fr source : Direction Générale des Impôts - Cadastre. Mise à jour : 2015"}},
{"type":"Feature","geometry":{"type":"Point","coordinates":[7.2721911,47.9915056]},"properties":{"genus":"Castanea sativa","natural":"tree","species":"Fagacée","species:fr":"Châtaignier"}},
{"type":"Feature","geometry":{"type":"Point","coordinates":[7.2748189,47.9904116]},"properties":{"bench":"yes","leisure":"picnic_table","lit":"no","material":"wood"}},
{"type":"Feature","geometry":{"type":"Point","coordinates":[7.2722785,47.9914423]},"properties":{"bench":"yes","leisure":"picnic_table","lit":"no","material":"wood"}},
{"type":"Feature","geometry":{"type":"Point","coordinates":[7.2829064,47.9842719]},"properties":{"historic":"wayside_cross"}},
{"type":"Feature","geometry":{"type":"Point","coordinates":[7.2757863,47.9864197]},"properties":{"historic":"wayside_cross"}},
{"type":"Feature","geometry":{"type":"Point","coordinates":[7.2685255,47.9921865]},"properties":{"direction":"90","tourism":"viewpoint"}},
{"type":"Feature","geometry":{"type":"Point","coordinates":[7.2685149,47.9928337]},"properties":{"direction":"22-157","tourism":"viewpoint"}},
{"type":"Feature","geometry":{"type":"Point","coordinates":[7.2691591,47.9901924]},"properties":{"historic":"wayside_cross"}},
{"type":"Feature","geometry":{"type":"Point","coordinates":[7.2690746,47.9903195]},"properties":{"historic":"wayside_cross"}},
{"type":"Feature","geometry":{"type":"Point","coordinates":[7.2690057,47.9904305]},"properties":{"historic":"wayside_cross"}},
{"type":"Feature","geometry":{"type":"Point","coordinates":[7.2689303,47.9905428]},"properties":{"historic":"wayside_cross"}},
{"type":"Feature","geometry":{"type":"Point","coordinates":[7.2670487,47.992829]},"properties":{"alt_name":"Autel des Druides","name":"Table des Druides","name:de":"Tisch der Druiden","natural":"rock","tourism":"attraction","wikidata":"Q22691231","wikipedia":"de:Autel des Druides"}},
{"type":"Feature","geometry":{"type":"Point","coordinates":[7.2804496,47.9843162]},"properties":{"historic":"wayside_cross"}},
{"type":"Feature","geometry":{"type":"Point","coordinates":[7.2772046,47.9854932]},"properties":{"direction":"90","tourism":"viewpoint"}},
{"type":"Feature","geometry":{"type":"Point","coordinates":[7.2830267,47.9841562]},"properties":{"denomination":"catholic","historic":"wayside_shrine","name":"Oratoire Saint-Jean-Bosco","religion":"christian"}},
{"type":"Feature","geometry":{"type":"Point","coordinates":[7.3010327,48.0442866]},"properties":{"historic":"wayside_cross"}},
{"type":"Feature","geometry":{"type":"Point","coordinates":[7.2781901,47.9982201]},"properties":{"tourism":"guest_house"}},
{"type":"Feature","geometry":{"type":"Point","coordinates":[7.2927019,48.0721438]},"properties":{"amenity":"restaurant","cuisine":"french","name":"A la Ville de Colmar","phone":"+33389270058","source":"cadastre-dgi-fr source : Direction Générale des Impôts - Cadastre. Mise à jour : 2010","stars":"1","tourism":"hotel"}},
{"type":"Feature","geometry":{"type":"Point","coordinates":[7.2691164,48.0603126]},"properties":{"information":"office","name:signed":"no","tourism":"information"}},
{"type":"Feature","geometry":{"type":"Point","coordinates":[7.2942483,47.9992295]},"properties":{"denomination":"catholic","historic":"wayside_cross","name":"Calvaire","religion":"christian","source":"cadastre-dgi-fr source : Direction Générale des Impôts - Cadastre. Mise à jour : 2015"}},
{"type":"Feature","geometry":{"type":"Point","coordinates":[7.3518327,48.0747027]},"properties":{"historic":"monument","name":"Stèle Préfet Erignac","source":"cadastre-dgi-fr source : Direction Générale des Impôts - Cadastre. Mise à jour : 2015"}},
{"type":"Feature","geometry":{"type":"Point","coordinates":[7.3571103,48.0788138]},"properties":{"tourism":"hotel"}},
{"type":"Feature","geometry":{"type":"Point","coordinates":[7.2673854,48.000197]},"properties":{"natural":"rock"}},
{"type":"Feature","geometry":{"type":"Point","coordinates":[7.3514279,48.0774231]},"properties":{"height":"25","leaf_cycle":"deciduous","leaf_type":"broadleaved","name":"Marronier d'Inde","natural":"tree","species":"Aesculus hippocastanum"}},
{"type":"Feature","geometry":{"type":"Point","coordinates":[7.3514912,48.0771084]},"properties":{"height":"31","leaf_cycle":"evergreen","leaf_type":"needleleaved","name":"Séquoïa Géant","natural":"tree","species":"Sequoiadendron giganteum"}},
{"type":"Feature","geometry":{"type":"Point","coordinates":[7.3473064,48.0827224]},"properties":{"genus":"cedrus","height":"20","leaf_cycle":"evergreen","leaf_type":"needleleaved","name":"Cèdre du Liban","natural":"tree","species":"cedrus libani"}},
{"type":"Feature","geometry":{"type":"Point","coordinates":[7.3480639,48.0797596]},"properties":{"height":"20","leaf_cycle":"deciduous","leaf_type":"broadleaved","name":"Paulownia","natural":"tree"}},
{"type":"Feature","geometry":{"type":"Point","coordinates":[7.3570575,48.0773272]},"properties":{"height":"6","leaf_cycle":"deciduous","leaf_type":"broadleaved","name":"Arbre de Judée","natural":"tree","species":"Cercis siliquastrum"}},
{"type":"Feature","geometry":{"type":"Point","coordinates":[7.3540065,48.0742863]},"properties":{"height":"16","leaf_cycle":"deciduous","leaf_type":"broadleaved","natural":"tree","species":"Maclura pomifera","species:fr":"Oranger des Osages","species:wikidata":"Q1066106"}},
{"type":"Feature","geometry":{"type":"Point","coordinates":[7.3527206,48.0757519]},"properties":{"genus":"Tilia","height":"21","leaf_cycle":"deciduous","leaf_type":"broadleaved","name":"Tilleul","natural":"tree"}},
{"type":"Feature","geometry":{"type":"Point","coordinates":[7.35204,48.0729215]},"properties":{"leaf_cycle":"deciduous","leaf_type":"broadleaved","name":"Gingko","natural":"tree","species":"Gingko biloba"}},
{"type":"Feature","geometry":{"type":"Point","coordinates":[7.3524482,48.0735842]},"properties":{"leaf_cycle":"deciduous","leaf_type":"broadleaved","name":"Hêtre pleureur","natural":"tree","species":"Fagus sylvatica pendula"}},
{"type":"Feature","geometry":{"type":"Point","coordinates":[7.3526333,48.0710214]},"properties":{"genus":"Fagus","height":"20","leaf_cycle":"deciduous","leaf_type":"broadleaved","name":"Hêtre tricolore","natural":"tree"}},
{"type":"Feature","geometry":{"type":"Point","coordinates":[7.3517866,48.0730925]},"properties":{"height":"30","leaf_cycle":"deciduous","leaf_type":"broadleaved","name":"Platane Méquillet","natural":"tree","species":"platanus"}},
{"type":"Feature","geometry":{"type":"Point","coordinates":[7.3568174,48.0826803]},"properties":{"height":"25","leaf_cycle":"deciduous","leaf_type":"broadleaved","name":"Platane","natural":"tree","species":"platanus"}},
{"type":"Feature","geometry":{"type":"Point","coordinates":[7.3545951,48.0729878]},"properties":{"height":"16","leaf_cycle":"deciduous","leaf_type":"broadleaved","name":"Paulownia impérial","natural":"tree","species":"paulownia"}},
{"type":"Feature","geometry":{"type":"Point","coordinates":[7.2704699,48.0397277]},"properties":{"height":"24.6","leaf_cycle":"deciduous","leaf_type":"broadleaved","name":"Chêne sessile","natural":"tree","species":"Quercus petraea"}},
{"type":"Feature","geometry":{"type":"Point","coordinates":[7.2988068,48.0546837]},"properties":{"height":"22","leaf_cycle":"evergreen","leaf_type":"needleleaved","name":"Pin noir d'Autriche","natural":"tree","species":"pinus nigra"}},
{"type":"Feature","geometry":{"type":"Point","coordinates":[7.3573058,48.0739769]},"properties":{"name":"La petite Venise","name:de":"Das kleine Venedig","name:en":"Petite Venice","name:fr":"La petite Venise","tourism":"attraction","wheelchair":"yes","wikidata":"Q3377391","wikipedia":"fr:Petite Venise de Colmar"}},
{"type":"Feature","geometry":{"type":"Point","coordinates":[7.3046419,48.0431841]},"properties":{"natural":"tree"}},
{"type":"Feature","geometry":{"type":"Point","coordinates":[7.3499235,48.071941700000007]},"properties":{"contact:email":"villarosa10@yahoo.fr","contact:housenumber":"10","contact:postcode":"68000","contact:street":"Rue Camille Schlumberger","contact:website":"https://www.gites-de-france.com/location-vacances-Colmar-City-break-Villa-Rosa-68G8110.html","internet_access":"wlan","name":"Villa Rosa ****","tourism":"guest_house"}},
{"type":"Feature","geometry":{"type":"Point","coordinates":[7.3501347,48.0720835]},"properties":{"contact:email":"villarosa10@yahoo.com","contact:housenumber":"10","contact:postcode":"68000","contact:street":"Rue Camille Schlumberger","contact:website":"https://www.gites-de-france.com/location-vacances-Colmar-City-break-Villa-Rosa-68G8110.html","internet_access":"wlan","name":"Villa Rosa","tourism":"guest_house"}},
{"type":"Feature","geometry":{"type":"Point","coordinates":[7.2918499,47.986585]},"properties":{"capacity":"5","caravan_site":"motorhome_stopover","caravan_site:type":"winery","caravans":"no","charge":"5 EUR","email":"contact@vins-walter.com","facebook":"https://www.facebook.com/p/Alsace-Bernard-Fils-Walter-100054609541868/","fee":"yes","name":"Aire Le Winzerhof - Domaine Walter","phone":"+33 389 496285","picnic_table":"yes","power_supply":"yes","tents":"no","toilets":"yes","tourism":"caravan_site","water_point":"yes","website":"https://www.visit.alsace/253001407-aire-de-camping-cars-du-winzerhof/"}},
{"type":"Feature","geometry":{"type":"Point","coordinates":[7.2912853,48.0730188]},"properties":{"addr:housenumber":"2","addr:postcode":"68920","addr:street":"Rue de la Brasserie","name":"Chez Lucien","operator":"Mme Maria Staehle","phone":"+33389270343","tourism":"hotel"}},
{"type":"Feature","geometry":{"type":"Point","coordinates":[7.3562851,48.079766]},"properties":{"natural":"tree"}},
{"type":"Feature","geometry":{"type":"Point","coordinates":[7.356176,48.0797437]},"properties":{"natural":"tree"}},
{"type":"Feature","geometry":{"type":"Point","coordinates":[7.3563703,48.0793997]},"properties":{"natural":"tree"}},
{"type":"Feature","geometry":{"type":"Point","coordinates":[7.3562996,48.0781]},"properties":{"natural":"tree"}},
{"type":"Feature","geometry":{"type":"Point","coordinates":[7.3576548,48.0776038]},"properties":{"entrance":"yes"}},
{"type":"Feature","geometry":{"type":"Point","coordinates":[7.3586705,48.0740038]},"properties":{"name":"Meuble de tourisme","tourism":"apartment"}},
{"type":"Feature","geometry":{"type":"Point","coordinates":[7.3571053,48.0823822]},"properties":{"natural":"tree"}},
{"type":"Feature","geometry":{"type":"Point","coordinates":[7.3572904,48.0827968]},"properties":{"natural":"tree"}},
{"type":"Feature","geometry":{"type":"Point","coordinates":[7.3473659,48.0723773]},"properties":{"natural":"tree"}},
{"type":"Feature","geometry":{"type":"Point","coordinates":[7.3564415,48.0781161]},"properties":{"natural":"tree"}},
{"type":"Feature","geometry":{"type":"Point","coordinates":[7.3578253,48.0747519]},"properties":{"leisure":"pitch","sport":"table_tennis"}},
{"type":"Feature","geometry":{"type":"Point","coordinates":[7.3474735,48.0724325]},"properties":{"entrance":"yes"}},
{"type":"Feature","geometry":{"type":"Point","coordinates":[7.3473815,48.072357]},"properties":{"natural":"tree"}},
{"type":"Feature","geometry":{"type":"Point","coordinates":[7.3576829,48.078057]},"properties":{"natural":"tree"}},
{"type":"Feature","geometry":{"type":"Point","coordinates":[7.3577254,48.0780191]},"properties":{"natural":"tree"}},
{"type":"Feature","geometry":{"type":"Point","coordinates":[7.3575364,48.0774023]},"properties":{"natural":"tree"}},
{"type":"Feature","geometry":{"type":"Point","coordinates":[7.3570445,48.0823957]},"properties":{"natural":"tree"}},
{"type":"Feature","geometry":{"type":"Point","coordinates":[7.3474046,48.072339]},"properties":{"natural":"tree"}},
{"type":"Feature","geometry":{"type":"Point","coordinates":[7.3563399,48.0796646]},"properties":{"natural":"tree"}},
{"type":"Feature","geometry":{"type":"Point","coordinates":[7.3562125,48.0796749]},"properties":{"natural":"tree"}},
{"type":"Feature","geometry":{"type":"Point","coordinates":[7.356299,48.0795296]},"properties":{"natural":"tree"}},
{"type":"Feature","geometry":{"type":"Point","coordinates":[7.3565942,48.0781217]},"properties":{"natural":"tree"}},
{"type":"Feature","geometry":{"type":"Point","coordinates":[7.3574594,48.0774162]},"properties":{"natural":"tree"}},
{"type":"Feature","geometry":{"type":"Point","coordinates":[7.3569901,48.0782499]},"properties":{"natural":"tree"}},
{"type":"Feature","geometry":{"type":"Point","coordinates":[7.2639741,47.9940387]},"properties":{"board_type":"hiking","hiking":"yes","information":"board","map_type":"topo","tourism":"information"}},
{"type":"Feature","geometry":{"type":"Point","coordinates":[7.2806989,48.0725929]},"properties":{"leisure":"playground"}},
{"type":"Feature","geometry":{"type":"Point","coordinates":[7.2732613,47.9920631]},"properties":{"leisure":"picnic_table"}},
{"type":"Feature","geometry":{"type":"Point","coordinates":[7.2631685,48.0726542]},"properties":{"heritage":"3","heritage:operator":"mhs","historic":"farm","mhs:inscription_date":"2002-04-05","name":"Ferme Saint-Gilles","ref:mhs":"PA68000038","source:heritage":"data.gouv.fr, Ministère de la Culture - 2016","start_date":"C14","wikidata":"Q14627863","wikipedia":"fr:Ferme Saint-Gilles"}},
{"type":"Feature","geometry":{"type":"Point","coordinates":[7.3058103,48.0430651]},"properties":{"addr:housenumber":"26","addr:street":"Grand'Rue","amenity":"restaurant","cuisine":"alsatian","indoor_seating":"yes","name":"Hôtel Auberge des Trois Châteaux","outdoor_seating":"no","stars":"2","tourism":"hotel","website":"https://www.auberge-3-chateaux.fr/"}},
{"type":"Feature","geometry":{"type":"Point","coordinates":[7.3062864,48.0424832]},"properties":{"name":"Hostellerie du Château","stars":"3","tourism":"hotel"}},
{"type":"Feature","geometry":{"type":"Point","coordinates":[7.2823651,48.0183321]},"properties":{"leisure":"sports_centre","name":"Salle polyvalente du Hatschbourg"}},
{"type":"Feature","geometry":{"type":"Point","coordinates":[7.2687199,47.9968791]},"properties":{"historic":"wayside_cross","religion":"christian"}},
{"type":"Feature","geometry":{"type":"Point","coordinates":[7.280269,47.9843189]},"properties":{"denomination":"catholic","historic":"wayside_cross","religion":"christian"}},
{"type":"Feature","geometry":{"type":"Point","coordinates":[7.289021,47.9805495]},"properties":{"denomination":"catholic","historic":"wayside_cross","religion":"christian"}},
{"type":"Feature","geometry":{"type":"Point","coordinates":[7.2899356,47.9768652]},"properties":{"denomination":"catholic","historic":"wayside_cross","religion":"christian"}},
{"type":"Feature","geometry":{"type":"Point","coordinates":[7.2688723,47.9907007]},"properties":{"denomination":"catholic","historic":"wayside_shrine","religion":"christian"}},
{"type":"Feature","geometry":{"type":"Point","coordinates":[7.2687677,47.990882]},"properties":{"denomination":"catholic","historic":"wayside_shrine","religion":"christian"}},
{"type":"Feature","geometry":{"type":"Point","coordinates":[7.2694677,47.9899235]},"properties":{"denomination":"catholic","historic":"wayside_cross","religion":"christian"}},
{"type":"Feature","geometry":{"type":"Point","coordinates":[7.2696018,47.9898014]},"properties":{"denomination":"catholic","historic":"wayside_cross","religion":"christian"}},
{"type":"Feature","geometry":{"type":"Point","coordinates":[7.2697172,47.9897386]},"properties":{"denomination":"catholic","historic":"wayside_cross","religion":"christian"}},
{"type":"Feature","geometry":{"type":"Point","coordinates":[7.2698566,47.9896668]},"properties":{"denomination":"catholic","historic":"wayside_cross","religion":"christian"}},
{"type":"Feature","geometry":{"type":"Point","coordinates":[7.2699612,47.9896093]},"properties":{"denomination":"catholic","historic":"wayside_cross","religion":"christian"}},
{"type":"Feature","geometry":{"type":"Point","coordinates":[7.2701839,47.9894693]},"properties":{"denomination":"catholic","historic":"wayside_cross","religion":"christian"}},
{"type":"Feature","geometry":{"type":"Point","coordinates":[7.2703072,47.9893993]},"properties":{"denomination":"catholic","historic":"wayside_cross","religion":"christian"}},
{"type":"Feature","geometry":{"type":"Point","coordinates":[7.2704467,47.9893113]},"properties":{"denomination":"catholic","historic":"wayside_cross","religion":"christian"}},
{"type":"Feature","geometry":{"type":"Point","coordinates":[7.2523767,47.9785503]},"properties":{"leisure":"picnic_table"}},
{"type":"Feature","geometry":{"type":"Point","coordinates":[7.2816919,48.0366072]},"properties":{"denomination":"catholic","historic":"wayside_cross","religion":"christian"}},
{"type":"Feature","geometry":{"type":"Point","coordinates":[7.2915168,48.0476592]},"properties":{"denomination":"catholic","historic":"wayside_cross","religion":"christian"}},
{"type":"Feature","geometry":{"type":"Point","coordinates":[7.3070663,48.0437567]},"properties":{"denomination":"catholic","historic":"wayside_cross","mapillary":"480151233192114","religion":"christian"}},
{"type":"Feature","geometry":{"type":"Point","coordinates":[7.3063226,48.0443706]},"properties":{"denomination":"catholic","historic":"wayside_shrine","religion":"christian"}},
{"type":"Feature","geometry":{"type":"Point","coordinates":[7.3111586,48.0483791]},"properties":{"denomination":"catholic","historic":"wayside_cross","religion":"christian"}},
{"type":"Feature","geometry":{"type":"Point","coordinates":[7.3506907,48.0818156]},"properties":{"natural":"tree"}},
{"type":"Feature","geometry":{"type":"Point","coordinates":[7.3507036,48.0817744]},"properties":{"natural":"tree"}},
{"type":"Feature","geometry":{"type":"Point","coordinates":[7.3501423,48.0817546]},"properties":{"natural":"tree"}},
{"type":"Feature","geometry":{"type":"Point","coordinates":[7.3501527,48.0816469]},"properties":{"natural":"tree"}},
{"type":"Feature","geometry":{"type":"Point","coordinates":[7.3502337,48.0818601]},"properties":{"natural":"tree"}},
{"type":"Feature","geometry":{"type":"Point","coordinates":[7.3502273,48.0818349]},"properties":{"natural":"tree"}},
{"type":"Feature","geometry":{"type":"Point","coordinates":[7.3502983,48.0821769]},"properties":{"natural":"tree"}},
{"type":"Feature","geometry":{"type":"Point","coordinates":[7.3504441,48.082147]},"properties":{"natural":"tree"}},
{"type":"Feature","geometry":{"type":"Point","coordinates":[7.3505624,48.0821239]},"properties":{"natural":"tree"}},
{"type":"Feature","geometry":{"type":"Point","coordinates":[7.350675,48.0820969]},"properties":{"natural":"tree"}},
{"type":"Feature","geometry":{"type":"Point","coordinates":[7.3507458,48.0820718]},"properties":{"natural":"tree"}},
{"type":"Feature","geometry":{"type":"Point","coordinates":[7.2827379,48.0678804]},"properties":{"natural":"tree"}},
{"type":"Feature","geometry":{"type":"Point","coordinates":[7.2839221,47.984712]},"properties":{"description":"Grand calvaire du cimetière","heritage":"3","heritage:operator":"mhs","historic":"wayside_cross","mhs:inscription_date":"2000-12-13","ref:mhs":"PA68000031","source:heritage":"Ministère de la Culture - 07/2018"}},
{"type":"Feature","geometry":{"type":"Point","coordinates":[7.3575844,48.0765786]},"properties":{"artist_name":"Auguste Bartholdi","artwork_type":"statue","mapillary":"956882408440034","material":"bronze","name":"Les grands soutiens du monde - Justice, Patriotisme, Travail","start_date":"1902","tourism":"artwork","wikipedia":"fr:Statue des grands soutiens du monde"}},
{"type":"Feature","geometry":{"type":"Point","coordinates":[7.2684766,47.9927884]},"properties":{"tourism":"picnic_site"}},
{"type":"Feature","geometry":{"type":"Point","coordinates":[7.269972,48.0601887]},"properties":{"tourism":"viewpoint"}},
{"type":"Feature","geometry":{"type":"Point","coordinates":[7.2680515,47.981335]},"properties":{"tourism":"viewpoint"}},
{"type":"Feature","geometry":{"type":"Point","coordinates":[7.2635407,47.9769181]},"properties":{"historic":"boundary_stone","name":"W59"}},
{"type":"Feature","geometry":{"type":"Point","coordinates":[7.2786663,48.0532847]},"properties":{"historic":"memorial","name":"Paul Haeffelin"}},
{"type":"Feature","geometry":{"type":"Point","coordinates":[7.2754383,48.0527101]},"properties":{"board_type":"history","information":"board","name":"Le Château du Hagueneck","tourism":"information"}},
{"type":"Feature","geometry":{"type":"Point","coordinates":[7.2775482,48.0612311]},"properties":{"historic":"boundary_stone","name":"WZ 1842"}},
{"type":"Feature","geometry":{"type":"Point","coordinates":[7.282858,48.0624989]},"properties":{"historic":"wayside_cross"}},
{"type":"Feature","geometry":{"type":"Point","coordinates":[7.2976034,48.0620028]},"properties":{"historic":"wayside_shrine","religion":"christian"}},
{"type":"Feature","geometry":{"type":"Point","coordinates":[7.354328,48.0785226]},"properties":{"contact:city":"Colmar","contact:housenumber":"43","contact:postcode":"68000","contact:street":"Rue Kléber","internet_access":"yes","name":"Chambres d'hôte Chez miss bABa","operator":"Aurélia BARRAUX","rooms":"2","smoking":"no","tourism":"guest_house"}},
{"type":"Feature","geometry":{"type":"Point","coordinates":[7.2709104,48.0689468]},"properties":{"ele":"509","name":"Ehrbergkopf","natural":"peak"}},
{"type":"Feature","geometry":{"type":"Point","coordinates":[7.3571028,48.0744057]},"properties":{"name":"bnb Lionel","tourism":"apartment"}},
{"type":"Feature","geometry":{"type":"Point","coordinates":[7.27495,48.0522885]},"properties":{"tourism":"viewpoint"}},
{"type":"Feature","geometry":{"type":"Point","coordinates":[7.2678937,48.0623008]},"properties":{"bench":"yes","covered":"no","leisure":"picnic_table","material":"wood"}},
{"type":"Feature","geometry":{"type":"Point","coordinates":[7.2706846,48.0398951]},"properties":{"covered":"no","leisure":"picnic_table"}},
{"type":"Feature","geometry":{"type":"Point","coordinates":[7.2707206,48.0399423]},"properties":{"covered":"no","leisure":"picnic_table"}},
{"type":"Feature","geometry":{"type":"Point","coordinates":[7.2707613,48.040002]},"properties":{"covered":"no","leisure":"picnic_table"}},
{"type":"Feature","geometry":{"type":"Point","coordinates":[7.3578343,48.0800523]},"properties":{"addr:housenumber":"10","addr:postcode":"68000","addr:street":"Place de la Mairie","email":"chambredumondecolmar@gmail.com","internet_access":"wlan","name":"Chambre du Monde","phone":"+33 7 58 58 21 56","tourism":"hotel"}},
{"type":"Feature","geometry":{"type":"Point","coordinates":[7.2729745,47.9916016]},"properties":{"tourism":"picnic_site"}},
{"type":"Feature","geometry":{"type":"Point","coordinates":[7.2728361,47.9917815]},"properties":{"tourism":"picnic_site"}},
{"type":"Feature","geometry":{"type":"Point","coordinates":[7.2645927,47.9941816]},"properties":{"tourism":"picnic_site"}},
{"type":"Feature","geometry":{"type":"Point","coordinates":[7.2647361,47.9942193]},"properties":{"tourism":"picnic_site"}},
{"type":"Feature","geometry":{"type":"Point","coordinates":[7.2561302,48.0438398]},"properties":{"tourism":"picnic_site"}},
{"type":"Feature","geometry":{"type":"Point","coordinates":[7.2425348,48.0360776]},"properties":{"tourism":"picnic_site"}},
{"type":"Feature","geometry":{"type":"Point","coordinates":[7.3555319,48.0785603]},"properties":{"name":"Maison des Têtes","name:de":"Kopfhaus","tourism":"attraction"}},
{"type":"Feature","geometry":{"type":"Point","coordinates":[7.3587569,48.076991]},"properties":{"amenity":"bicycle_parking","bicycle_parking":"stands","capacity":"5","covered":"no","fee":"no"}},
{"type":"Feature","geometry":{"type":"Point","coordinates":[7.2559534,48.044063]},"properties":{"tourism":"picnic_site"}},
{"type":"Feature","geometry":{"type":"Point","coordinates":[7.2609249,48.0444486]},"properties":{"name":"Trois Châteaux","tourism":"viewpoint"}},
{"type":"Feature","geometry":{"type":"Point","coordinates":[7.2667479,48.0314507]},"properties":{"ele":"677","natural":"peak"}},
{"type":"Feature","geometry":{"type":"Point","coordinates":[7.2544849,48.0362575]},"properties":{"ele":"751","natural":"peak"}},
{"type":"Feature","geometry":{"type":"Point","coordinates":[7.2447056,48.0361068]},"properties":{"ele":"764","natural":"peak"}},
{"type":"Feature","geometry":{"type":"Point","coordinates":[7.2539484,48.0423406]},"properties":{"ele":"688","natural":"peak"}},
{"type":"Feature","geometry":{"type":"Point","coordinates":[7.2584546,48.0480931]},"properties":{"ele":"688","natural":"peak"}},
{"type":"Feature","geometry":{"type":"Point","coordinates":[7.2921123,48.0625191]},"properties":{"board_type":"history","information":"board","tourism":"information"}},
{"type":"Feature","geometry":{"type":"Point","coordinates":[7.3069466,48.0468141]},"properties":{"caravan_site":"motorhome_stopover","caravan_site:type":"winery","fee":"no","name":"Antoine Stoffel","power_supply":"yes","power_supply:fee":"yes","tourism":"caravan_site","website":"https://antoinestoffel.com/"}},
{"type":"Feature","geometry":{"type":"Point","coordinates":[7.3160076,48.0221548]},"properties":{"covered":"no","leisure":"picnic_table"}},
{"type":"Feature","geometry":{"type":"Point","coordinates":[7.3539628,48.0834396]},"properties":{"access":"yes","leisure":"playground"}},
{"type":"Feature","geometry":{"type":"Point","coordinates":[7.2669089,48.0053787]},"properties":{"covered":"no","leisure":"picnic_table"}},
{"type":"Feature","geometry":{"type":"Point","coordinates":[7.2608457,48.003393]},"properties":{"hiking":"yes","information":"guidepost","operator":"Club Vosgien","tourism":"information"}},
{"type":"Feature","geometry":{"type":"Point","coordinates":[7.2616196,48.0036344]},"properties":{"information":"guidepost","tourism":"information"}},
{"type":"Feature","geometry":{"type":"Point","coordinates":[7.2671677,48.0054662]},"properties":{"natural":"rock"}},
{"type":"Feature","geometry":{"type":"Point","coordinates":[7.2603909,48.0145805]},"properties":{"natural":"tree"}},
{"type":"Feature","geometry":{"type":"Point","coordinates":[7.2594391,48.0141837]},"properties":{"natural":"tree"}},
{"type":"Feature","geometry":{"type":"Point","coordinates":[7.2533346,48.017888]},"properties":{"natural":"tree"}},
{"type":"Feature","geometry":{"type":"Point","coordinates":[7.2535264,48.0179471]},"properties":{"natural":"tree"}},
{"type":"Feature","geometry":{"type":"Point","coordinates":[7.2551886,48.0161267]},"properties":{"natural":"tree"}},
{"type":"Feature","geometry":{"type":"Point","coordinates":[7.2564758,48.0153856]},"properties":{"natural":"tree"}},
{"type":"Feature","geometry":{"type":"Point","coordinates":[7.2548157,48.0152219]},"properties":{"natural":"tree"}},
{"type":"Feature","geometry":{"type":"Point","coordinates":[7.2552147,48.0151365]},"properties":{"natural":"tree"}},
{"type":"Feature","geometry":{"type":"Point","coordinates":[7.2556085,48.0150226]},"properties":{"natural":"tree"}},
{"type":"Feature","geometry":{"type":"Point","coordinates":[7.2539537,48.0151863]},"properties":{"natural":"tree"}},
{"type":"Feature","geometry":{"type":"Point","coordinates":[7.2541984,48.0144104]},"properties":{"natural":"tree"}},
{"type":"Feature","geometry":{"type":"Point","coordinates":[7.2567631,48.0145243]},"properties":{"natural":"tree"}},
{"type":"Feature","geometry":{"type":"Point","coordinates":[7.258503,48.0155885]},"properties":{"natural":"tree"}},
{"type":"Feature","geometry":{"type":"Point","coordinates":[7.259232,48.0160868]},"properties":{"natural":"tree"}},
{"type":"Feature","geometry":{"type":"Point","coordinates":[7.2594767,48.0151294]},"properties":{"natural":"tree"}},
{"type":"Feature","geometry":{"type":"Point","coordinates":[7.2598598,48.0151365]},"properties":{"natural":"tree"}},
{"type":"Feature","geometry":{"type":"Point","coordinates":[7.2599024,48.0154105]},"properties":{"natural":"tree"}},
{"type":"Feature","geometry":{"type":"Point","coordinates":[7.2599662,48.0155778]},"properties":{"natural":"tree"}},
{"type":"Feature","geometry":{"type":"Point","coordinates":[7.2595565,48.0155102]},"properties":{"natural":"tree"}},
{"type":"Feature","geometry":{"type":"Point","coordinates":[7.259349,48.0153749]},"properties":{"natural":"tree"}},
{"type":"Feature","geometry":{"type":"Point","coordinates":[7.2601578,48.0165246]},"properties":{"natural":"tree"}},
{"type":"Feature","geometry":{"type":"Point","coordinates":[7.2584658,48.0166207]},"properties":{"natural":"tree"}},
{"type":"Feature","geometry":{"type":"Point","coordinates":[7.2578273,48.0166171]},"properties":{"natural":"tree"}},
{"type":"Feature","geometry":{"type":"Point","coordinates":[7.2576517,48.016909]},"properties":{"natural":"tree"}},
{"type":"Feature","geometry":{"type":"Point","coordinates":[7.2582795,48.0162576]},"properties":{"natural":"tree"}},
{"type":"Feature","geometry":{"type":"Point","coordinates":[7.2598492,48.0175816]},"properties":{"natural":"tree"}},
{"type":"Feature","geometry":{"type":"Point","coordinates":[7.2600992,48.0170763]},"properties":{"natural":"tree"}},
{"type":"Feature","geometry":{"type":"Point","coordinates":[7.3581279,48.0766906]},"properties":{"addr:housenumber":"11"}},
{"type":"Feature","geometry":{"type":"Point","coordinates":[7.3576957,48.0767771]},"properties":{"addr:housenumber":"30"}},
{"type":"Feature","geometry":{"type":"Point","coordinates":[7.3427261,48.0851212]},"properties":{"addr:housenumber":"2"}},
{"type":"Feature","geometry":{"type":"Point","coordinates":[7.3531366,48.0696519]},"properties":{"addr:housenumber":"4"}},
{"type":"Feature","geometry":{"type":"Point","coordinates":[7.3464254,48.0708142]},"properties":{"addr:housenumber":"10"}},
{"type":"Feature","geometry":{"type":"Point","coordinates":[7.280058,48.0807649]},"properties":{"natural":"tree"}},
{"type":"Feature","geometry":{"type":"Point","coordinates":[7.2799476,48.0806907]},"properties":{"natural":"tree"}},
{"type":"Feature","geometry":{"type":"Point","coordinates":[7.3000476,48.0108886]},"properties":{"leaf_cycle":"deciduous","leaf_type":"broadleaved","natural":"tree"}},
{"type":"Feature","geometry":{"type":"Point","coordinates":[7.3294654,48.018995]},"properties":{"leisure":"playground"}},
{"type":"Feature","geometry":{"type":"Point","coordinates":[7.3517596,48.0772179]},"properties":{"leisure":"playground"}},
{"type":"Feature","geometry":{"type":"Point","coordinates":[7.3315089,48.0673169]},"properties":{"leisure":"playground"}},
{"type":"Feature","geometry":{"type":"Point","coordinates":[7.3193118,48.0843137]},"properties":{"leisure":"playground"}},
{"type":"Feature","geometry":{"type":"Point","coordinates":[7.3484988,48.0688473]},"properties":{"leisure":"playground"}},
{"type":"Feature","geometry":{"type":"Point","coordinates":[7.3075423,48.0630053]},"properties":{"leisure":"playground"}},
{"type":"Feature","geometry":{"type":"Point","coordinates":[7.3009134,48.0420155]},"properties":{"access":"yes","leisure":"playground"}},
{"type":"Feature","geometry":{"type":"Point","coordinates":[7.2551917,48.0677065]},"properties":{"historic":"boundary_stone"}},
{"type":"Feature","geometry":{"type":"Point","coordinates":[7.2545278,48.0675067]},"properties":{"information":"board","tourism":"information"}},
{"type":"Feature","geometry":{"type":"Point","coordinates":[7.2561197,48.0674825]},"properties":{"historic":"boundary_stone","ref":"58/1580"}},
{"type":"Feature","geometry":{"type":"Point","coordinates":[7.2685182,47.9922306]},"properties":{"information":"board","name":"Table d'orientation","tourism":"information"}},
{"type":"Feature","geometry":{"type":"Point","coordinates":[7.2651829,48.0014359]},"properties":{"name":"Rocher du Coucou","natural":"rock","tourism":"attraction"}},
{"type":"Feature","geometry":{"type":"Point","coordinates":[7.2654176,48.0011793]},"properties":{"tourism":"viewpoint"}},
{"type":"Feature","geometry":{"type":"Point","coordinates":[7.265372,48.0012457]},"properties":{"historic":"boundary_stone","name":"158"}},
{"type":"Feature","geometry":{"type":"Point","coordinates":[7.2658011,47.9983427]},"properties":{"historic":"boundary_stone"}},
{"type":"Feature","geometry":{"type":"Point","coordinates":[7.2658963,47.9990714]},"properties":{"historic":"boundary_stone","name":"161"}},
{"type":"Feature","geometry":{"type":"Point","coordinates":[7.2656979,48.0000047]},"properties":{"historic":"boundary_stone","name":"160"}},
{"type":"Feature","geometry":{"type":"Point","coordinates":[7.2656804,47.9978976]},"properties":{"historic":"boundary_stone","name":"162"}},
{"type":"Feature","geometry":{"type":"Point","coordinates":[7.2657153,47.9976463]},"properties":{"historic":"boundary_stone","name":"163"}},
{"type":"Feature","geometry":{"type":"Point","coordinates":[7.2659916,47.9972281]},"properties":{"historic":"boundary_stone","name":"164"}},
{"type":"Feature","geometry":{"type":"Point","coordinates":[7.266005,47.9969984]},"properties":{"historic":"boundary_stone","name":"165"}},
{"type":"Feature","geometry":{"type":"Point","coordinates":[7.2662303,47.9963657]},"properties":{"historic":"boundary_stone","name":"166"}},
{"type":"Feature","geometry":{"type":"Point","coordinates":[7.2669733,47.9952636]},"properties":{"historic":"wayside_cross"}},
{"type":"Feature","geometry":{"type":"Point","coordinates":[7.2681105,47.9957734]},"properties":{"historic":"wayside_cross"}},
{"type":"Feature","geometry":{"type":"Point","coordinates":[7.2687154,47.9970401]},"properties":{"historic":"wayside_cross"}},
{"type":"Feature","geometry":{"type":"Point","coordinates":[7.2688361,47.9974296]},"properties":{"historic":"wayside_cross"}},
{"type":"Feature","geometry":{"type":"Point","coordinates":[7.269052,47.9977486]},"properties":{"historic":"wayside_cross"}},
{"type":"Feature","geometry":{"type":"Point","coordinates":[7.2691452,47.9981255]},"properties":{"historic":"wayside_cross"}},
{"type":"Feature","geometry":{"type":"Point","coordinates":[7.2694979,47.9986249]},"properties":{"historic":"wayside_cross"}},
{"type":"Feature","geometry":{"type":"Point","coordinates":[7.2700243,47.9991678]},"properties":{"historic":"wayside_cross"}},
{"type":"Feature","geometry":{"type":"Point","coordinates":[7.2704896,47.9996605]},"properties":{"historic":"wayside_cross"}},
{"type":"Feature","geometry":{"type":"Point","coordinates":[7.2707592,48.0000733]},"properties":{"historic":"wayside_cross"}},
{"type":"Feature","geometry":{"type":"Point","coordinates":[7.2709979,48.0005651]},"properties":{"historic":"wayside_cross"}},
{"type":"Feature","geometry":{"type":"Point","coordinates":[7.2713392,48.0007701]},"properties":{"historic":"wayside_cross"}},
{"type":"Feature","geometry":{"type":"Point","coordinates":[7.2722176,48.0011093]},"properties":{"historic":"wayside_cross"}},
{"type":"Feature","geometry":{"type":"Point","coordinates":[7.2726582,48.0020385]},"properties":{"historic":"wayside_cross"}},
{"type":"Feature","geometry":{"type":"Point","coordinates":[7.2726666,48.0852809]},"properties":{"access":"no","barrier":"gate"}},
{"type":"Feature","geometry":{"type":"Point","coordinates":[7.2723202,48.0844958]},"properties":{"natural":"tree"}},
{"type":"Feature","geometry":{"type":"Point","coordinates":[7.2720131,48.0844631]},"properties":{"leisure":"pitch","sport":"table_soccer"}},
{"type":"Feature","geometry":{"type":"Point","coordinates":[7.2729599,48.0852627]},"properties":{"natural":"tree"}},
{"type":"Feature","geometry":{"type":"Point","coordinates":[7.2736466,48.0853944]},"properties":{"natural":"tree"}},
{"type":"Feature","geometry":{"type":"Point","coordinates":[7.2737727,48.0853881]},"properties":{"natural":"tree"}},
{"type":"Feature","geometry":{"type":"Point","coordinates":[7.2739242,48.0853845]},"properties":{"natural":"tree"}},
{"type":"Feature","geometry":{"type":"Point","coordinates":[7.2740449,48.0853872]},"properties":{"natural":"tree"}},
{"type":"Feature","geometry":{"type":"Point","coordinates":[7.2741669,48.0853774]},"properties":{"natural":"tree"}},
{"type":"Feature","geometry":{"type":"Point","coordinates":[7.2735111,48.0853908]},"properties":{"natural":"tree"}},
{"type":"Feature","geometry":{"type":"Point","coordinates":[7.2733542,48.0853971]},"properties":{"natural":"tree"}},
{"type":"Feature","geometry":{"type":"Point","coordinates":[7.2732161,48.0853971]},"properties":{"natural":"tree"}},
{"type":"Feature","geometry":{"type":"Point","coordinates":[7.2731048,48.0853964]},"properties":{"natural":"tree"}},
{"type":"Feature","geometry":{"type":"Point","coordinates":[7.2729573,48.0853953]},"properties":{"natural":"tree"}},
{"type":"Feature","geometry":{"type":"Point","coordinates":[7.2728312,48.0853971]},"properties":{"natural":"tree"}},
{"type":"Feature","geometry":{"type":"Point","coordinates":[7.2726837,48.085398]},"properties":{"natural":"tree"}},
{"type":"Feature","geometry":{"type":"Point","coordinates":[7.2725657,48.0853917]},"properties":{"natural":"tree"}},
{"type":"Feature","geometry":{"type":"Point","coordinates":[7.2723752,48.0853908]},"properties":{"natural":"tree"}},
{"type":"Feature","geometry":{"type":"Point","coordinates":[7.2722451,48.0853944]},"properties":{"natural":"tree"}},
{"type":"Feature","geometry":{"type":"Point","coordinates":[7.272099,48.0853998]},"properties":{"natural":"tree"}},
{"type":"Feature","geometry":{"type":"Point","coordinates":[7.271942,48.085406]},"properties":{"natural":"tree"}},
{"type":"Feature","geometry":{"type":"Point","coordinates":[7.2718334,48.0854078]},"properties":{"natural":"tree"}},
{"type":"Feature","geometry":{"type":"Point","coordinates":[7.2717208,48.0854096]},"properties":{"natural":"tree"}},
{"type":"Feature","geometry":{"type":"Point","coordinates":[7.2715719,48.0854168]},"properties":{"natural":"tree"}},
{"type":"Feature","geometry":{"type":"Point","coordinates":[7.2714378,48.0854248]},"properties":{"natural":"tree"}},
{"type":"Feature","geometry":{"type":"Point","coordinates":[7.2711816,48.0854419]},"properties":{"natural":"tree"}},
{"type":"Feature","geometry":{"type":"Point","coordinates":[7.2710368,48.0854455]},"properties":{"natural":"tree"}},
{"type":"Feature","geometry":{"type":"Point","coordinates":[7.2709201,48.0854437]},"properties":{"natural":"tree"}},
{"type":"Feature","geometry":{"type":"Point","coordinates":[7.2707565,48.0854526]},"properties":{"natural":"tree"}},
{"type":"Feature","geometry":{"type":"Point","coordinates":[7.2706318,48.0854607]},"properties":{"natural":"tree"}},
{"type":"Feature","geometry":{"type":"Point","coordinates":[7.2719622,48.084761]},"properties":{"natural":"tree"}},
{"type":"Feature","geometry":{"type":"Point","coordinates":[7.2720212,48.0847673]},"properties":{"natural":"tree"}},
{"type":"Feature","geometry":{"type":"Point","coordinates":[7.2720762,48.0847655]},"properties":{"natural":"tree"}},
{"type":"Feature","geometry":{"type":"Point","coordinates":[7.2721378,48.0847699]},"properties":{"natural":"tree"}},
{"type":"Feature","geometry":{"type":"Point","coordinates":[7.2721687,48.0848721]},"properties":{"natural":"tree"}},
{"type":"Feature","geometry":{"type":"Point","coordinates":[7.2720882,48.0848631]},"properties":{"natural":"tree"}},
{"type":"Feature","geometry":{"type":"Point","coordinates":[7.2720399,48.0848551]},"properties":{"natural":"tree"}},
{"type":"Feature","geometry":{"type":"Point","coordinates":[7.2719876,48.084838]},"properties":{"natural":"tree"}},
{"type":"Feature","geometry":{"type":"Point","coordinates":[7.2717234,48.0852994]},"properties":{"natural":"tree"}},
{"type":"Feature","geometry":{"type":"Point","coordinates":[7.2715572,48.0853093]},"properties":{"natural":"tree"}},
{"type":"Feature","geometry":{"type":"Point","coordinates":[7.2714472,48.0853111]},"properties":{"natural":"tree"}},
{"type":"Feature","geometry":{"type":"Point","coordinates":[7.2711696,48.0853155]},"properties":{"natural":"tree"}},
{"type":"Feature","geometry":{"type":"Point","coordinates":[7.2708946,48.0853227]},"properties":{"natural":"tree"}},
{"type":"Feature","geometry":{"type":"Point","coordinates":[7.2707914,48.0852905]},"properties":{"natural":"tree"}},
{"type":"Feature","geometry":{"type":"Point","coordinates":[7.2707364,48.0853362]},"properties":{"natural":"tree"}},
{"type":"Feature","geometry":{"type":"Point","coordinates":[7.2706465,48.085329]},"properties":{"natural":"tree"}},
{"type":"Feature","geometry":{"type":"Point","coordinates":[7.2708249,48.0851274]},"properties":{"natural":"tree"}},
{"type":"Feature","geometry":{"type":"Point","coordinates":[7.2711079,48.0851749]},"properties":{"natural":"tree"}},
{"type":"Feature","geometry":{"type":"Point","coordinates":[7.2714405,48.085157]},"properties":{"natural":"tree"}},
{"type":"Feature","geometry":{"type":"Point","coordinates":[7.2713935,48.0850199]},"properties":{"natural":"tree"}},
{"type":"Feature","geometry":{"type":"Point","coordinates":[7.2718374,48.0846983]},"properties":{"natural":"tree"}},
{"type":"Feature","geometry":{"type":"Point","coordinates":[7.2713117,48.084692]},"properties":{"natural":"tree"}},
{"type":"Feature","geometry":{"type":"Point","coordinates":[7.2703756,48.0849267]},"properties":{"natural":"tree"}},
{"type":"Feature","geometry":{"type":"Point","coordinates":[7.2703287,48.0847717]},"properties":{"natural":"tree"}},
{"type":"Feature","geometry":{"type":"Point","coordinates":[7.2705822,48.0846786]},"properties":{"natural":"tree"}},
{"type":"Feature","geometry":{"type":"Point","coordinates":[7.270664,48.084348]},"properties":{"natural":"tree"}},
{"type":"Feature","geometry":{"type":"Point","coordinates":[7.2705433,48.0843238]},"properties":{"natural":"tree"}},
{"type":"Feature","geometry":{"type":"Point","coordinates":[7.2705178,48.0843847]},"properties":{"natural":"tree"}},
{"type":"Feature","geometry":{"type":"Point","coordinates":[7.2706103,48.0844017]},"properties":{"natural":"tree"}},
{"type":"Feature","geometry":{"type":"Point","coordinates":[7.2709845,48.0845809]},"properties":{"natural":"tree"}},
{"type":"Feature","geometry":{"type":"Point","coordinates":[7.2710221,48.0844788]},"properties":{"natural":"tree"}},
{"type":"Feature","geometry":{"type":"Point","coordinates":[7.2721687,48.0843023]},"properties":{"natural":"tree"}},
{"type":"Feature","geometry":{"type":"Point","coordinates":[7.2719689,48.0843551]},"properties":{"natural":"tree"}},
{"type":"Feature","geometry":{"type":"Point","coordinates":[7.2719367,48.0842638]},"properties":{"natural":"tree"}},
{"type":"Feature","geometry":{"type":"Point","coordinates":[7.2716899,48.0842055]},"properties":{"natural":"tree"}},
{"type":"Feature","geometry":{"type":"Point","coordinates":[7.271761,48.0842485]},"properties":{"natural":"tree"}},
{"type":"Feature","geometry":{"type":"Point","coordinates":[7.2720131,48.0841778]},"properties":{"natural":"tree"}},
{"type":"Feature","geometry":{"type":"Point","coordinates":[7.2718602,48.0841321]},"properties":{"natural":"tree"}},
{"type":"Feature","geometry":{"type":"Point","coordinates":[7.2716242,48.0840747]},"properties":{"natural":"tree"}},
{"type":"Feature","geometry":{"type":"Point","coordinates":[7.2713949,48.0840792]},"properties":{"natural":"tree"}},
{"type":"Feature","geometry":{"type":"Point","coordinates":[7.2714794,48.0840711]},"properties":{"natural":"tree"}},
{"type":"Feature","geometry":{"type":"Point","coordinates":[7.2716135,48.0843005]},"properties":{"natural":"tree"}},
{"type":"Feature","geometry":{"type":"Point","coordinates":[7.2715156,48.0842208]},"properties":{"natural":"tree"}},
{"type":"Feature","geometry":{"type":"Point","coordinates":[7.2713238,48.0842656]},"properties":{"natural":"tree"}},
{"type":"Feature","geometry":{"type":"Point","coordinates":[7.2711039,48.0843614]},"properties":{"natural":"tree"}},
{"type":"Feature","geometry":{"type":"Point","coordinates":[7.271069,48.0842351]},"properties":{"natural":"tree"}},
{"type":"Feature","geometry":{"type":"Point","coordinates":[7.2753645,48.0854275]},"properties":{"natural":"tree"}},
{"type":"Feature","geometry":{"type":"Point","coordinates":[7.2752465,48.0854141]},"properties":{"natural":"tree"}},
{"type":"Feature","geometry":{"type":"Point","coordinates":[7.2750883,48.0854078]},"properties":{"natural":"tree"}},
{"type":"Feature","geometry":{"type":"Point","coordinates":[7.2749756,48.0854069]},"properties":{"natural":"tree"}},
{"type":"Feature","geometry":{"type":"Point","coordinates":[7.2750252,48.0856399]},"properties":{"natural":"tree"}},
{"type":"Feature","geometry":{"type":"Point","coordinates":[7.2749113,48.0856219]},"properties":{"natural":"tree"}},
{"type":"Feature","geometry":{"type":"Point","coordinates":[7.2747745,48.08563]},"properties":{"natural":"tree"}},
{"type":"Feature","geometry":{"type":"Point","coordinates":[7.2748348,48.0853944]},"properties":{"natural":"tree"}},
{"type":"Feature","geometry":{"type":"Point","coordinates":[7.2747087,48.0853998]},"properties":{"natural":"tree"}},
{"type":"Feature","geometry":{"type":"Point","coordinates":[7.274572,48.0853944]},"properties":{"natural":"tree"}},
{"type":"Feature","geometry":{"type":"Point","coordinates":[7.274293,48.0856013]},"properties":{"natural":"tree"}},
{"type":"Feature","geometry":{"type":"Point","coordinates":[7.2741213,48.0856076]},"properties":{"natural":"tree"}},
{"type":"Feature","geometry":{"type":"Point","coordinates":[7.2740194,48.085596]},"properties":{"natural":"tree"}},
{"type":"Feature","geometry":{"type":"Point","coordinates":[7.273884,48.0855933]},"properties":{"natural":"tree"}},
{"type":"Feature","geometry":{"type":"Point","coordinates":[7.2737338,48.0855986]},"properties":{"natural":"tree"}},
{"type":"Feature","geometry":{"type":"Point","coordinates":[7.2735849,48.0855924]},"properties":{"natural":"tree"}},
{"type":"Feature","geometry":{"type":"Point","coordinates":[7.2734655,48.0855861]},"properties":{"natural":"tree"}},
{"type":"Feature","geometry":{"type":"Point","coordinates":[7.2731906,48.0855861]},"properties":{"natural":"tree"}},
{"type":"Feature","geometry":{"type":"Point","coordinates":[7.2731437,48.085587]},"properties":{"natural":"tree"}},
{"type":"Feature","geometry":{"type":"Point","coordinates":[7.2729197,48.085604]},"properties":{"natural":"tree"}},
{"type":"Feature","geometry":{"type":"Point","coordinates":[7.2726676,48.0856031]},"properties":{"natural":"tree"}},
{"type":"Feature","geometry":{"type":"Point","coordinates":[7.2723699,48.08563]},"properties":{"natural":"tree"}},
{"type":"Feature","geometry":{"type":"Point","coordinates":[7.2722653,48.08563]},"properties":{"natural":"tree"}},
{"type":"Feature","geometry":{"type":"Point","coordinates":[7.271997,48.0856479]},"properties":{"natural":"tree"}},
{"type":"Feature","geometry":{"type":"Point","coordinates":[7.2718589,48.085656]},"properties":{"natural":"tree"}},
{"type":"Feature","geometry":{"type":"Point","coordinates":[7.271698,48.0856587]},"properties":{"natural":"tree"}},
{"type":"Feature","geometry":{"type":"Point","coordinates":[7.2715719,48.0856748]},"properties":{"natural":"tree"}},
{"type":"Feature","geometry":{"type":"Point","coordinates":[7.2714646,48.0856829]},"properties":{"natural":"tree"}},
{"type":"Feature","geometry":{"type":"Point","coordinates":[7.2713506,48.0856945]},"properties":{"natural":"tree"}},
{"type":"Feature","geometry":{"type":"Point","coordinates":[7.2709295,48.0857151]},"properties":{"natural":"tree"}},
{"type":"Feature","geometry":{"type":"Point","coordinates":[7.2707847,48.0857277]},"properties":{"natural":"tree"}},
{"type":"Feature","geometry":{"type":"Point","coordinates":[7.2700109,48.0847028]},"properties":{"natural":"tree"}},
{"type":"Feature","geometry":{"type":"Point","coordinates":[7.2698902,48.0846884]},"properties":{"natural":"tree"}},
{"type":"Feature","geometry":{"type":"Point","coordinates":[7.2697681,48.084675]},"properties":{"natural":"tree"}},
{"type":"Feature","geometry":{"type":"Point","coordinates":[7.272386,48.0842458]},"properties":{"natural":"tree"}},
{"type":"Feature","geometry":{"type":"Point","coordinates":[7.2717999,48.084296]},"properties":{"natural":"tree"}},
{"type":"Feature","geometry":{"type":"Point","coordinates":[7.2714981,48.0842019]},"properties":{"natural":"tree"}},
{"type":"Feature","geometry":{"type":"Point","coordinates":[7.2709174,48.0845711]},"properties":{"natural":"tree"}},
{"type":"Feature","geometry":{"type":"Point","coordinates":[7.2757561,48.0853511]},"properties":{"direction":"backward","highway":"stop"}},
{"type":"Feature","geometry":{"type":"Point","coordinates":[7.3222066,48.0687248]},"properties":{"leisure":"playground","name":"Aire de jeux"}},
{"type":"Feature","geometry":{"type":"Point","coordinates":[7.3285316,48.0199952]},"properties":{"leisure":"playground"}},
{"type":"Feature","geometry":{"type":"Point","coordinates":[7.3579457,48.0793982]},"properties":{"information":"tactile_model","level":"0","operator":"Mairie De colmar","tourism":"information"}},
{"type":"Feature","geometry":{"type":"Point","coordinates":[7.3590604,48.0800376]},"properties":{"leaf_type":"broadleaved","natural":"tree","species:wikidata":"Q43284"}},
{"type":"Feature","geometry":{"type":"Point","coordinates":[7.3588654,48.080276]},"properties":{"natural":"tree"}},
{"type":"Feature","geometry":{"type":"Point","coordinates":[7.3586734,48.0806121]},"properties":{"leisure":"dog_park"}},
{"type":"Feature","geometry":{"type":"Point","coordinates":[7.3461875,48.0703311]},"properties":{"natural":"tree"}},
{"type":"Feature","geometry":{"type":"Point","coordinates":[7.3438581,48.0719]},"properties":{"addr:city":"Colmar","addr:housenumber":"54","addr:postcode":"68000","addr:street":"Rue du Tir","email":"contact@maison1934.com","internet_access":"wlan","internet_access:fee":"customers","name":"Maison 1934 b&b****","phone":"+33786865192","rooms":"2","tourism":"apartment","website":"https://maison1934.com/"}},
{"type":"Feature","geometry":{"type":"Point","coordinates":[7.2534351,48.0270546]},"properties":{"tourism":"viewpoint"}},
{"type":"Feature","geometry":{"type":"Point","coordinates":[7.2566456,48.0258565]},"properties":{"information":"board","name":"Un paysage en évolution","tourism":"information"}},
{"type":"Feature","geometry":{"type":"Point","coordinates":[7.2752851,48.0270908]},"properties":{"board_type":"history","information":"board","name":"L'Abbaye de Marbach, 1000 ans d'histoire","tourism":"information"}},
{"type":"Feature","geometry":{"type":"Point","coordinates":[7.2604702,48.02721]},"properties":{"tourism":"picnic_site"}},
{"type":"Feature","geometry":{"type":"Point","coordinates":[7.2544072,48.025436]},"properties":{"tourism":"picnic_site"}},
{"type":"Feature","geometry":{"type":"Point","coordinates":[7.2551971,48.0276817]},"properties":{"information":"board","name":"Sur les traces des animaux de la foret","tourism":"information"}},
{"type":"Feature","geometry":{"type":"Point","coordinates":[7.2532338,48.0262588]},"properties":{"information":"board","name":"Les trésors de la zone humide","tourism":"information"}},
{"type":"Feature","geometry":{"type":"Point","coordinates":[7.2542062,48.0254093]},"properties":{"information":"board","name":"L'arboretum de la Bumatt","tourism":"information"}},
{"type":"Feature","geometry":{"type":"Point","coordinates":[7.2707418,48.0269293]},"properties":{"information":"board","name":"De la source au robinet, le périple de l'eau","tourism":"information"}},
{"type":"Feature","geometry":{"type":"Point","coordinates":[7.2625013,48.0267744]},"properties":{"information":"board","name":"En remontant le ruisseau du Marbach","tourism":"information"}},
{"type":"Feature","geometry":{"type":"Point","coordinates":[7.2541347,48.0253526]},"properties":{"tourism":"picnic_site"}},
{"type":"Feature","geometry":{"type":"Point","coordinates":[7.2638006,48.0042835]},"properties":{"board_type":"sport","information":"board","name":"Site d'escalade Gueberschwihr","tourism":"information"}},
{"type":"Feature","geometry":{"type":"Point","coordinates":[7.3523743,48.0763465]},"properties":{"leisure":"fitness_station","name":"Physio-Parc","sport":"fitness"}},
{"type":"Feature","geometry":{"type":"Point","coordinates":[7.2779509,47.9689743]},"properties":{"leisure":"firepit"}},
{"type":"Feature","geometry":{"type":"Point","coordinates":[7.3534294,48.0717945]},"properties":{"advertising":"poster_box","animated":"no","direction":"5;185","information":"map","land_property":"public","legal_type:FR":"publicité:mobilier_urbain:information","luminous":"no","mapillary":"758051664859604","message":"commercial","message:reverse":"information","operator":"JCDecaux","operator:wikidata":"Q74877","sides":"2","support":"ground","tourism":"information","visibility":"street"}},
{"type":"Feature","geometry":{"type":"Point","coordinates":[7.3304266,48.0809119]},"properties":{"access":"customers","barrier":"gate","locked":"yes"}},
{"type":"Feature","geometry":{"type":"Point","coordinates":[7.3283312,48.0799635]},"properties":{"access":"private","barrier":"gate","locked":"yes"}},
{"type":"Feature","geometry":{"type":"Point","coordinates":[7.3309034,48.0799681]},"properties":{"entrance":"main","wheelchair":"yes"}},
{"type":"Feature","geometry":{"type":"Point","coordinates":[7.3304569,48.080904]},"properties":{"access":"permit","door":"yes","entrance":"main","wheelchair":"yes"}},
{"type":"Feature","geometry":{"type":"Point","coordinates":[7.3313118,48.0809301]},"properties":{"entrance":"main","wheelchair":"yes"}},
{"type":"Feature","geometry":{"type":"Point","coordinates":[7.2762147,48.0350168]},"properties":{"name":"Husseren Collections","tourism":"hotel"}},
{"type":"Feature","geometry":{"type":"Point","coordinates":[7.35705,48.0812242]},"properties":{"contact:city":"Colmar","contact:housenumber":"8","contact:phone":"+33 7 81 69 69 99","contact:postcode":"68000","contact:street":"Rue Golbéry","leisure":"fitness_centre","name":"Bodyhit","opening_hours":"Mo-Tu 08:00-21:00; We 08:00-20:30; Th-Fr 08:00-21:00; Sa 09:00-15:00; Su 09:00-13:00","ref:FR:SIRET":"91417487500015","website":"https://bodyhit.fr/bodyhit-club-colmar/","wheelchair":"yes"}},
{"type":"Feature","geometry":{"type":"Point","coordinates":[7.3584751,48.0777399]},"properties":{"natural":"tree"}},
{"type":"Feature","geometry":{"type":"Point","coordinates":[7.3585231,48.0777298]},"properties":{"natural":"tree"}},
{"type":"Feature","geometry":{"type":"Point","coordinates":[7.3585725,48.0777206]},"properties":{"natural":"tree"}},
{"type":"Feature","geometry":{"type":"Point","coordinates":[7.3588445,48.0776637]},"properties":{"natural":"tree"}},
{"type":"Feature","geometry":{"type":"Point","coordinates":[7.3589113,48.077643]},"properties":{"natural":"tree"}},
{"type":"Feature","geometry":{"type":"Point","coordinates":[7.3589526,48.077633]},"properties":{"natural":"tree"}},
{"type":"Feature","geometry":{"type":"Point","coordinates":[7.3590767,48.0776093]},"properties":{"natural":"tree"}},
{"type":"Feature","geometry":{"type":"Point","coordinates":[7.359156,48.077561]},"properties":{"natural":"tree"}},
{"type":"Feature","geometry":{"type":"Point","coordinates":[7.3591584,48.0774601]},"properties":{"natural":"tree"}},
{"type":"Feature","geometry":{"type":"Point","coordinates":[7.35899,48.0773144]},"properties":{"natural":"tree"}},
{"type":"Feature","geometry":{"type":"Point","coordinates":[7.3590675,48.0773821]},"properties":{"natural":"tree"}},
{"type":"Feature","geometry":{"type":"Point","coordinates":[7.3590949,48.0774055]},"properties":{"natural":"tree"}},
{"type":"Feature","geometry":{"type":"Point","coordinates":[7.3579085,48.0777216]},"properties":{"natural":"tree"}},
{"type":"Feature","geometry":{"type":"Point","coordinates":[7.3579634,48.0777763]},"properties":{"natural":"tree"}},
{"type":"Feature","geometry":{"type":"Point","coordinates":[7.3587455,48.0756777]},"properties":{"natural":"tree"}},
{"type":"Feature","geometry":{"type":"Point","coordinates":[7.3586291,48.0756066]},"properties":{"natural":"tree"}},
{"type":"Feature","geometry":{"type":"Point","coordinates":[7.3585309,48.0755555]},"properties":{"natural":"tree"}},
{"type":"Feature","geometry":{"type":"Point","coordinates":[7.358429,48.0755039]},"properties":{"natural":"tree"}},
{"type":"Feature","geometry":{"type":"Point","coordinates":[7.3582943,48.0755768]},"properties":{"natural":"tree"}},
{"type":"Feature","geometry":{"type":"Point","coordinates":[7.3583817,48.0756272]},"properties":{"natural":"tree"}},
{"type":"Feature","geometry":{"type":"Point","coordinates":[7.3584635,48.0756759]},"properties":{"natural":"tree"}},
{"type":"Feature","geometry":{"type":"Point","coordinates":[7.3585536,48.0757366]},"properties":{"natural":"tree"}},
{"type":"Feature","geometry":{"type":"Point","coordinates":[7.3586146,48.0757762]},"properties":{"natural":"tree"}},
{"type":"Feature","geometry":{"type":"Point","coordinates":[7.3582989,48.0757373]},"properties":{"natural":"tree"}},
{"type":"Feature","geometry":{"type":"Point","coordinates":[7.3583489,48.075825]},"properties":{"natural":"tree"}},
{"type":"Feature","geometry":{"type":"Point","coordinates":[7.35559,48.0775322]},"properties":{"natural":"tree"}},
{"type":"Feature","geometry":{"type":"Point","coordinates":[7.3554816,48.0774732]},"properties":{"natural":"tree"}},
{"type":"Feature","geometry":{"type":"Point","coordinates":[7.3581211,48.0776906]},"properties":{"natural":"tree"}},
{"type":"Feature","geometry":{"type":"Point","coordinates":[7.2651272,48.0508604]},"properties":{"bench":"yes","leisure":"picnic_table"}},
{"type":"Feature","geometry":{"type":"Point","coordinates":[7.291139,48.0349811]},"properties":{"bench":"yes","covered":"no","leisure":"picnic_table","seats":"6"}},
{"type":"Feature","geometry":{"type":"Point","coordinates":[7.2910522,48.0349836]},"properties":{"tourism":"picnic_site"}},
{"type":"Feature","geometry":{"type":"Point","coordinates":[7.2909703,48.0349546]},"properties":{"bench":"yes","covered":"no","leisure":"picnic_table","seats":"6"}},
{"type":"Feature","geometry":{"type":"Point","coordinates":[7.3053599,48.0429457]},"properties":{"denotation":"urban","leaf_type":"broadleaved","natural":"tree"}},
{"type":"Feature","geometry":{"type":"Point","coordinates":[7.3116509,48.0436853]},"properties":{"information":"guidepost","tourism":"information"}},
{"type":"Feature","geometry":{"type":"Point","coordinates":[7.3061004,48.042611]},"properties":{"entrance":"yes"}},
{"type":"Feature","geometry":{"type":"Point","coordinates":[7.3047406,48.0433302]},"properties":{"information":"map","tourism":"information"}},
{"type":"Feature","geometry":{"type":"Point","coordinates":[7.3593673,48.0759451]},"properties":{"natural":"tree"}},
{"type":"Feature","geometry":{"type":"Point","coordinates":[7.2849741,48.083231]},"properties":{"highway":"crossing"}},
{"type":"Feature","geometry":{"type":"Point","coordinates":[7.2871199,48.083562]},"properties":{"highway":"crossing"}},
{"type":"Feature","geometry":{"type":"Point","coordinates":[7.2790557,48.0822757]},"properties":{"highway":"crossing"}},
{"type":"Feature","geometry":{"type":"Point","coordinates":[7.2799619,48.082292700000007]},"properties":{"highway":"crossing"}},
{"type":"Feature","geometry":{"type":"Point","coordinates":[7.2830154,48.0828497]},"properties":{"highway":"crossing"}},
{"type":"Feature","geometry":{"type":"Point","coordinates":[7.2586113,48.066447]},"properties":{"backrest":"no","covered":"no","leisure":"picnic_table","material":"wood"}},
{"type":"Feature","geometry":{"type":"Point","coordinates":[7.2586492,48.0665417]},"properties":{"backrest":"no","covered":"no","leisure":"picnic_table","material":"wood"}},
{"type":"Feature","geometry":{"type":"Point","coordinates":[7.2585018,48.0664512]},"properties":{"backrest":"no","covered":"no","leisure":"picnic_table","material":"wood"}},
{"type":"Feature","geometry":{"type":"Point","coordinates":[7.2808866,48.0697645]},"properties":{"drinking_water":"no","natural":"spring"}},
{"type":"Feature","geometry":{"type":"Point","coordinates":[7.2618004,48.0647957]},"properties":{"hiking":"yes","information":"guidepost","tourism":"information"}},
{"type":"Feature","geometry":{"type":"Point","coordinates":[7.2646467,48.0730731]},"properties":{"information":"map","map_size":"region","map_type":"scheme","tourism":"information"}},
{"type":"Feature","geometry":{"type":"Point","coordinates":[7.2646447,48.073138]},"properties":{"hiking":"yes","information":"guidepost","tourism":"information"}},
{"type":"Feature","geometry":{"type":"Point","coordinates":[7.2643812,48.0729359]},"properties":{"hiking":"yes","information":"guidepost","tourism":"information"}},
{"type":"Feature","geometry":{"type":"Point","coordinates":[7.2698807,48.060292]},"properties":{"hiking":"yes","information":"guidepost","operator":"Club Vosgien","tourism":"information"}},
{"type":"Feature","geometry":{"type":"Point","coordinates":[7.261929,48.0647534]},"properties":{"hiking":"yes","information":"guidepost","tourism":"information"}},
{"type":"Feature","geometry":{"type":"Point","coordinates":[7.3578937,48.0771012]},"properties":{"highway":"street_lamp","lamp_mount":"straight_mast","lamp_type":"led","light:colour":"yellow"}},
{"type":"Feature","geometry":{"type":"Point","coordinates":[7.3578611,48.0770525]},"properties":{"amenity":"drinking_water","fountain":"bubbler"}},
{"type":"Feature","geometry":{"type":"Point","coordinates":[7.3582313,48.0769917]},"properties":{"highway":"street_lamp","lamp_mount":"straight_mast","lamp_type":"led","light:colour":"yellow"}},
{"type":"Feature","geometry":{"type":"Point","coordinates":[7.3582209,48.0769697]},"properties":{"amenity":"bench","backrest":"no"}},
{"type":"Feature","geometry":{"type":"Point","coordinates":[7.2699823,48.0649377]},"properties":{"hiking":"yes","information":"guidepost","operator":"Club Vosgien","tourism":"information"}},
{"type":"Feature","geometry":{"type":"Point","coordinates":[7.2803907,48.0689842]},"properties":{"information":"guidepost","tourism":"information"}},
{"type":"Feature","geometry":{"type":"Point","coordinates":[7.2698369,48.0635753]},"properties":{"hiking":"yes","information":"guidepost","operator":"Club Vosgien","tourism":"information"}},
{"type":"Feature","geometry":{"type":"Point","coordinates":[7.2736118,48.0660492]},"properties":{"hiking":"yes","information":"guidepost","operator":"Club Vosgien","tourism":"information"}},
{"type":"Feature","geometry":{"type":"Point","coordinates":[7.2600321,48.0670087]},"properties":{"information":"guidepost","tourism":"information"}},
{"type":"Feature","geometry":{"type":"Point","coordinates":[7.2669417,48.0621492]},"properties":{"information":"guidepost","tourism":"information"}},
{"type":"Feature","geometry":{"type":"Point","coordinates":[7.2598155,48.0655807]},"properties":{"information":"guidepost","tourism":"information"}},
{"type":"Feature","geometry":{"type":"Point","coordinates":[7.2561119,48.0675505]},"properties":{"information":"guidepost","tourism":"information"}},
{"type":"Feature","geometry":{"type":"Point","coordinates":[7.2679867,48.075476]},"properties":{"information":"guidepost","tourism":"information"}},
{"type":"Feature","geometry":{"type":"Point","coordinates":[7.2761938,48.0740569]},"properties":{"information":"guidepost","tourism":"information"}},
{"type":"Feature","geometry":{"type":"Point","coordinates":[7.262409,48.0683135]},"properties":{"information":"guidepost","tourism":"information"}},
{"type":"Feature","geometry":{"type":"Point","coordinates":[7.2677624,48.0620026]},"properties":{"hiking":"yes","information":"guidepost","operator":"Club vosgien","tourism":"information"}},
{"type":"Feature","geometry":{"type":"Point","coordinates":[7.268752,48.0622001]},"properties":{"hiking":"yes","information":"guidepost","operator":"Club Vosgien","tourism":"information"}},
{"type":"Feature","geometry":{"type":"Point","coordinates":[7.2585703,48.0661388]},"properties":{"information":"guidepost","tourism":"information"}},
{"type":"Feature","geometry":{"type":"Point","coordinates":[7.2651011,48.0648854]},"properties":{"information":"guidepost","tourism":"information"}},
{"type":"Feature","geometry":{"type":"Point","coordinates":[7.2744974,48.0743582]},"properties":{"information":"guidepost","tourism":"information"}},
{"type":"Feature","geometry":{"type":"Point","coordinates":[7.2601426,48.0669358]},"properties":{"information":"guidepost","tourism":"information"}},
{"type":"Feature","geometry":{"type":"Point","coordinates":[7.258679,48.0657462]},"properties":{"information":"guidepost","tourism":"information"}},
{"type":"Feature","geometry":{"type":"Point","coordinates":[7.2642471,48.0709484]},"properties":{"information":"guidepost","tourism":"information"}},
{"type":"Feature","geometry":{"type":"Point","coordinates":[7.3578775,48.0771379]},"properties":{"amenity":"bench","backrest":"no"}},
{"type":"Feature","geometry":{"type":"Point","coordinates":[7.3584593,48.076944]},"properties":{"amenity":"bicycle_parking","bicycle_parking":"stands","capacity":"3","covered":"no","fee":"no"}},
{"type":"Feature","geometry":{"type":"Point","coordinates":[7.3584277,48.0769713]},"properties":{"amenity":"waste_basket"}},
{"type":"Feature","geometry":{"type":"Point","coordinates":[7.3575534,48.0773931]},"properties":{"amenity":"bench","backrest":"no"}},
{"type":"Feature","geometry":{"type":"Point","coordinates":[7.3587455,48.0770534]},"properties":{"amenity":"waste_basket"}},
{"type":"Feature","geometry":{"type":"Point","coordinates":[7.3556535,48.0771431]},"properties":{"name":"Maison Voltaire","tourism":"attraction"}},
{"type":"Feature","geometry":{"type":"Point","coordinates":[7.356224,48.0781487]},"properties":{"board_type":"history","information":"board","tourism":"information"}},
{"type":"Feature","geometry":{"type":"Point","coordinates":[7.3581336,48.0758455]},"properties":{"artwork_type":"statue","name":"Manneken-Pis de Colmar","tourism":"artwork","wikidata":"Q2414167","wikimedia_commons":"Category:Manneken-Pis_de_Colmar","wikipedia":"fr:Manneken-Pis_de_Colmar"}},
{"type":"Feature","geometry":{"type":"Point","coordinates":[7.2941302,47.9991468]},"properties":{"historic":"wayside_cross"}},
{"type":"Feature","geometry":{"type":"Point","coordinates":[7.3098637,48.0419117]},"properties":{"board_type":"geology","information":"board","tourism":"information"}},
{"type":"Feature","geometry":{"type":"Point","coordinates":[7.3061056,48.0426606]},"properties":{"ref":"7","tourism":"information"}},
{"type":"Feature","geometry":{"type":"Point","coordinates":[7.3040451,48.0405036]},"properties":{"historic":"monument"}},
{"type":"Feature","geometry":{"type":"Point","coordinates":[7.3099713,48.0415638]},"properties":{"historic":"technical_monument","note":"wine press"}},
{"type":"Feature","geometry":{"type":"Point","coordinates":[7.3467872,48.0717541]},"properties":{"natural":"tree"}},
{"type":"Feature","geometry":{"type":"Point","coordinates":[7.3475876,48.0729661]},"properties":{"natural":"tree"}},
{"type":"Feature","geometry":{"type":"Point","coordinates":[7.347641,48.0730549]},"properties":{"natural":"tree"}},
{"type":"Feature","geometry":{"type":"Point","coordinates":[7.3476762,48.0731329]},"properties":{"natural":"tree"}},
{"type":"Feature","geometry":{"type":"Point","coordinates":[7.3473939,48.0729281]},"properties":{"information":"map","tourism":"information"}},
{"type":"Feature","geometry":{"type":"Point","coordinates":[7.3474254,48.0726689]},"properties":{"natural":"tree"}},
{"type":"Feature","geometry":{"type":"Point","coordinates":[7.3472336,48.0720788]},