{"type":"FeatureCollection","features":[
{"type":"Feature","geometry":{"type":"Point","coordinates":[-0.3503721,42.857275]},"properties":{"ele":"2826","name":"Le Lurien","name:oc":"Lo Lurien","natural":"peak","prominence":"574","source:name:oc":"Lo Congrès","source:prominence":"IGN map. Key col: Col d’Arrious 2252"}},
{"type":"Feature","geometry":{"type":"Point","coordinates":[-0.3459861,42.8379968]},"properties":{"ele":"2611","name":"Punta dero Cuello","name:oc":"Punta deu Còth","natural":"peak","source:name:oc":"Lo Congrès"}},
{"type":"Feature","geometry":{"type":"Point","coordinates":[-0.4184682,42.8059093]},"properties":{"ele":"1794","mountain_pass":"yes","name":"Col du Pourtalet","name:es":"Puerto de Portalet","name:fr":"Col du Pourtalet","name:oc":"Lo Portalet","natural":"saddle","source:name:oc":"Lo Congrès","wikidata":"Q2641320","wikipedia":"es:Portalet"}},
{"type":"Feature","geometry":{"type":"Point","coordinates":[-0.3067893,42.8682199]},"properties":{"ele":"2650","name":"Pic Baboukou","name:oc":"Pic de la Vath Bocau","natural":"peak","source:name:oc":"Lo Congrès"}},
{"type":"Feature","geometry":{"type":"Point","coordinates":[-0.3421334,42.848712]},"properties":{"ele":"2259","mountain_pass":"yes","name":"Col d'Arrious","name:oc":"Còth d'Arrius","natural":"saddle","source:name:oc":"Lo Congrès"}},
{"type":"Feature","geometry":{"type":"Point","coordinates":[-0.3215243,42.8396611]},"properties":{"ele":"2448","mountain_pass":"yes","name":"Col d'Arrémoulit","name:oc":"Còth d'Arremolit","natural":"saddle","source:name:oc":"Lo Congrès"}},
{"type":"Feature","geometry":{"type":"Point","coordinates":[-0.24907,42.8201161]},"properties":{"ele":"2701","name":"Port d'Azun","natural":"saddle"}},
{"type":"Feature","geometry":{"type":"Point","coordinates":[-0.2435536,42.8236117]},"properties":{"ele":"2965","name":"Pico de Cambalés","name:es":"Pico de Cambalés","name:fr":"Pic de Cambalès","natural":"peak","prominence":"297","source:prominence":"CNIG map. Key col: Cuello de la Facha 2668m","wikidata":"Q18415042"}},
{"type":"Feature","geometry":{"type":"Point","coordinates":[-0.290257,42.8389387]},"properties":{"alt_name:ca":"Baletous;Marmuré","alt_name:es":"Gran Marmuré;Pico de los Morros","alt_name:fr":"Casterrille;Balaïtous;Balétous;Bat-Laetouse;Batlaytouse;Pic des Baïletous;Badescure;Grand Pic;Pic Qui Marmure;Pic Qui Murmure;Murmuré;Mur-Muré;Montagne de La Bassa","alt_name:la":"Bat-Laetouse","alt_name:oc":"Maumuret;Costerilhon;Som de Seuba","ele":"3146","name":"Pic du Balaïtous","name:an":"Pico Moros/Balaitús","name:es":"Pico Balaitús","name:eu":"Balaitus","name:fr":"Pic du Balaïtous","name:oc":"Pic de Vath Laitós","name:pl":"Balaitus","natural":"peak","official_name":"Pico Moros / Balaitús","prominence":"851","source:name:oc":"ieo-bdtopoc","source:prominence":"3146-2295 (Port de la Peyre Saint Martin)","wikidata":"Q2298456","wikipedia":"es:Pico Balaitús"}},
{"type":"Feature","geometry":{"type":"Point","coordinates":[-0.3132716,42.8494134]},"properties":{"ele":"2974","name":"Pic Palas","name:an":"Pico Palas","name:oc":"Pic Palàs","natural":"peak","prominence":"401","source:name:oc":"Lo Congrès","source:prominence":"CNIG map. Key col: Pasos de la Barana 2573","wikidata":"Q3382327","wikipedia":"fr:Pic Palas"}},
{"type":"Feature","geometry":{"type":"Point","coordinates":[-0.3336764,42.8368948]},"properties":{"ele":"2608","mountain_pass":"yes","name":"Col d'Arriel","name:oc":"Còth d'Arriel","natural":"saddle","source:name:oc":"Lo Congrès"}},
{"type":"Feature","geometry":{"type":"Point","coordinates":[-0.3350993,42.8380917]},"properties":{"ele":"2683","name":"Petit Pic d'Arriel - Pequeño Arriel","name:es":"Pequeño Arriel","name:fr":"Petit Pic d'Arriel","name:oc":"Picòt d'Arriel - Pequeño Arriel","natural":"peak","source:name:oc":"Lo Congrès"}},
{"type":"Feature","geometry":{"type":"Point","coordinates":[-0.3409446,42.8365304]},"properties":{"ele":"2449","mountain_pass":"yes","name":"Col de Sobe","name:oc":"Còth de Sobe","natural":"saddle","source:name:oc":"Lo Congrès"}},
{"type":"Feature","geometry":{"type":"Point","coordinates":[-0.3096539,42.8660975]},"properties":{"ele":"2676","name":"Pic de la Lie","name:oc":"Pic de la Lia","natural":"peak","source:name:oc":"Lo Congrès"}},
{"type":"Feature","geometry":{"type":"Point","coordinates":[-0.4087011,42.8076685]},"properties":{"alt_name":"Punta Estremera","ele":"2116","name":"Pic du Pourtalet","name:oc":"Pic deu Portalet","natural":"peak","source:name:oc":"Lo Congrès"}},
{"type":"Feature","geometry":{"type":"Point","coordinates":[-0.2588352,42.9112831]},"properties":{"hiking":"yes","information":"map","map_size":"site","map_type":"scheme","mtb":"yes","name":"Barrage du tech","tourism":"information"}},
{"type":"Feature","geometry":{"type":"Point","coordinates":[-0.2586501,42.9113855]},"properties":{"name":"Barrage du Tech","tourism":"picnic_site"}},
{"type":"Feature","geometry":{"type":"Point","coordinates":[-0.2898718,42.83432]},"properties":{"ele":"3022","name":"Aguja Cadier","name:an":"Punda dera Breca","name:ca":"Agulla Cadier","name:eu":"Cadier Orratza","natural":"peak","official_name":"Punda dera Breca","wikidata":"Q11904357"}},
{"type":"Feature","geometry":{"type":"Point","coordinates":[-0.2915026,42.8411006]},"properties":{"ele":"2537","name":"Aiguille Lamathe","natural":"peak"}},
{"type":"Feature","geometry":{"type":"Point","coordinates":[-0.2841643,42.8376244]},"properties":{"ele":"3022","name":"Agulla d'Ussel","name:an":"Agulla d'Ussel","name:es":"Aguja D'Ussel","name:fr":"Aiguille d'Ussel","natural":"peak","official_name":"Agulla d'Ussel"}},
{"type":"Feature","geometry":{"type":"Point","coordinates":[-0.2747656,42.8283763]},"properties":{"ele":"2890","name":"Demeure Lagarat","natural":"peak"}},
{"type":"Feature","geometry":{"type":"Point","coordinates":[-0.2755381,42.8306078]},"properties":{"name":"Cuernos Del Diablo","natural":"peak"}},
{"type":"Feature","geometry":{"type":"Point","coordinates":[-0.2760935,42.8344693]},"properties":{"ele":"2931","name":"Demeure Soulé","natural":"peak"}},
{"type":"Feature","geometry":{"type":"Point","coordinates":[-0.2975106,42.8285479]},"properties":{"ele":"2992","name":"Frondella SW","natural":"peak","wikidata":"Q17584193"}},
{"type":"Feature","geometry":{"type":"Point","coordinates":[-0.2928759,42.8321527]},"properties":{"ele":"3055","name":"Frondella","natural":"peak"}},
{"type":"Feature","geometry":{"type":"Point","coordinates":[-0.3312968,42.834117]},"properties":{"ele":"2824","name":"Pico d'Arriel / Punta dero Saldiecho","name:an":"Pico d'Arriel / Punta dero Saldiecho","name:es":"Pico de Arriel","name:fr":"Pic d'Arriel","name:oc":"Pico d'Arriel","natural":"peak","prominence":"378","source:name:oc":"Lo Congrès","source:prominence":"CNIG map. Key col: Col d’Arrémoulit 2446","wikidata":"Q3382351","wikipedia":"fr:Pic d'Arriel"}},
{"type":"Feature","geometry":{"type":"Point","coordinates":[-0.2903135,42.8330662]},"properties":{"ele":"3071","name":"Punda Alta deras Frondiellas","name:an":"Punda Alta deras Frondiellas","name:es":"Pico de la Frondella","natural":"peak"}},
{"type":"Feature","geometry":{"type":"Point","coordinates":[-0.3542003,42.8318671]},"properties":{"ele":"2627","name":"Pico de Soba","name:fr":"Pic de Sobe","natural":"peak"}},
{"type":"Feature","geometry":{"type":"Point","coordinates":[-0.2755381,42.8332685]},"properties":{"ele":"2911","name":"Pico Soulano","natural":"peak"}},
{"type":"Feature","geometry":{"type":"Point","coordinates":[-0.2838056,42.9308692]},"properties":{"description":"Rocher : Repère bronze scellé - Point constaté détruit en 1986","ele":"2691.3","man_made":"survey_point","note":"Ne pas déplacer ce point, cf. - Do not move this node, see - http://wiki.openstreetmap.org/wiki/WikiProject_France/Repères_Géodésiques#Permanence_des_rep.C3.A8res","ref":"6503204 - A","source":"©IGN 2010 dans le cadre de la cartographie réglementaire","url":"http://geodesie.ign.fr/fiches/index.php?module=e&action=fichepdf&source=carte&sit_no=6503204"}},
{"type":"Feature","geometry":{"type":"Point","coordinates":[-0.2837859,42.9309037]},"properties":{"alt_name":"Grand Gabizos","ele":"2691","name":"Pic des Taillades","natural":"peak","prominence":"455","source:prominence":"IGN map. Key col: Col d’Uzious 2236m"}},
{"type":"Feature","geometry":{"type":"Point","coordinates":[-0.2993483,42.8709489]},"properties":{"ele":"2691","name":"Le Courouaou","natural":"peak","prominence":"200","source:prominence":"IGN map. Key col: Col des Alianes 2491"}},
{"type":"Feature","geometry":{"type":"Point","coordinates":[-0.3152519,42.889453]},"properties":{"ele":"2771","name":"Pic des Tourettes","natural":"peak","prominence":"302","source:prominence":"IGN map. Key col: Col de la Lie 2469m"}},
{"type":"Feature","geometry":{"type":"Point","coordinates":[-0.3626234,42.8211427]},"properties":{"ele":"2716","name":"Pic de Soques","name:an":"Pic de Soques/Punda Socas","name:oc":"Pic de Sòcas","natural":"peak","prominence":"272","source:name:oc":"Lo Congrès","source:prominence":"CNIG map. Key col: Collado de la Soba 2444m","wikidata":"Q31629693"}},
{"type":"Feature","geometry":{"type":"Point","coordinates":[-0.3097375,42.8549763]},"properties":{"ele":"2816","name":"Pic d'Artouste","name:oc":"Pic d'Artosta","natural":"peak","source:name:oc":"Lo Congrès"}},
{"type":"Feature","geometry":{"type":"Point","coordinates":[-0.2686047,42.8782027]},"properties":{"waterway":"weir"}},
{"type":"Feature","geometry":{"type":"Point","coordinates":[-0.294682,42.8379658]},"properties":{"name":"O Casterillet/Torre de Cadier","name:an":"O Casterillet/Torre de Cadier","name:es":"Torre de Cadier","name:eu":"Cadier Dorrea","name:fr":"Tour de Cadier","natural":"peak","source":"Instituto Geográfico Nacional","source:date":"201011"}},
{"type":"Feature","geometry":{"type":"Point","coordinates":[-0.2938507,42.8326557]},"properties":{"natural":"peak","source":"Instituto Geográfico Nacional","source:date":"201011"}},
{"type":"Feature","geometry":{"type":"Point","coordinates":[-0.2731379,42.8279208]},"properties":{"name":"Pico Cristal","natural":"peak","source":"Instituto Geográfico Nacional","source:date":"201011"}},
{"type":"Feature","geometry":{"type":"Point","coordinates":[-0.27052,42.8829048]},"properties":{"name":"Parc National","tourism":"information"}},
{"type":"Feature","geometry":{"type":"Point","coordinates":[-0.3253433,42.9045101]},"properties":{"ele":"2627","name":"Soum d'Arre","name:oc":"Som d'Arra","natural":"peak","source:name:oc":"Lo Congrès"}},
{"type":"Feature","geometry":{"type":"Point","coordinates":[-0.3560242,42.9238907]},"properties":{"name":"Col d'Arre","name:oc":"Còth d'Arra","natural":"saddle","source":"Bing;cadastre-dgi-fr source : Direction Générale des Impôts - Cadastre. Mise à jour : 2012","source:name:oc":"Lo Congrès"}},
{"type":"Feature","geometry":{"type":"Point","coordinates":[-0.3611105,42.9230541]},"properties":{"ele":"2513","name":"La Grande Arcizette","name:oc":"La Grana Arciseta","natural":"peak","source":"Bing ; cadastre-dgi-fr source : Direction Générale des Impôts - Cadastre. Mise à jour : 2012","source:name:oc":"Lo Congrès"}},
{"type":"Feature","geometry":{"type":"Point","coordinates":[-0.3528879,42.927573]},"properties":{"ele":"2595","name":"Pic d'Amoulat","name:oc":"Pic d'Amolat","natural":"peak","source:name:oc":"Lo Congrès"}},
{"type":"Feature","geometry":{"type":"Point","coordinates":[-0.3549955,42.9284407]},"properties":{"ele":"2437","mountain_pass":"yes","name":"Col d'Amoulat","name:oc":"Còth d'Amolat","natural":"saddle","source":"Bing;cadastre-dgi-fr source : Direction Générale des Impôts - Cadastre. Mise à jour : 2012","source:name:oc":"Lo Congrès"}},
{"type":"Feature","geometry":{"type":"Point","coordinates":[-0.3527619,42.9302301]},"properties":{"ele":"2445","mountain_pass":"yes","name":"Col du Plaa Ségouné","name:oc":"Còth deu Plan Segonèr","natural":"saddle","place":"locality","source":"Bing;cadastre-dgi-fr source : Direction Générale des Impôts - Cadastre. Mise à jour : 2012","source:name:oc":"Lo Congrès"}},
{"type":"Feature","geometry":{"type":"Point","coordinates":[-0.3542183,42.9300868]},"properties":{"ele":"2498","name":"La Pyramide","name:oc":"La Piramide","natural":"peak","source":"Bing;cadastre-dgi-fr source : Direction Générale des Impôts - Cadastre. Mise à jour : 2012","source:name:oc":"Lo Congrès"}},
{"type":"Feature","geometry":{"type":"Point","coordinates":[-0.3742395,42.9241714]},"properties":{"ele":"2390","name":"Moyenne Arcizette","name:oc":"Arciseta Miejancèra","natural":"peak","source":"Bing ; cadastre-dgi-fr source : Direction Générale des Impôts - Cadastre. Mise à jour : 2012","source:name:oc":"Lo Congrès"}},
{"type":"Feature","geometry":{"type":"Point","coordinates":[-0.3360222,42.9264889]},"properties":{"ele":"2619","name":"Arre-Sourins","name:oc":"Arra Sourins","natural":"peak","source":"Bing;cadastre-dgi-fr source : Direction Générale des Impôts - Cadastre. Mise à jour : 2012","source:name:oc":"Lo Congrès"}},
{"type":"Feature","geometry":{"type":"Point","coordinates":[-0.3490899,42.926426]},"properties":{"ele":"2534","mountain_pass":"yes","name":"Col de la Pène Blanque","name:oc":"Còth de la Pena Blanca","natural":"saddle","source":"Bing;cadastre-dgi-fr source : Direction Générale des Impôts - Cadastre. Mise à jour : 2012","source:name:oc":"Lo Congrès"}},
{"type":"Feature","geometry":{"type":"Point","coordinates":[-0.3262095,42.8944208]},"properties":{"ele":"2519","name":"Le Galbe","name:oc":"Lo Pic de Galbe","natural":"peak","source":"Bing ; cadastre-dgi-fr source : Direction Générale des Impôts - Cadastre. Mise à jour : 2012","source:name:oc":"Lo Congrès"}},
{"type":"Feature","geometry":{"type":"Point","coordinates":[-0.3170262,42.8870463]},"properties":{"ele":"2743","name":"Pic Milhas","name:oc":"Pic Milhàs","natural":"peak","source":"Bing;cadastre-dgi-fr source : Direction Générale des Impôts - Cadastre. Mise à jour : 2012","source:name:oc":"Lo Congrès"}},
{"type":"Feature","geometry":{"type":"Point","coordinates":[-0.3149634,42.8838129]},"properties":{"ele":"2677","name":"Pic Palada","name:oc":"Pic Paladà","natural":"peak","source":"cadastre-dgi-fr source : Direction Générale des Finances Publiques - Cadastre. Mise à jour : 2012;Bing"}},
{"type":"Feature","geometry":{"type":"Point","coordinates":[-0.3585794,42.8726951]},"properties":{"ele":"2603","name":"Pic des Quintétes","name:oc":"Pic d'Ormeliàs","natural":"peak","prominence":"260","source":"Bing;survey;IGN","source:name:oc":"Lo Congrès","source:prominence":"IGN map. Key col: Col de Lurien 2342m"}},
{"type":"Feature","geometry":{"type":"Point","coordinates":[-0.2683487,42.8489933]},"properties":{"ele":"2105","name":"La Pacca","natural":"wetland"}},
{"type":"Feature","geometry":{"type":"Point","coordinates":[-0.263488,42.8457274]},"properties":{"ele":"2478","name":"Picasse de Labassa","natural":"peak"}},
{"type":"Feature","geometry":{"type":"Point","coordinates":[-0.3003437,42.8397225]},"properties":{"mountain_pass":"yes","name":"Brèche des Ciseaux","natural":"saddle"}},
{"type":"Feature","geometry":{"type":"Point","coordinates":[-0.3096045,42.8640889]},"properties":{"ele":"2470","mountain_pass":"yes","name":"Col de la Lie","name:oc":"Còth de la Lia","natural":"saddle","source:name:oc":"Lo Congrès"}},
{"type":"Feature","geometry":{"type":"Point","coordinates":[-0.2815639,42.8457214]},"properties":{"ele":"2648","mountain_pass":"yes","name":"Col du Pabat","natural":"saddle"}},
{"type":"Feature","geometry":{"type":"Point","coordinates":[-0.2890898,42.839714]},"properties":{"mountain_pass":"yes","name":"Brèche Peytier-Hossard","natural":"saddle"}},
{"type":"Feature","geometry":{"type":"Point","coordinates":[-0.292629,42.8460486]},"properties":{"ele":"2631","mountain_pass":"yes","name":"Brèche Saget","natural":"saddle"}},
{"type":"Feature","geometry":{"type":"Point","coordinates":[-0.2905101,42.8399716]},"properties":{"mountain_pass":"yes","name":"Brèche des Isards","natural":"saddle"}},
{"type":"Feature","geometry":{"type":"Point","coordinates":[-0.3101756,42.8460153]},"properties":{"ele":"2615","name":"Port du Lavedan","natural":"saddle"}},
{"type":"Feature","geometry":{"type":"Point","coordinates":[-0.3158885,42.8458673]},"properties":{"name":"Piton von Martin","natural":"peak"}},
{"type":"Feature","geometry":{"type":"Point","coordinates":[-0.3364974,42.8441143]},"properties":{"ele":"2495","name":"Pic du lac d'Arrious","name:oc":"Pic deu Lac deus Arrius","natural":"peak","source:name:oc":"Lo Congrès"}},
{"type":"Feature","geometry":{"type":"Point","coordinates":[-0.3564448,42.8624399]},"properties":{"mountain_pass":"yes","name":"Col de Lurien","name:oc":"Còth de Lurien","natural":"saddle","source:name:oc":"Lo Congrès"}},
{"type":"Feature","geometry":{"type":"Point","coordinates":[-0.3511126,42.8541977]},"properties":{"ele":"2720","name":"Pic Arrious","name:oc":"Pic Arriós","natural":"peak","source:name:oc":"Lo Congrès"}},
{"type":"Feature","geometry":{"type":"Point","coordinates":[-0.2807109,42.8478709]},"properties":{"ele":"2661","name":"Pic Rouge","natural":"peak","source":"ign.fr"}},
{"type":"Feature","geometry":{"type":"Point","coordinates":[-0.2993066,42.8391936]},"properties":{"mountain_pass":"yes","name":"Col Noir","natural":"saddle"}},
{"type":"Feature","geometry":{"type":"Point","coordinates":[-0.2898991,42.817807]},"properties":{"information":"guidepost","tourism":"information"}},
{"type":"Feature","geometry":{"type":"Point","coordinates":[-0.322292,42.9293735]},"properties":{"disused":"yes","natural":"cave_entrance","resource":"iron_ore"}},
{"type":"Feature","geometry":{"type":"Point","coordinates":[-0.323442,42.9293935]},"properties":{"disused":"yes","natural":"cave_entrance","resource":"iron_ore"}},
{"type":"Feature","geometry":{"type":"Point","coordinates":[-0.2594642,42.9098288]},"properties":{"waterway":"weir"}},
{"type":"Feature","geometry":{"type":"Point","coordinates":[-0.4190978,42.8057493]},"properties":{"historic":"boundary_stone","name":"310","note":"A situer exactement..."}},
{"type":"Feature","geometry":{"type":"Point","coordinates":[-0.3403818,42.8366383]},"properties":{"historic":"boundary_stone","name":"311","note":"A situer exactement..."}},
{"type":"Feature","geometry":{"type":"Point","coordinates":[-0.3291537,42.8459665]},"properties":{"bench":"yes","check_date":"2021-07-01","leisure":"picnic_table","material":"wood"}},
{"type":"Feature","geometry":{"type":"Point","coordinates":[-0.3078885,42.9267339]},"properties":{"ele":"2482","name":"Sanctus","name:oc":"Lo Sanctus","natural":"peak","source:name:oc":"Lo Congrès"}},
{"type":"Feature","geometry":{"type":"Point","coordinates":[-0.3260766,42.9139299]},"properties":{"ele":"2353","mountain_pass":"yes","name":"Col d'Ausseilla","name:oc":"Còth d'Ausselhan","natural":"saddle","source:name:oc":"Lo Congrès"}},
{"type":"Feature","geometry":{"type":"Point","coordinates":[-0.3436561,42.9272297]},"properties":{"ele":"2549","name":"La Pène Blanque","name:oc":"La Pena Blanca","natural":"peak","source:name:oc":"Lo Congrès"}},
{"type":"Feature","geometry":{"type":"Point","coordinates":[-0.3360648,42.9289262]},"properties":{"ele":"2441","mountain_pass":"yes","name":"Col d'Anglas","name:oc":"Còth d'Anglàs","natural":"saddle","source:name:oc":"Lo Congrès"}},
{"type":"Feature","geometry":{"type":"Point","coordinates":[-0.3107558,42.9208598]},"properties":{"ele":"2236","mountain_pass":"yes","name":"Col d'Uzious","natural":"saddle"}},
{"type":"Feature","geometry":{"type":"Point","coordinates":[-0.3138832,42.9181964]},"properties":{"ele":"2323","mountain_pass":"yes","name":"Col de la Mule","name:oc":"Còth de la Mula","natural":"saddle","source:name:oc":"Lo Congrès"}},
{"type":"Feature","geometry":{"type":"Point","coordinates":[-0.3303385,42.9203413]},"properties":{"ele":"2465","mountain_pass":"yes","name":"Hourquette d'Arre","name:oc":"Horqueta d'Arra","natural":"saddle","source:name:oc":"Lo Congrès"}},
{"type":"Feature","geometry":{"type":"Point","coordinates":[-0.3252575,42.911119]},"properties":{"ele":"2374","mountain_pass":"yes","name":"Col des Pichouses","name:oc":"Còth de Las Pishosas","natural":"saddle","source:name:oc":"Lo Congrès"}},
{"type":"Feature","geometry":{"type":"Point","coordinates":[-0.3161812,42.8965546]},"properties":{"ele":"2738","name":"Pic d'Estibère","natural":"peak"}},
{"type":"Feature","geometry":{"type":"Point","coordinates":[-0.3161437,42.8957136]},"properties":{"ele":"2639","mountain_pass":"yes","name":"Col des Loups","natural":"saddle"}},
{"type":"Feature","geometry":{"type":"Point","coordinates":[-0.3153645,42.891463]},"properties":{"ele":"2759","name":"Pic Sarroa","natural":"peak"}},
{"type":"Feature","geometry":{"type":"Point","coordinates":[-0.2903041,42.9188343]},"properties":{"ele":"2075","name":"Pic de Bassia","natural":"peak"}},
{"type":"Feature","geometry":{"type":"Point","coordinates":[-0.3059696,42.8912513]},"properties":{"ele":"2548","mountain_pass":"yes","name":"Col d'Hospitalet","natural":"saddle"}},
{"type":"Feature","geometry":{"type":"Point","coordinates":[-0.3160296,42.8884588]},"properties":{"ele":"2672","mountain_pass":"yes","name":"Col de Milhas","name:oc":"Còth de Milhàs","natural":"saddle","source:name:oc":"Lo Congrès"}},
{"type":"Feature","geometry":{"type":"Point","coordinates":[-0.2854867,42.9132595]},"properties":{"name":"Source des Artigues","natural":"spring"}},
{"type":"Feature","geometry":{"type":"Point","coordinates":[-0.3118798,42.9184807]},"properties":{"ele":"2384","name":"Pène d'Arrucours","name:oc":"Pena d'Arrucós","natural":"peak","source:name:oc":"Lo Congrès"}},
{"type":"Feature","geometry":{"type":"Point","coordinates":[-0.3040476,42.927111]},"properties":{"ele":"2411","mountain_pass":"yes","name":"Col de Louesque","natural":"saddle"}},
{"type":"Feature","geometry":{"type":"Point","coordinates":[-0.3352472,42.9021046]},"properties":{"ele":"2301","mountain_pass":"yes","name":"Col d'Estibère","name:oc":"Còth de L'Estivèra","natural":"saddle","source:name:oc":"Lo Congrès"}},
{"type":"Feature","geometry":{"type":"Point","coordinates":[-0.3407404,42.9037]},"properties":{"ele":"2360","name":"Aiguille de la Brèche","name:oc":"Agulha dera Breca","natural":"peak","source:name:oc":"Lo Congrès"}},
{"type":"Feature","geometry":{"type":"Point","coordinates":[-0.3404078,42.9028669]},"properties":{"ele":"2405","name":"Pic de la Pale","name:oc":"Pic de la Pala","natural":"peak","source:name:oc":"Lo Congrès"}},
{"type":"Feature","geometry":{"type":"Point","coordinates":[-0.3433958,42.9017883]},"properties":{"ele":"2330","name":"La Hèche","name:oc":"La Haisha","natural":"peak","source:name:oc":"Lo Congrès"}},
{"type":"Feature","geometry":{"type":"Point","coordinates":[-0.3474433,42.9041116]},"properties":{"ele":"2266","name":"Pic Hournets","name:oc":"Pic Hornets","natural":"peak","source:name:oc":"Lo Congrès"}},
{"type":"Feature","geometry":{"type":"Point","coordinates":[-0.3036937,42.9033561]},"properties":{"ele":"2527","mountain_pass":"yes","name":"Col de Fanlou","natural":"saddle"}},
{"type":"Feature","geometry":{"type":"Point","coordinates":[-0.3131781,42.8977417]},"properties":{"ele":"2655","name":"Pic des Loups","natural":"peak"}},
{"type":"Feature","geometry":{"type":"Point","coordinates":[-0.3057752,42.9022981]},"properties":{"ele":"2647","name":"Hautafulhe","natural":"peak"}},
{"type":"Feature","geometry":{"type":"Point","coordinates":[-0.3029856,42.9037491]},"properties":{"ele":"2598","name":"Pic de Fanlou","natural":"peak"}},
{"type":"Feature","geometry":{"type":"Point","coordinates":[-0.2946278,42.9068454]},"properties":{"ele":"2398","name":"Grand Arroubert","natural":"peak"}},
{"type":"Feature","geometry":{"type":"Point","coordinates":[-0.3003463,42.9045507]},"properties":{"ele":"2462","name":"Pic des Mongès","natural":"peak"}},
{"type":"Feature","geometry":{"type":"Point","coordinates":[-0.2987048,42.905588]},"properties":{"ele":"2362","mountain_pass":"yes","name":"Col des Mongès","natural":"saddle"}},
{"type":"Feature","geometry":{"type":"Point","coordinates":[-0.2905775,42.8977289]},"properties":{"ele":"2302","name":"Piquette de Peyralagor","natural":"peak"}},
{"type":"Feature","geometry":{"type":"Point","coordinates":[-0.2905346,42.8952924]},"properties":{"ele":"2434","name":"Pique d'Aste","natural":"peak"}},
{"type":"Feature","geometry":{"type":"Point","coordinates":[-0.2882013,42.9074662]},"properties":{"ele":"2183","name":"Petit Arroubert","natural":"peak"}},
{"type":"Feature","geometry":{"type":"Point","coordinates":[-0.2882389,42.8947795]},"properties":{"ele":"2293","mountain_pass":"yes","name":"Breche de Peyralagor","natural":"saddle"}},
{"type":"Feature","geometry":{"type":"Point","coordinates":[-0.2997562,42.8946439]},"properties":{"ele":"2708","name":"Pic Arrouy","natural":"peak"}},
{"type":"Feature","geometry":{"type":"Point","coordinates":[-0.2976961,42.9308326]},"properties":{"ele":"2554","name":"Pic de Louesque","natural":"peak"}},
{"type":"Feature","geometry":{"type":"Point","coordinates":[-0.3544538,42.9375447]},"properties":{"ele":"2611","name":"Le Salon de Ger","name:oc":"Lo Salon de Ger","natural":"peak","source:name:oc":"Lo Congrès"}},
{"type":"Feature","geometry":{"type":"Point","coordinates":[-0.3550224,42.940655]},"properties":{"ele":"2533","name":"Turon de Ger","name:oc":"Turon de Ger","natural":"peak","source:name:oc":"Lo Congrès"}},
{"type":"Feature","geometry":{"type":"Point","coordinates":[-0.3255849,42.9235867]},"properties":{"ele":"2439","name":"Pic d'Anglas","name:oc":"Agulha d'Anglàs","natural":"peak"}},
{"type":"Feature","geometry":{"type":"Point","coordinates":[-0.2892671,42.834788]},"properties":{"mountain_pass":"yes","name":"Brecha Latour","natural":"saddle"}},
{"type":"Feature","geometry":{"type":"Point","coordinates":[-0.2859567,42.8376788]},"properties":{"ele":"3049","name":"O Casterillet/Torre de Cadier","name:es":"Torre Costerillou","name:fr":"Tour de Costérillou","natural":"peak","wikidata":"Q11952238"}},
{"type":"Feature","geometry":{"type":"Point","coordinates":[-0.260623,42.8224852]},"properties":{"ele":"2295","mountain_pass":"yes","name":"Port de la Peyre Saint-Martin","natural":"saddle","wpt_symbol":"Puzzle Cache"}},
{"type":"Feature","geometry":{"type":"Point","coordinates":[-0.3174809,42.8439333]},"properties":{"ele":"2517","mountain_pass":"yes","name":"Col du Palas","natural":"saddle"}},
{"type":"Feature","geometry":{"type":"Point","coordinates":[-0.2587148,42.9106969]},"properties":{"name":"Barrage du Tech","tourism":"picnic_site"}},
{"type":"Feature","geometry":{"type":"Point","coordinates":[-0.2592371,42.9124669]},"properties":{"check_date":"2023-07-21","hiking":"yes","information":"map","map_size":"site","map_type":"scheme","mtb":"yes","name":"Barrage du tech","tourism":"information"}},
{"type":"Feature","geometry":{"type":"Point","coordinates":[-0.2587903,42.9112173]},"properties":{"natural":"tree"}},
{"type":"Feature","geometry":{"type":"Point","coordinates":[-0.2586089,42.9113435]},"properties":{"natural":"tree"}},
{"type":"Feature","geometry":{"type":"Point","coordinates":[-0.2585686,42.9113631]},"properties":{"leisure":"picnic_table"}},
{"type":"Feature","geometry":{"type":"Point","coordinates":[-0.2588441,42.9113928]},"properties":{"natural":"tree"}},
{"type":"Feature","geometry":{"type":"Point","coordinates":[-0.2587782,42.9114128]},"properties":{"leisure":"picnic_table"}},
{"type":"Feature","geometry":{"type":"Point","coordinates":[-0.2587122,42.9114162]},"properties":{"natural":"tree"}},
{"type":"Feature","geometry":{"type":"Point","coordinates":[-0.2586643,42.9114548]},"properties":{"leisure":"picnic_table"}},
{"type":"Feature","geometry":{"type":"Point","coordinates":[-0.2586307,42.9115151]},"properties":{"natural":"tree"}},
{"type":"Feature","geometry":{"type":"Point","coordinates":[-0.3680653,42.8135994]},"properties":{"ele":"2641","name":"Punta Ferraturas","name:an":"Punta Ferraturas","name:es":"Ferraturas","natural":"peak"}},
{"type":"Feature","geometry":{"type":"Point","coordinates":[-0.3665073,42.8148602]},"properties":{"ele":"2638","name":"Pic Du Vallon D´ Estrémère","natural":"peak"}},
{"type":"Feature","geometry":{"type":"Point","coordinates":[-0.3568392,42.8261811]},"properties":{"ele":"2561","name":"Dientes de Scie","natural":"peak"}},
{"type":"Feature","geometry":{"type":"Point","coordinates":[-0.3551874,42.8279079]},"properties":{"ele":"2601","name":"Pico O Tejau","natural":"peak"}},
{"type":"Feature","geometry":{"type":"Point","coordinates":[-0.3224072,42.8368342]},"properties":{"ele":"2624","name":"Pic D´ Arrémoulit","name:oc":"Pic der Arremolit","natural":"peak","source:name:oc":"Lo Congrès"}},
{"type":"Feature","geometry":{"type":"Point","coordinates":[-0.3198707,42.8428619]},"properties":{"ele":"2589","name":"Pic Du Col de Palas","name:oc":"Pic deu Còth de Palàs","natural":"peak","source:name:oc":"Lo Congrès"}},
{"type":"Feature","geometry":{"type":"Point","coordinates":[-0.3146948,42.8468106]},"properties":{"ele":"2784","name":"Pitón Von Martin","name:oc":"Piton Von Martin","natural":"peak","source:name:oc":"Lo Congrès"}},
{"type":"Feature","geometry":{"type":"Point","coordinates":[-0.3087296,42.8438429]},"properties":{"ele":"2707","name":"Sommet de Batcrabère","natural":"peak"}},
{"type":"Feature","geometry":{"type":"Point","coordinates":[-0.3030431,42.8415119]},"properties":{"ele":"2705","name":"Peña Barana","name:an":"Peña Barana","name:fr":"Pic de la Barane","natural":"peak"}},
{"type":"Feature","geometry":{"type":"Point","coordinates":[-0.3647586,42.818881]},"properties":{"ele":"2692","name":"Dent de Soques","name:oc":"Pica de Sòcas","natural":"peak","source:name:oc":"Lo Congrès"}},
{"type":"Feature","geometry":{"type":"Point","coordinates":[-0.2593525,42.9092895]},"properties":{"access":"private","barrier":"gate"}},
{"type":"Feature","geometry":{"type":"Point","coordinates":[-0.2978195,42.8518506]},"properties":{"camp_site":"basic","description":"bivouac","name":"Bivouac","tourism":"camp_site"}},
{"type":"Feature","geometry":{"type":"Point","coordinates":[-0.2660092,42.8685478]},"properties":{"hiking":"yes","information":"guidepost","tourism":"information"}},
{"type":"Feature","geometry":{"type":"Point","coordinates":[-0.2663005,42.8742278]},"properties":{"hiking":"yes","information":"guidepost","tourism":"information"}},
{"type":"Feature","geometry":{"type":"Point","coordinates":[-0.3067612,42.841757]},"properties":{"mountain_pass":"yes","name":"Passe de la Barane","natural":"saddle"}},
{"type":"Feature","geometry":{"type":"Point","coordinates":[-0.2889933,42.858135]},"properties":{"hiking":"yes","information":"guidepost","tourism":"information"}},
{"type":"Feature","geometry":{"type":"Point","coordinates":[-0.2901468,42.8334727]},"properties":{"ele":"3062","name":"Frondella N","natural":"peak","wikidata":"Q17584192"}},
{"type":"Feature","geometry":{"type":"Point","coordinates":[-0.2802043,42.8748785]},"properties":{"ele":"2344","name":"La Pourgadou","natural":"peak"}},
{"type":"Feature","geometry":{"type":"Point","coordinates":[-0.2915691,42.8745197]},"properties":{"ele":"2586","name":"Piques de L'arriougrand","natural":"peak"}},
{"type":"Feature","geometry":{"type":"Point","coordinates":[-0.2983943,42.8727192]},"properties":{"ele":"2676","name":"Pic Cadier","natural":"peak"}},
{"type":"Feature","geometry":{"type":"Point","coordinates":[-0.3678965,42.9085046]},"properties":{"ele":"1439","hiking":"yes","information":"guidepost","name":"Cabanes du soussouéou","tourism":"information"}},
{"type":"Feature","geometry":{"type":"Point","coordinates":[-0.310001,42.8756034]},"properties":{"name":"Col d'Artouste","natural":"saddle"}},
{"type":"Feature","geometry":{"type":"Point","coordinates":[-0.3272134,42.9170914]},"properties":{"ele":"2619","name":"Géougue d'Arre","name:oc":"Gèuga d'Arra","natural":"peak","prominence":"266","source:name:oc":"Lo Congrès","source:prominence":"IGN map. Key col: Col d’Ausseilla 2353m"}},
{"type":"Feature","geometry":{"type":"Point","coordinates":[-0.270611,42.8826057]},"properties":{"information":"yes","operator":"Point d'information du Parc national des Pyrénées au Plan d’Aste","tourism":"information"}},
{"type":"Feature","geometry":{"type":"Point","coordinates":[-0.2878604,42.8169805]},"properties":{"drinking_water":"yes","drinking_water:legal":"yes","natural":"spring"}},
{"type":"Feature","geometry":{"type":"Point","coordinates":[-0.2605856,42.8224653]},"properties":{"historic":"boundary_stone","name":"borne de la peyre saint martin numeo a confirmer"}},
{"type":"Feature","geometry":{"type":"Point","coordinates":[-0.2588995,42.9064066]},"properties":{"name":"Sentier du lac du Tech","tourism":"attraction","wheelchair":"yes","wheelchair:description":"Sentier accessible a tous[En: Accessible discovery trail - see uploaded detail on Wheelmap entry]"}},
{"type":"Feature","geometry":{"type":"Point","coordinates":[-0.2673176,42.8964372]},"properties":{"board_type":"nature","information":"board","name":"Arcoeche","tourism":"information","wheelchair":"yes","wheelchair:description":"[En: Hard surface path from highway, Includes Braille and tactile information boards]"}},
{"type":"Feature","geometry":{"type":"Point","coordinates":[-0.2542198,42.9161972]},"properties":{"waterway":"weir"}},
{"type":"Feature","geometry":{"type":"Point","coordinates":[-0.3422138,42.9197915]},"properties":{"ford":"yes"}},
{"type":"Feature","geometry":{"type":"Point","coordinates":[-0.352156,42.9216151]},"properties":{"ele":"2278","name":"La Tribune","name:oc":"L'Empont","natural":"peak","source:name:oc":"Lo Congrès"}},
{"type":"Feature","geometry":{"type":"Point","coordinates":[-0.3170735,42.9291218]},"properties":{"historic":"mine","name":"Mine"}},
{"type":"Feature","geometry":{"type":"Point","coordinates":[-0.3145324,42.925618]},"properties":{"description":"fonctions 2020","natural":"spring"}},
{"type":"Feature","geometry":{"type":"Point","coordinates":[-0.3218333,42.9293826]},"properties":{"natural":"cave_entrance"}},
{"type":"Feature","geometry":{"type":"Point","coordinates":[-0.2880241,42.8554697]},"properties":{"natural":"spring"}},
{"type":"Feature","geometry":{"type":"Point","coordinates":[-0.2581849,42.8360991]},"properties":{"natural":"spring"}},
{"type":"Feature","geometry":{"type":"Point","coordinates":[-0.2629644,42.8328505]},"properties":{"natural":"spring"}},
{"type":"Feature","geometry":{"type":"Point","coordinates":[-0.2654702,42.8428089]},"properties":{"ele":"2490","name":"Col Cénac","natural":"saddle"}},
{"type":"Feature","geometry":{"type":"Point","coordinates":[-0.2953366,42.8640905]},"properties":{"natural":"spring"}},
{"type":"Feature","geometry":{"type":"Point","coordinates":[-0.2626989,42.8336721]},"properties":{"natural":"spring"}},
{"type":"Feature","geometry":{"type":"Point","coordinates":[-0.2712774,42.8366046]},"properties":{"ele":"2595","name":"Brèche de las Néous","natural":"saddle"}},
{"type":"Feature","geometry":{"type":"Point","coordinates":[-0.2681686,42.8321694]},"properties":{"natural":"spring"}},
{"type":"Feature","geometry":{"type":"Point","coordinates":[-0.295402,42.8679398]},"properties":{"natural":"spring"}},
{"type":"Feature","geometry":{"type":"Point","coordinates":[-0.2582737,42.8340686]},"properties":{"natural":"spring"}},
{"type":"Feature","geometry":{"type":"Point","coordinates":[-0.2670902,42.8398218]},"properties":{"ele":"2723","name":"Pic des Cristayets","natural":"peak"}},
{"type":"Feature","geometry":{"type":"Point","coordinates":[-0.2586646,42.8535244]},"properties":{"natural":"spring"}},
{"type":"Feature","geometry":{"type":"Point","coordinates":[-0.2752148,42.8578584]},"properties":{"ele":"2498","name":"Berdoulet","natural":"peak"}},
{"type":"Feature","geometry":{"type":"Point","coordinates":[-0.2795532,42.8550866]},"properties":{"ele":"2395","name":"Petit Balaitous","natural":"peak"}},
{"type":"Feature","geometry":{"type":"Point","coordinates":[-0.2778603,42.8490171]},"properties":{"ele":"2658","name":"Sintesnères","natural":"peak"}},
{"type":"Feature","geometry":{"type":"Point","coordinates":[-0.2931033,42.8478114]},"properties":{"ele":"2601","name":"Gendarme Hanne","natural":"peak"}},
{"type":"Feature","geometry":{"type":"Point","coordinates":[-0.292978,42.8474965]},"properties":{"ele":"2608","name":"Grand et Petit Trucs","natural":"peak"}},
{"type":"Feature","geometry":{"type":"Point","coordinates":[-0.2933569,42.8464749]},"properties":{"ele":"2673","name":"Dôme de la Garenère","natural":"peak"}},
{"type":"Feature","geometry":{"type":"Point","coordinates":[-0.2664344,42.8664912]},"properties":{"natural":"spring"}},
{"type":"Feature","geometry":{"type":"Point","coordinates":[-0.2810672,42.8472424]},"properties":{"ele":"2648","name":"Col du Pabat","natural":"saddle"}},
{"type":"Feature","geometry":{"type":"Point","coordinates":[-0.2823667,42.8734774]},"properties":{"ele":"2262","name":"Col de la Bédère","natural":"saddle"}},
{"type":"Feature","geometry":{"type":"Point","coordinates":[-0.3288985,42.8459387]},"properties":{"camp_site":"basic","name":"Aire de bivouac du refuge d'Arrémoulit","tourism":"camp_site"}},
{"type":"Feature","geometry":{"type":"Point","coordinates":[-0.3421412,42.8487296]},"properties":{"ele":"2259","hiking":"yes","information":"guidepost","name":"Col d'Arrious","tourism":"information"}},
{"type":"Feature","geometry":{"type":"Point","coordinates":[-0.3266636,42.84586]},"properties":{"hiking":"yes","information":"guidepost","tourism":"information"}},
{"type":"Feature","geometry":{"type":"Point","coordinates":[-0.2780578,42.8356822]},"properties":{"ele":"2903","name":"pointe de la Défaite","natural":"peak"}},
{"type":"Feature","geometry":{"type":"Point","coordinates":[-0.2827205,42.8376101]},"properties":{"ele":"2991","name":"pic Central","natural":"peak"}},
{"type":"Feature","geometry":{"type":"Point","coordinates":[-0.3129952,42.8793213]},"properties":{"ele":"2550","name":"La Camou","name:oc":"La Cama","natural":"peak","source:name:oc":"Lo Congrès"}},
{"type":"Feature","geometry":{"type":"Point","coordinates":[-0.2764382,42.9092518]},"properties":{"ele":"1873","name":"l'Arrouye","natural":"peak"}},
{"type":"Feature","geometry":{"type":"Point","coordinates":[-0.3428949,42.9209889]},"properties":{"natural":"cave_entrance"}},
{"type":"Feature","geometry":{"type":"Point","coordinates":[-0.3434187,42.9208066]},"properties":{"natural":"cave_entrance"}},
{"type":"Feature","geometry":{"type":"Point","coordinates":[-0.3408392,42.9210602]},"properties":{"natural":"cave_entrance"}},
{"type":"Feature","geometry":{"type":"Point","coordinates":[-0.3413573,42.921722]},"properties":{"natural":"cave_entrance"}},
{"type":"Feature","geometry":{"type":"Point","coordinates":[-0.2878733,42.816963]},"properties":{"drinking_water":"yes","natural":"spring"}},
{"type":"Feature","geometry":{"type":"Point","coordinates":[-0.3589185,42.9467397]},"properties":{"ele":"1978","name":"Aiguilles des Quintètes","name:oc":"Agulhas de las Quintetas","natural":"peak","source:name:oc":"Lo Congrès"}},
{"type":"Feature","geometry":{"type":"Point","coordinates":[-0.2948578,42.8550209]},"properties":{"name":"Source","natural":"spring"}},
{"type":"Feature","geometry":{"type":"Point","coordinates":[-0.3218742,42.8295456]},"properties":{"name":"bivouac area","tourism":"camp_site"}},
{"type":"Feature","geometry":{"type":"Point","coordinates":[-0.3198676,42.82994]},"properties":{"name":"bivouac area","tourism":"camp_site"}},
{"type":"Feature","geometry":{"type":"Point","coordinates":[-0.3149001,42.8377428]},"properties":{"name":"bivouac areas","tourism":"camp_site"}},
{"type":"Feature","geometry":{"type":"Point","coordinates":[-0.3266659,42.8452719]},"properties":{"name":"bivouac area","tourism":"camp_site"}},
{"type":"Feature","geometry":{"type":"Point","coordinates":[-0.3279708,42.8456751]},"properties":{"name":"bivouac area","tourism":"camp_site"}},
{"type":"Feature","geometry":{"type":"Point","coordinates":[-0.2671887,42.9276757]},"properties":{"ele":"2254","name":"Anquié","natural":"peak"}},
{"type":"Feature","geometry":{"type":"Point","coordinates":[-0.3022786,42.9105194]},"properties":{"ele":"2142","name":"Pique d'Arazur","natural":"peak"}},
{"type":"Feature","geometry":{"type":"Point","coordinates":[-0.3602507,42.8867025]},"properties":{"ele":"2240","name":"Pic d'Ormiélas","natural":"peak"}},
{"type":"Feature","geometry":{"type":"Point","coordinates":[-0.3522467,42.8788448]},"properties":{"ele":"2349","name":"Coste Lizo","natural":"peak"}},
{"type":"Feature","geometry":{"type":"LineString","coordinates":[[-0.3298618,42.8460884],[-0.3297302,42.8460922],[-0.3296457,42.8460398],[-0.3296216,42.8460648],[-0.329579,42.8461091],[-0.3294702,42.8460759],[-0.3294519,42.8460524],[-0.3293207,42.8460302],[-0.3292908,42.8459441],[-0.3292519,42.8459067],[-0.3292519,42.8458821],[-0.3292886,42.8458614],[-0.3292519,42.8458295],[-0.3292391,42.8458246],[-0.329209,42.8457961],[-0.3291634,42.8457853],[-0.3291459,42.8457735],[-0.3291245,42.8457518],[-0.3291097,42.845745],[-0.3290387,42.8457671],[-0.3289904,42.8457754],[-0.3289676,42.8457784],[-0.3289609,42.8457666],[-0.3289568,42.8457523],[-0.3289669,42.8457346],[-0.3289642,42.845715],[-0.3289401,42.845716],[-0.328922,42.8457258],[-0.3289086,42.8457253],[-0.3288838,42.8457071],[-0.3288281,42.8457051],[-0.3287932,42.8456697],[-0.3287604,42.8456442],[-0.3287376,42.8456275],[-0.3287094,42.8456358],[-0.3286866,42.845652],[-0.3286772,42.845657],[-0.3286631,42.8456348],[-0.3286035,42.8456245],[-0.3285532,42.8456063],[-0.3285116,42.8455837],[-0.3285116,42.845566],[-0.3284539,42.8455503],[-0.3283882,42.8454809],[-0.32835,42.8454736],[-0.3283218,42.8454652],[-0.3283051,42.8454495],[-0.3282803,42.8454195],[-0.3282622,42.8453998],[-0.3282246,42.8453929],[-0.3281482,42.8453885],[-0.328069,42.8454072],[-0.3279249,42.8454156],[-0.3278759,42.8454342],[-0.3278176,42.8454249],[-0.3277767,42.8454205],[-0.3277324,42.8454033],[-0.3276989,42.8453802],[-0.327662,42.8453698],[-0.3276137,42.8453816],[-0.3275768,42.8454047],[-0.327603,42.8454106],[-0.3276298,42.8454205],[-0.3276305,42.8454342],[-0.327611,42.8454569],[-0.3275634,42.8454834],[-0.3275178,42.8454903],[-0.3274099,42.8454898],[-0.3272966,42.8454647],[-0.3272697,42.8454377],[-0.327255,42.8454131],[-0.3272121,42.8453811],[-0.3271591,42.8453507],[-0.3269915,42.8452926],[-0.3269164,42.8452509],[-0.3268962,42.8452233],[-0.326793,42.845181],[-0.3267594,42.8451668],[-0.3267326,42.8451466],[-0.3266602,42.845126],[-0.3266119,42.8450921],[-0.3265918,42.8450842],[-0.3265516,42.8450513],[-0.3264973,42.8450355],[-0.3264268,42.8450114],[-0.3263618,42.8450104],[-0.3263048,42.8450149],[-0.3261834,42.8449954],[-0.3260574,42.8449628],[-0.325999,42.8449578],[-0.3259642,42.8449716],[-0.3259306,42.8449726],[-0.325883,42.8449618],[-0.3258663,42.8449455],[-0.3258374,42.8449224],[-0.325771,42.8448861],[-0.3256544,42.8448418],[-0.3256182,42.8448044],[-0.3255746,42.8447774],[-0.3255558,42.8447479],[-0.3255746,42.8447233],[-0.3255934,42.8447091],[-0.3255927,42.8447012],[-0.3255779,42.8446864],[-0.3255752,42.8445862],[-0.3256007,42.8445753],[-0.3255893,42.8445483],[-0.325584,42.8445335],[-0.3255907,42.8445036],[-0.3256101,42.8444927],[-0.3256812,42.8444859],[-0.325698,42.8444672],[-0.3257201,42.8444657],[-0.3258757,42.84448],[-0.3259213,42.8444741],[-0.3259581,42.8444455],[-0.3260017,42.844417],[-0.3261057,42.8443718],[-0.3261164,42.8443531],[-0.3261338,42.8443418],[-0.3261513,42.8443389],[-0.3261727,42.8443617],[-0.3262183,42.8443895],[-0.3262552,42.8443983],[-0.3262887,42.8443885],[-0.3263222,42.8443851],[-0.3263886,42.844421],[-0.3264155,42.8444318],[-0.3264557,42.8444318],[-0.3264745,42.844418],[-0.3265046,42.8444337],[-0.3265194,42.8444372],[-0.3265636,42.8444018],[-0.3266066,42.8443684],[-0.3266609,42.84436],[-0.3266736,42.8443379],[-0.3267138,42.844329],[-0.3267306,42.8443044],[-0.3267561,42.8442386],[-0.3268171,42.8442263],[-0.3268372,42.8442046],[-0.326862,42.8441968],[-0.3268734,42.8441702],[-0.3268936,42.8441476],[-0.3269076,42.8441422],[-0.326919,42.8441112],[-0.3269083,42.8441029],[-0.3268721,42.8440935],[-0.3268131,42.8440665],[-0.3268117,42.8440512],[-0.3268285,42.8440394],[-0.3268433,42.8440389],[-0.3268278,42.8440247],[-0.3268044,42.8440016],[-0.3267903,42.8439731],[-0.326793,42.8439382],[-0.3267702,42.8439234],[-0.3267413,42.8439042],[-0.3267165,42.8438664],[-0.3267219,42.8438329],[-0.3267279,42.8438128],[-0.326795,42.8437317],[-0.3268272,42.8437258],[-0.32683449999999999,42.8437263],[-0.3268446,42.8437518],[-0.3268453,42.843768],[-0.3268084,42.8437936],[-0.3268017,42.8438093],[-0.3268426,42.8438143],[-0.3268627,42.8438501],[-0.3268862,42.84386],[-0.3269043,42.8438344],[-0.3269164,42.8438093],[-0.3269425,42.8437862],[-0.3269801,42.8437651],[-0.3269807,42.8437189],[-0.3270029,42.8436854],[-0.327025,42.8436776],[-0.3270411,42.8436486],[-0.327035,42.8436314],[-0.3270196,42.8436215],[-0.3270297,42.8436068],[-0.3270176,42.843592],[-0.3269975,42.8435758],[-0.3269526,42.8435507],[-0.3269593,42.8435217],[-0.3269754,42.8435134],[-0.3270686,42.8435212],[-0.3270672,42.8434932],[-0.3270216,42.8434667],[-0.326966,42.8434603],[-0.3269472,42.8434342],[-0.3269465,42.8434072],[-0.3269713,42.843385],[-0.3270156,42.843357],[-0.3270458,42.8433324],[-0.3270545,42.8433108],[-0.3270257,42.8432897],[-0.3269928,42.8432823],[-0.3269915,42.8432651],[-0.3270196,42.8432552],[-0.3270438,42.8431815],[-0.3270806,42.8431525],[-0.3271122,42.8431215],[-0.3271376,42.8430542],[-0.3271799,42.8430124],[-0.3272087,42.8429671],[-0.3272624,42.842948],[-0.3273777,42.8429062],[-0.3274146,42.8428742],[-0.3274508,42.8428673],[-0.3275306,42.8428398],[-0.32755,42.8428265],[-0.3275574,42.8427852],[-0.3275909,42.842769],[-0.3276466,42.8427606],[-0.3276935,42.8427287],[-0.327719,42.8427026],[-0.3277653,42.8426829],[-0.3278659,42.8426082],[-0.3278887,42.842592],[-0.327964,42.84248],[-0.3280771,42.842441],[-0.3281495,42.8424037],[-0.3281938,42.8423604],[-0.3282132,42.8423201],[-0.3282501,42.8423068],[-0.3282655,42.8423152],[-0.328242,42.8423373],[-0.3282186,42.8423643],[-0.328228,42.8423899],[-0.328242,42.8424052],[-0.3282408,42.8424162],[-0.3281602,42.8424587],[-0.3281146,42.8424937],[-0.3281046,42.8425163],[-0.3281341,42.8425566],[-0.3281079,42.8425851],[-0.328116,42.8425994],[-0.3281622,42.8426112],[-0.3283138,42.8426962],[-0.3283634,42.8427119],[-0.3284989,42.8427183],[-0.3286182,42.8427424],[-0.3287362,42.8427759],[-0.3287718,42.8428005],[-0.3287671,42.8428442],[-0.3287631,42.8428747],[-0.3287738,42.8429022],[-0.3288878,42.8429671],[-0.3290172,42.842975],[-0.3290919,42.8429746],[-0.3292505,42.8429534],[-0.3292961,42.8429465],[-0.3293619,42.8429622],[-0.3294618,42.8429652],[-0.3295308,42.8429691],[-0.3297166,42.8430133],[-0.3297501,42.8430315],[-0.3298265,42.8431903],[-0.3298286,42.8432218],[-0.3298802,42.8432902],[-0.3299084,42.8433629],[-0.3299332,42.8434022],[-0.329956,42.8434583],[-0.3299801,42.843478],[-0.3300297,42.8435124],[-0.3300659,42.8435119],[-0.3301216,42.8435094],[-0.3301786,42.8435198],[-0.33019,42.8435134],[-0.3302403,42.8434947],[-0.3302852,42.8434814],[-0.3302865,42.8434937],[-0.3302939,42.8435227],[-0.3302651,42.8435733],[-0.330257,42.8436043],[-0.3302624,42.8436205],[-0.3303047,42.8436559],[-0.3302819,42.8436668],[-0.3303234,42.8437248],[-0.3303301,42.8437435],[-0.3303201,42.843768],[-0.3303268,42.8437916],[-0.3302765,42.843831],[-0.3302825,42.8439096],[-0.3304079,42.8440153],[-0.3304294,42.8440645],[-0.3304012,42.8440793],[-0.3303979,42.8440871],[-0.3303992,42.8441043],[-0.33043,42.8441383],[-0.330426,42.8441609],[-0.3304569,42.8441732],[-0.3305266,42.8442341],[-0.3305333,42.8442489],[-0.3305427,42.8442558],[-0.3305568,42.844242],[-0.3305729,42.8442159],[-0.3306226,42.8441972],[-0.3307546,42.844156],[-0.3307942,42.8441569],[-0.330817,42.8441968],[-0.3308377,42.8442685],[-0.330831,42.8443212],[-0.330772,42.8444259],[-0.3306822,42.8445242],[-0.3306131,42.8445812],[-0.3305729,42.8446098],[-0.3305253,42.8446235],[-0.3304944,42.8446506],[-0.330477,42.8446673],[-0.3304337,42.8446652],[-0.3304066,42.844681],[-0.3303972,42.8447076],[-0.3303677,42.8447273],[-0.3303362,42.8447607],[-0.3302946,42.844771],[-0.3302798,42.8447956],[-0.3302751,42.8448418],[-0.3302979,42.8448595],[-0.3303221,42.8448762],[-0.3303181,42.84492],[-0.3303382,42.8449573],[-0.3303516,42.8449986],[-0.3303268,42.8450527],[-0.3302953,42.8450793],[-0.3302959,42.8451161],[-0.3303127,42.8451688],[-0.3303073,42.8451958],[-0.3302027,42.8452676],[-0.3301994,42.8452966],[-0.3302027,42.8453354],[-0.3301779,42.8453536],[-0.3301216,42.8453816],[-0.3299996,42.8454849],[-0.3299251,42.8455444],[-0.3298446,42.845656],[-0.3298185,42.8459549],[-0.3298359,42.8460016],[-0.3298493,42.8460596],[-0.3298648,42.846069],[-0.3298618,42.8460884]]},"properties":{"name":"Lacs d'Arrémoulit","natural":"water","water":"lake","wikidata":"Q3215864","wikipedia":"fr:Lacs d'Arrémoulit"}},
{"type":"Feature","geometry":{"type":"LineString","coordinates":[[-0.2713476,42.8161979],[-0.2715361,42.8162491],[-0.2721354,42.8162078],[-0.2727627,42.8162628],[-0.2733919,42.8161837],[-0.2735211,42.8158782],[-0.2737833,42.815885],[-0.2740161,42.8156841],[-0.2740782,42.8149956],[-0.273888,42.8147488],[-0.2740197,42.8144805],[-0.2737833,42.8144289],[-0.2734241,42.8145894],[-0.2732589,42.8144976],[-0.2735586,42.8142641],[-0.2731372,42.8141061],[-0.2727065,42.8143671],[-0.2723694,42.8142229],[-0.2720537,42.8142444],[-0.2717608,42.8141954],[-0.2715736,42.8138657],[-0.2709743,42.8137971],[-0.270383,42.8138607],[-0.2701217,42.8140124],[-0.2700193,42.8140718],[-0.2703283,42.8141886],[-0.2703564,42.8146831],[-0.2704703,42.8148778],[-0.2705004,42.8150407],[-0.2706329,42.8150922],[-0.2709045,42.8151976],[-0.2712457,42.8153301],[-0.2714238,42.8151227],[-0.271611,42.8151639],[-0.2717608,42.8153356],[-0.2716298,42.8157545],[-0.2713676,42.8159125],[-0.2713638,42.8159662],[-0.2713476,42.8161979]]},"properties":{"name":"Enbalse de Campo plano","natural":"water"}},
{"type":"Feature","geometry":{"type":"LineString","coordinates":[[-0.3132716,42.8494134],[-0.3124342,42.8488955],[-0.311168,42.8472204],[-0.3106217,42.8465303],[-0.3102271,42.8459037],[-0.3092652,42.8450826],[-0.3091579,42.8440885],[-0.3080344,42.842608],[-0.3068078,42.84179],[-0.3067612,42.841757],[-0.3061316,42.8413117],[-0.3050728,42.8412458],[-0.3045406,42.8412334],[-0.3040605,42.8413208],[-0.3032963,42.8415143],[-0.3028677,42.8413138],[-0.3025812,42.8409275],[-0.3019706,42.8403279],[-0.3015066,42.8399944],[-0.3008619,42.8397812],[-0.3003678,42.8398278],[-0.2994292,42.8392281],[-0.2993066,42.8391936],[-0.2985064,42.8389686],[-0.2975354,42.8387472],[-0.2960327,42.838336],[-0.2944026,42.8380822],[-0.2927604,42.8382927],[-0.2913398,42.8387308],[-0.290257,42.8389387],[-0.2887038,42.8382965],[-0.2870804,42.8378147],[-0.2864588,42.8377766],[-0.2859567,42.8376788],[-0.284735,42.8377375],[-0.2836313,42.8377395],[-0.2825956,42.8377375],[-0.282469,42.8376127],[-0.2815497,42.836862000000007],[-0.2804582,42.8364031],[-0.2783407,42.8358972],[-0.2772389,42.8356352],[-0.2767867,42.835332],[-0.2762065,42.8344919],[-0.2753846,42.8337451],[-0.275566,42.833398],[-0.2756071,42.8331401],[-0.2755481,42.8311268],[-0.2755407,42.8303232],[-0.275804,42.8294841],[-0.2755654,42.82895],[-0.2751404,42.8285833],[-0.2746095,42.8283423],[-0.2733748,42.8278787],[-0.2731893,42.8279275],[-0.2724772,42.8281291],[-0.2720792,42.8280954],[-0.2711836,42.8273534],[-0.2706442,42.8271741],[-0.2693253,42.826933],[-0.2673953,42.8259534],[-0.2668223,42.8259008],[-0.2661059,42.8256536],[-0.2658699,42.8254187],[-0.2648544,42.8250076],[-0.2642771,42.824507],[-0.2638603,42.8243048],[-0.2622797,42.8245286],[-0.2619932,42.8244143],[-0.2617193,42.8240743],[-0.2616771,42.8231193],[-0.2614833,42.8228566],[-0.2605637,42.8224353],[-0.2578442,42.8203173],[-0.2568076,42.8194704],[-0.2562935,42.8191304],[-0.2559817,42.8189882],[-0.2555126,42.8191008],[-0.2542862,42.8193152],[-0.2519096,42.8200694],[-0.2507143,42.8202245],[-0.24907,42.8201161],[-0.2483011,42.8204571],[-0.2469899,42.8205388],[-0.2454217,42.8209107],[-0.2453211,42.8211081],[-0.2457841,42.8220296],[-0.2456493,42.8225488],[-0.2452734,42.8228427],[-0.2446717,42.8230371],[-0.2435536,42.8236117]]},"properties":{"admin_level":"2","border_type":"nation","boundary":"administrative","name":"France - España","name:an":"Francia - Espanya","name:ar":"إسبانيا - فرنسا","name:ca":"França - Espanya","name:de":"Frankreich - Spanien","name:en":"France - Spain","name:es":"Francia - España","name:eu":"Frantzia - Espainia","name:fa":"اسپانیا - فرانسه","name:fr":"France - Espagne","name:gl":"Francia - España","name:lt":"Prancūzija - Ispanija","name:oc":"França - Espanha","name:pt":"França - Espanha","name:ru":"Франция - Испания","name:ur":"ہسپانیہ - فرانس","source":"Yahoo;Sigpac;personal experience"}},
{"type":"Feature","geometry":{"type":"LineString","coordinates":[[-0.3947597,42.8929016],[-0.397804,42.8933619],[-0.3994439,42.8940836],[-0.3992576,42.8946976],[-0.3983012,42.8958377],[-0.3968175,42.896525],[-0.3946445,42.8972952],[-0.3935028,42.8988987],[-0.3926326,42.8985276],[-0.3928949,42.8982394],[-0.392638,42.898172],[-0.3923061,42.897871],[-0.391763,42.89737],[-0.3906543,42.8968263],[-0.3899945,42.8966688],[-0.3893072,42.8965405],[-0.3886199,42.8964122],[-0.3879606,42.8959355],[-0.3877266,42.8959045],[-0.3873941,42.8957975],[-0.3872589,42.8958426],[-0.3867657,42.895547],[-0.3862726,42.8952513],[-0.3853359,42.8947773],[-0.3849398,42.8945419],[-0.3843639,42.8941115],[-0.3835802,42.8936242],[-0.3834387,42.8934462],[-0.3829712,42.8928583],[-0.3826075,42.8924008],[-0.3817663,42.8920697],[-0.381271,42.8916283],[-0.3811688,42.8915372],[-0.3789668,42.8903855],[-0.3776484,42.8892113],[-0.3808984,42.8884782],[-0.3813464,42.887259],[-0.3798713,42.8854395],[-0.38028,42.8833855],[-0.3784788,42.8826876],[-0.3762163,42.8829315],[-0.3742851,42.8821447],[-0.3725741,42.8808681],[-0.3729973,42.8795496],[-0.3720062,42.8790984],[-0.3689044,42.8784636],[-0.3670784,42.8774403],[-0.3654079,42.876294],[-0.3640133,42.875853],[-0.361931,42.8745384],[-0.3613801,42.8731255],[-0.3624912,42.8726818],[-0.3615362,42.8703793],[-0.3631026,42.8693115],[-0.3668321,42.8694354],[-0.3659421,42.8663621],[-0.3656109,42.8659065],[-0.3667022,42.8655141],[-0.3677716,42.8655702],[-0.3685906,42.8666073],[-0.3680724,42.868102],[-0.3681275,42.8685422],[-0.3691128,42.8692778],[-0.3704434,42.8694044],[-0.372201,42.8691496],[-0.3744061,42.8685794],[-0.3754551,42.8692239],[-0.3759324,42.8701727],[-0.3754292,42.8706882],[-0.3755968,42.870968],[-0.3774166,42.8701783],[-0.3788883,42.8696367],[-0.3792685,42.8702073],[-0.3798598,42.8705697],[-0.3804107,42.8708523],[-0.3802164,42.8711358],[-0.3796605,42.8715274],[-0.3797261,42.8716246],[-0.3800348,42.8719064],[-0.3808541,42.8722251],[-0.3813991,42.872382],[-0.3828767,42.8721017],[-0.3832425,42.872344],[-0.3841517,42.8732286],[-0.3846227,42.87363],[-0.3845336,42.8740727],[-0.3844949,42.8742894],[-0.3837443,42.8752163],[-0.3836442,42.8756862],[-0.3838632,42.8761839],[-0.3843776,42.876728],[-0.3846454,42.8769639],[-0.3856113,42.8772359],[-0.3861639,42.877033],[-0.38677,42.8769277],[-0.3876552,42.8770399],[-0.3878961,42.8777438],[-0.3870696,42.8783581],[-0.3875248,42.8792003],[-0.3880028,42.880006],[-0.3883334,42.8807975],[-0.388427,42.8812265],[-0.3868382,42.8817434],[-0.387455,42.8823837],[-0.388567,42.8821217],[-0.3895302,42.8825914],[-0.3894041,42.8830261],[-0.3894536,42.8840764],[-0.3893519,42.8845104],[-0.3889425,42.8848983],[-0.3881209,42.8853597],[-0.3866515,42.8860802],[-0.3862942,42.8862781],[-0.3861424,42.886947],[-0.3867384,42.8881811],[-0.3873713,42.888902],[-0.3883078,42.8898398],[-0.389356,42.8910713],[-0.3903641,42.8919713],[-0.3913489,42.892117],[-0.3921816,42.891889],[-0.3927579,42.8919282],[-0.3927094,42.8927114],[-0.3936192,42.892823],[-0.3947597,42.8929016]]},"properties":{"CLC:code":"321","CLC:id":"FR-242366","CLC:year":"2006","natural":"grassland","source":"Union européenne - SOeS, CORINE Land Cover, 2006."}},
{"type":"Feature","geometry":{"type":"LineString","coordinates":[[-0.3611695,42.9352308],[-0.36077,42.9340524],[-0.3613518,42.9341202],[-0.3625403,42.9344755],[-0.3630404,42.9344758],[-0.3627893,42.9341827],[-0.3620149,42.9335652],[-0.361165,42.932561],[-0.3614872,42.9321647],[-0.3616027,42.9313057],[-0.3619589,42.9308385],[-0.3624691,42.9305367],[-0.3630021,42.9302844],[-0.3632443,42.9300457],[-0.363435,42.9298032],[-0.3617823,42.9284],[-0.3619477,42.9279954],[-0.3622635,42.9280177],[-0.362705,42.928063],[-0.3629889,42.9282907],[-0.3634636,42.9286574],[-0.3639154,42.9288798],[-0.3646639,42.9290562],[-0.3657664,42.9293063],[-0.3667425,42.9300758],[-0.3674718,42.9302271],[-0.3692072,42.9299271],[-0.3704787,42.929059],[-0.3711477,42.9283994],[-0.3722532,42.9277276],[-0.3728106,42.9284213],[-0.3734403,42.9287907],[-0.3739105,42.9294855],[-0.3750825,42.9302276],[-0.3764806,42.9301921],[-0.377511,42.9316445],[-0.3759837,42.9326473],[-0.3755224,42.9321455],[-0.3739679,42.9325703],[-0.3724913,42.9327999],[-0.3714098,42.9321206],[-0.3700327,42.932606],[-0.3695416,42.9333251],[-0.3687128,42.93431],[-0.3674171,42.9346642],[-0.3657389,42.9343212],[-0.364892,42.9349212],[-0.3661015,42.9355409],[-0.3659117,42.9356941],[-0.3653481,42.9357957],[-0.364853,42.9359617],[-0.3643855,42.9361],[-0.3638684,42.9361226],[-0.3635298,42.9362289],[-0.3632106,42.9362765],[-0.3627653,42.9363174],[-0.3625247,42.9364324],[-0.362461,42.9365956],[-0.3623411,42.9367983],[-0.3619444,42.9368099],[-0.3618829,42.9367296],[-0.3613837,42.936078],[-0.3611695,42.9352308]]},"properties":{"CLC:code":"321","CLC:id":"FR-241878","CLC:year":"2006","natural":"grassland","source":"Union européenne - SOeS, CORINE Land Cover, 2006."}},
{"type":"Feature","geometry":{"type":"LineString","coordinates":[[-0.3592426,42.9127524],[-0.3593546,42.9125332],[-0.3598425,42.912348],[-0.359823,42.9122973],[-0.3594465,42.9123306],[-0.359218,42.9123798],[-0.3589923,42.9123358],[-0.3590407,42.9121858],[-0.3595388,42.9119284],[-0.360006,42.9117748],[-0.360184,42.9117467],[-0.3604487,42.9116627],[-0.3603961,42.911799],[-0.36045,42.9118896],[-0.3606494,42.9119327],[-0.3606567,42.9120378],[-0.3607318,42.9121022],[-0.3613072,42.9120557],[-0.3616238,42.9119325],[-0.3617898,42.9117399],[-0.3618142,42.9116142],[-0.361771,42.9113573],[-0.3620944,42.911265],[-0.3624302,42.9112358],[-0.3628217,42.911211],[-0.3629023,42.9111453],[-0.3629425,42.9110628],[-0.3631906,42.9110057],[-0.3634788,42.9109351],[-0.3636897,42.9108589],[-0.3639239,42.9108125],[-0.3642532,42.9108069],[-0.3645033,42.9107313],[-0.3646887,42.9105497],[-0.365062,42.9103997],[-0.3653136,42.9103056],[-0.3653715,42.9103646],[-0.3651704,42.9104798],[-0.3653378,42.9104742],[-0.3654806,42.9104844],[-0.365529,42.9103277],[-0.3655132,42.9101838],[-0.3654374,42.9101074],[-0.3655897,42.91004],[-0.3657458,42.9098691],[-0.3658361,42.9099164],[-0.3659881,42.9097696],[-0.3663064,42.9098812],[-0.3664329,42.9097591],[-0.3666549,42.9091952],[-0.3665978,42.9091493],[-0.3664405,42.9091998],[-0.3663143,42.9092121],[-0.3662024,42.9092673],[-0.3660634,42.9092772],[-0.3660264,42.9093119],[-0.3659931,42.9093933],[-0.3661306,42.9094747],[-0.3660031,42.9096643],[-0.3659229,42.9095909],[-0.3659699,42.9093727],[-0.3660089,42.9092489],[-0.365961,42.9092216],[-0.3659797,42.9091461],[-0.3661514,42.9091618],[-0.3665169,42.9091207],[-0.36662,42.9090247],[-0.3669121,42.9087759],[-0.3670114,42.9085626],[-0.3667995,42.9082439],[-0.3668384,42.9079956],[-0.3667177,42.9077278],[-0.3667274,42.907481],[-0.3665825,42.90733],[-0.3667165,42.9072211],[-0.3667219,42.9071155],[-0.3664617,42.9067602],[-0.3665247,42.906447],[-0.3661968,42.9056303],[-0.3656972,42.9054383],[-0.3652751,42.9054211],[-0.3648495,42.9056671],[-0.3643701,42.9055845],[-0.364004,42.9055872],[-0.3636117,42.9057724],[-0.3631694,42.9058038],[-0.362739,42.9056387],[-0.3622121,42.9055916],[-0.36147,42.9055952],[-0.3611901,42.9055931],[-0.3606532,42.9057611],[-0.3609105,42.9054914],[-0.3613127,42.9054823],[-0.3613153,42.9054031],[-0.3610913,42.9053988],[-0.3613548,42.9052985],[-0.3613042,42.9051776],[-0.3607493,42.9051156],[-0.3607729,42.9050039],[-0.3601142,42.9049127],[-0.3598953,42.9049825],[-0.3593751,42.9049069],[-0.3592921,42.9047473],[-0.3595309,42.9045838],[-0.3595724,42.9044931],[-0.3599579,42.9041609],[-0.359625,42.9042344],[-0.359539,42.9040905],[-0.3592277,42.9040173],[-0.3579559,42.9041767],[-0.3574717,42.9041562],[-0.3578366,42.9044538],[-0.3586169,42.9046573],[-0.3586615,42.9049917],[-0.3583381,42.9049947],[-0.3582886,42.9047567],[-0.3573858,42.9043709],[-0.3566729,42.9043833],[-0.3569142,42.9045605],[-0.356371,42.9046761],[-0.3567406,42.9049595],[-0.3572596,42.9049761],[-0.3577419,42.9051955],[-0.3576189,42.9054078],[-0.358015,42.9056576],[-0.3584746,42.9056252],[-0.3589098,42.9057663],[-0.3590528,42.9060216],[-0.3587007,42.9063795],[-0.3592638,42.9068184],[-0.3586875,42.9069563],[-0.3582424,42.9070728],[-0.3579956,42.9073281],[-0.3575639,42.9075378],[-0.3572921,42.907759],[-0.3570161,42.9077943],[-0.3569594,42.9080441],[-0.3564709,42.9080916],[-0.356315,42.9083681],[-0.3557569,42.9083826],[-0.3556984,42.9082896],[-0.355544,42.9081064],[-0.355721,42.907918],[-0.3561123,42.9076916],[-0.3564214,42.9074148],[-0.3560767,42.9072544],[-0.3564708,42.9070291],[-0.3568701,42.9067577],[-0.3565102,42.9065095],[-0.3550849,42.9063478],[-0.3543255,42.9061762],[-0.3535334,42.9054541],[-0.3543365,42.9048061],[-0.3535032,42.9040518],[-0.3524254,42.9034846],[-0.3520555,42.9024828],[-0.353702,42.9013718],[-0.3555596,42.901325],[-0.3572308,42.9007481],[-0.3572729,42.8999146],[-0.356474,42.8983888],[-0.3577328,42.8976437],[-0.3573855,42.8954795],[-0.357747,42.894975],[-0.3581118,42.8953242],[-0.3584908,42.8954557],[-0.358315,42.8957897],[-0.3585012,42.8959391],[-0.3588029,42.8960928],[-0.3592269,42.8956951],[-0.3596579,42.8959768],[-0.3600103,42.8960008],[-0.3601489,42.8962355],[-0.3603554,42.896176],[-0.3605354,42.8963615],[-0.3609349,42.8964226],[-0.3616347,42.8964513],[-0.3618798,42.8964613],[-0.3618488,42.896709799999999],[-0.3620133,42.8967297],[-0.3625264,42.8963443],[-0.3623775,42.8965485],[-0.3622072,42.8968841],[-0.3622205,42.8970473],[-0.3625161,42.8970728],[-0.3627108,42.8967815],[-0.3629303,42.8966346],[-0.3632278,42.8969631],[-0.363398,42.8967592],[-0.3635408,42.8970644],[-0.3638284,42.8972106],[-0.3637139,42.897448],[-0.3638001,42.8976275],[-0.3637907,42.8978591],[-0.3639193,42.8980908],[-0.3640664,42.8980471],[-0.3639292,42.8977205],[-0.3640594,42.8976054],[-0.3641267,42.8974067],[-0.3642183,42.8975436],[-0.3642299,42.897837],[-0.3645098,42.8979772],[-0.3639967,42.8982104],[-0.3639575,42.8983232],[-0.3642976,42.8986588],[-0.3646452,42.8989449],[-0.3653481,42.8990374],[-0.3650211,42.8992477],[-0.3648712,42.8993776],[-0.3651078,42.8994803],[-0.3653987,42.8992769],[-0.3656157,42.8992002],[-0.365779,42.8994301],[-0.3660228,42.8995225],[-0.3666069,42.8996443],[-0.3666592,42.8999272],[-0.3668167,42.900224],[-0.3671512,42.9002496],[-0.367198,42.9004108],[-0.3670019,42.9003638],[-0.3669744,42.9005134],[-0.3671126,42.9007184],[-0.3673782,42.9006332],[-0.3676963,42.9008973],[-0.3682074,42.901189],[-0.3688851,42.9011548],[-0.3689351,42.9014978],[-0.369593,42.9017674],[-0.3699004,42.9020628],[-0.3702577,42.9021744],[-0.370511,42.9020045],[-0.3705777,42.9022621],[-0.370872,42.902455],[-0.3711601,42.9023614],[-0.3714789,42.9026301],[-0.3716589,42.9027934],[-0.3719061,42.9028998],[-0.3721619,42.9029435],[-0.3723221,42.9028576],[-0.3723028,42.9029398],[-0.372342,42.9030368],[-0.3724982,42.903096],[-0.3727187,42.9031107],[-0.3728269,42.9030313],[-0.3726611,42.9029657],[-0.3726622,42.9028345],[-0.3724875,42.9025981],[-0.3726548,42.9025039],[-0.3728336,42.902782],[-0.3729223,42.9029441],[-0.3730715,42.9029781],[-0.3734192,42.9028904],[-0.373591,42.9029225],[-0.3737925,42.9030298],[-0.3736687,42.9031102],[-0.373612,42.9031698],[-0.3735059,42.9030972],[-0.3735483,42.9030195],[-0.3733962,42.9030454],[-0.3732195,42.9029918],[-0.3730783,42.9030579],[-0.373086,42.9031382],[-0.3731227,42.9032107],[-0.3732978,42.9033806],[-0.3734204,42.903497],[-0.37366,42.9037841],[-0.3738814,42.9038761],[-0.3740253,42.9041362],[-0.37424,42.9042333],[-0.3746002,42.9042757],[-0.3748043,42.9043204],[-0.3749198,42.9042638],[-0.3750471,42.9044021],[-0.3752529,42.9044645],[-0.3754349,42.9045058],[-0.3755549,42.9045587],[-0.3756748,42.9045153],[-0.3758686,42.9045825],[-0.3759729,42.9045183],[-0.3761321,42.904575],[-0.3764443,42.9045575],[-0.3764218,42.9046218],[-0.3764322,42.9047051],[-0.3765146,42.9047139],[-0.376667,42.904605],[-0.3768117,42.9046265],[-0.3774168,42.904504],[-0.3773594,42.9043882],[-0.3774401,42.9043443],[-0.3775281,42.9042965],[-0.3776209,42.9043531],[-0.3777599,42.9043773],[-0.3779818,42.9044497],[-0.3780893,42.9044474],[-0.37865,42.9046138],[-0.3785992,42.9047038],[-0.3787217,42.9047676],[-0.378808,42.9047308],[-0.3790081,42.9047677],[-0.3790214,42.9048286],[-0.3791088,42.9048716],[-0.379176,42.9049851],[-0.3793339,42.9050205],[-0.3794721,42.9051153],[-0.3797019,42.9050927],[-0.3798345,42.9050372],[-0.3799437,42.905098],[-0.3800532,42.905159],[-0.3802001,42.9051706],[-0.3804287,42.9052079],[-0.3806292,42.9051184],[-0.3807872,42.9051343],[-0.3809538,42.9050532],[-0.3811003,42.9050893],[-0.3812297,42.9050829],[-0.3813205,42.9052481],[-0.3812531,42.9053274],[-0.3813282,42.9054374],[-0.3815764,42.9055755],[-0.3816711,42.9057216],[-0.3816412,42.9057572],[-0.3816001,42.905825],[-0.3816895,42.9058974],[-0.3819798,42.9059681],[-0.3822054,42.9060342],[-0.3819537,42.9062561],[-0.3818812,42.9062816],[-0.3818383,42.9063268],[-0.3818491,42.9064584],[-0.38179,42.9064054],[-0.3816988,42.906313],[-0.3816077,42.90637],[-0.3815138,42.9064427],[-0.3811812,42.9064466],[-0.3809451,42.9063523],[-0.3807037,42.9063897],[-0.3805079,42.9064545],[-0.3804194,42.9064309],[-0.380347,42.9063681],[-0.3804087,42.9062757],[-0.3804597,42.9062737],[-0.3804248,42.9061716],[-0.380398,42.9061716],[-0.3803577,42.906093],[-0.3803631,42.9060026],[-0.3802102,42.905928],[-0.3800761,42.9059339],[-0.3800144,42.9058474],[-0.38008,42.9056761],[-0.3799876,42.9055911],[-0.3797969,42.9055792],[-0.3794646,42.9056863],[-0.3791258,42.9059413],[-0.3789174,42.9059005],[-0.3788024,42.9058586],[-0.3788867,42.9057576],[-0.378963,42.905515],[-0.3787766,42.9055172],[-0.3786934,42.9053501],[-0.3785147,42.9052958],[-0.3780711,42.9054489],[-0.3777346,42.9055289],[-0.3768311,42.9060807],[-0.3767974,42.9062731],[-0.376699,42.9062962],[-0.3766316,42.9062206],[-0.3765646,42.9062139],[-0.3763258,42.9062817],[-0.3763904,42.9063136],[-0.3764264,42.9064422],[-0.3762836,42.9065167],[-0.3761276,42.9066116],[-0.3760435,42.9067336],[-0.3760541,42.9067881],[-0.3761184,42.9068383],[-0.3763825,42.9068575],[-0.3766458,42.9068148],[-0.3767718,42.9069233],[-0.3768328,42.9070095],[-0.3770103,42.9069967],[-0.3772115,42.9071343],[-0.3778499,42.907425],[-0.3779974,42.9074761],[-0.3784914,42.9076808],[-0.3787284,42.9078033],[-0.3792149,42.9078499],[-0.3795902,42.9077836],[-0.3798454,42.907706],[-0.3800171,42.9077531],[-0.3801619,42.9079869],[-0.3803417,42.9080596],[-0.3801167,42.9083135],[-0.3801713,42.9084243],[-0.3804405,42.9084292],[-0.3806401,42.9085157],[-0.3807923,42.9086267],[-0.3810986,42.908722],[-0.3810026,42.9088448],[-0.380529,42.9088393],[-0.3800215,42.9089173],[-0.3796526,42.9089646],[-0.37941,42.9089465],[-0.3793685,42.9089915],[-0.379606,42.9090409],[-0.379736,42.9090991],[-0.3799581,42.9090477],[-0.3800412,42.9091087],[-0.3802022,42.909368],[-0.3804463,42.9095546],[-0.3806662,42.9097019],[-0.3806662,42.9097943],[-0.3807949,42.9098355],[-0.3808137,42.9098846],[-0.3806528,42.9098689],[-0.3804221,42.9097962],[-0.38028,42.9097078],[-0.3802022,42.9097903],[-0.3801646,42.9098886],[-0.380027,42.9101269],[-0.3796328,42.9102871],[-0.3790643,42.9103677],[-0.3780024,42.9097981],[-0.3775416,42.9095784],[-0.3760429,42.9098522],[-0.3749198,42.9106446],[-0.3728753,42.9118863],[-0.3709365,42.9119354],[-0.3683067,42.9127738],[-0.3661866,42.9141363],[-0.3645401,42.9152475],[-0.3626761,42.9151755],[-0.3625221,42.9146964],[-0.3624407,42.9144431],[-0.3623921,42.9142918],[-0.3622613,42.9136549],[-0.3618048,42.9135341],[-0.3617687,42.9135245],[-0.3612574,42.9132923],[-0.3607984,42.9133026],[-0.3604888,42.9130325],[-0.3599882,42.9130647],[-0.3598927,42.9128318],[-0.3595006,42.9127839],[-0.3592426,42.9127524]]},"properties":{"CLC:code":"321","CLC:id":"FR-242200","CLC:year":"2006","natural":"grassland","source":"Union européenne - SOeS, CORINE Land Cover, 2006."}},
{"type":"Feature","geometry":{"type":"LineString","coordinates":[[-0.255468,42.9168966],[-0.2554509,42.9168958],[-0.2554445,42.9168266],[-0.2554325,42.9167702],[-0.2554157,42.9167097],[-0.2553974,42.9166649],[-0.2553416,42.9165737],[-0.2552812,42.9164893],[-0.2551715,42.9163741],[-0.2550541,42.9162932],[-0.2549379,42.9162355],[-0.2548927,42.916217],[-0.2548032,42.9161912],[-0.2546338,42.9161603],[-0.254486,42.9161573],[-0.2543311,42.9161726],[-0.2542198,42.9161972],[-0.2541171,42.9162198],[-0.2540625,42.916234],[-0.2540317,42.9161804],[-0.2540089,42.9160792],[-0.2539633,42.9160036],[-0.2539836,42.9159853],[-0.254053,42.9158819],[-0.2540333,42.9157782],[-0.2539589,42.915739],[-0.2537955,42.9157384],[-0.253748,42.9157222],[-0.2537256,42.9156815],[-0.2537283,42.9156368],[-0.2537249,42.9155692],[-0.2536411,42.9155307],[-0.2536277,42.9155106],[-0.253625,42.9154836],[-0.2536449,42.9154637],[-0.2536263,42.9154408],[-0.2535558,42.9153934],[-0.2535854,42.9153883],[-0.253676,42.9154001],[-0.2537217,42.9153901],[-0.2537279,42.9153606],[-0.2537774,42.9152757],[-0.2537906,42.9152341],[-0.253745,42.9151968],[-0.2538126,42.9151716],[-0.2538474,42.9151277],[-0.2538094,42.9150534],[-0.2537486,42.9149675],[-0.2538174,42.9149414],[-0.2538226,42.9148327],[-0.2539291,42.9147589],[-0.2540159,42.9146566],[-0.2541111,42.9146173],[-0.2541064,42.9145387],[-0.2540857,42.9145117],[-0.2540496,42.9144852],[-0.2541165,42.914495],[-0.254205,42.9145333],[-0.2542841,42.9145363],[-0.2543897,42.9145066],[-0.2544125,42.9144514],[-0.2543965,42.9143396],[-0.2544085,42.9142534],[-0.2544093,42.9141767],[-0.2544887,42.9141392],[-0.2545577,42.9140889],[-0.2545252,42.9140089],[-0.2544428,42.9139456],[-0.2545944,42.9138923],[-0.2546648,42.913801],[-0.2547518,42.9136946],[-0.2548877,42.9135968],[-0.2549326,42.9134716],[-0.2548671,42.9133611],[-0.2547777,42.9132874],[-0.2548742,42.9132756],[-0.2550057,42.9132049],[-0.2551156,42.9130595],[-0.2552578,42.912867],[-0.2554444,42.9127234],[-0.2555206,42.9126784],[-0.2555662,42.9126274],[-0.2555686,42.9125991],[-0.2555351,42.9125524],[-0.2555209,42.9124915],[-0.2555496,42.9123613],[-0.2556038,42.9123425],[-0.2557614,42.9122613],[-0.2560464,42.9120655],[-0.2561878,42.9120427],[-0.2563036,42.9119958],[-0.2565879,42.9119119],[-0.2567357,42.9118082],[-0.2568859,42.9117571],[-0.2570012,42.9117237],[-0.2571702,42.9116373],[-0.2572774,42.9116857],[-0.2573097,42.9117453],[-0.2574521,42.9116675],[-0.2574012,42.911538],[-0.257411,42.9113332],[-0.257572,42.9111391],[-0.2577228,42.9110165],[-0.2578195,42.9108425],[-0.2578267,42.9107971],[-0.2578206,42.9107405],[-0.2577789,42.9106996],[-0.2578201,42.9106697],[-0.2578769,42.910662],[-0.2579485,42.910829],[-0.2579896,42.9109163],[-0.258069,42.9108953],[-0.258229,42.9109389],[-0.2582368,42.9111258],[-0.2582756,42.911114],[-0.2583471,42.9111127],[-0.2584028,42.9111441],[-0.2584937,42.9112063],[-0.2584704,42.9113908],[-0.2585207,42.9115351],[-0.2585898,42.9115817],[-0.2586588,42.9115403],[-0.2587111,42.9115096],[-0.2587654,42.9115147],[-0.2588023,42.9115373],[-0.258839,42.9116222],[-0.2588922,42.9116376],[-0.2589659,42.9117178],[-0.2589807,42.9117699],[-0.2589487,42.9118283],[-0.2589797,42.9118553],[-0.2590184,42.9118631],[-0.2590187,42.9119027],[-0.2590424,42.9119516],[-0.2590733,42.9119637],[-0.2590988,42.9119611],[-0.2590032,42.9120407],[-0.2590358,42.9121576],[-0.2589548,42.9122024],[-0.2589257,42.9122703],[-0.2589466,42.912312],[-0.2589416,42.9123647],[-0.2589055,42.9124664],[-0.2588632,42.9125651],[-0.2587871,42.9126345],[-0.2587021,42.9127226],[-0.2586558,42.9127565],[-0.2586957,42.9127983],[-0.2588244,42.9128321],[-0.2590042,42.9128557],[-0.2590131,42.9128749],[-0.2589961,42.9129038],[-0.2589391,42.9129063],[-0.258852,42.9129102],[-0.2587983,42.9129515],[-0.2587944,42.9130182],[-0.2587259,42.9130497],[-0.2586593,42.913203],[-0.2586657,42.9135707],[-0.2586214,42.9137471],[-0.2585065,42.9139256],[-0.258362,42.9141198],[-0.2582354,42.9142563],[-0.2580607,42.9143639],[-0.257796,42.9144742],[-0.2576791,42.9145614],[-0.2574998,42.9147133],[-0.2570513,42.9149765],[-0.2567853,42.9150375],[-0.2565251,42.9151683],[-0.2563484,42.9152702],[-0.2561335,42.9153912],[-0.2559228,42.9157537],[-0.2557957,42.9161347],[-0.2557526,42.9164099],[-0.2557548,42.9165268],[-0.2557464,42.9166131],[-0.2556843,42.916751],[-0.2555002,42.9168839],[-0.255468,42.9168966]]},"properties":{"name":"Lac du Tech","natural":"water","operator":"EDF","operator:wikidata":"Q274591","source":"bing","water":"reservoir","wikidata":"Q3215737"}},
{"type":"Feature","geometry":{"type":"LineString","coordinates":[[-0.3618378,42.9084926],[-0.361663,42.9087074],[-0.3592582,42.909577],[-0.3583646,42.9095353],[-0.3578793,42.9099927],[-0.3574534,42.9099624],[-0.3577608,42.9110602],[-0.3567585,42.910953],[-0.3564504,42.9110133],[-0.3559038,42.9108228],[-0.3556666,42.9109957],[-0.3557884,42.911097],[-0.3556614,42.9112696],[-0.3561516,42.9113142],[-0.3565431,42.9112651],[-0.3569509,42.9112517],[-0.3570525,42.9114543],[-0.3575444,42.9113473],[-0.3576858,42.911444],[-0.3575729,42.9115449],[-0.3570776,42.9117061],[-0.356449,42.911877],[-0.3570575,42.9118996],[-0.3571938,42.9121305],[-0.3568075,42.9121276],[-0.3561798,42.9122361],[-0.3556783,42.9123533],[-0.3555294,42.9124708],[-0.3557929,42.9125767],[-0.3564504,42.9125353],[-0.3569991,42.9125029],[-0.3572949,42.9125259],[-0.3580007,42.9124039],[-0.3577957,42.9125471],[-0.3573659,42.9126659],[-0.3570384,42.912855],[-0.3568307,42.9130113],[-0.3564886,42.9130228],[-0.356341,42.9130764],[-0.3565403,42.9131699],[-0.3568611,42.9132326],[-0.3539542,42.9137316],[-0.3519852,42.9138365],[-0.3510346,42.9138066],[-0.3512294,42.9136911],[-0.3521113,42.9135783],[-0.3522802,42.9134483],[-0.3511001,42.9131285],[-0.3493931,42.912857],[-0.34918129999999999,42.9127076],[-0.3502535,42.9119467],[-0.349489,42.911622],[-0.3482338,42.9115884],[-0.3485899,42.9102374],[-0.3491447,42.9095027],[-0.3501457,42.9091355],[-0.3498292,42.9088686],[-0.3482289,42.909235],[-0.3475425,42.9091106],[-0.3475977,42.9088816],[-0.3473889,42.9087419],[-0.3471337,42.9085367],[-0.3471417,42.9083339],[-0.3477634,42.9078621],[-0.3469635,42.9078514],[-0.3465169,42.9066419],[-0.348446,42.9063735],[-0.3496298,42.9065254],[-0.3516801,42.9054729],[-0.3535945,42.9060111],[-0.3543255,42.9061762],[-0.3550849,42.9063478],[-0.3565102,42.9065095],[-0.3568701,42.9067577],[-0.3564708,42.9070291],[-0.3560767,42.9072544],[-0.3564214,42.9074148],[-0.3561123,42.9076916],[-0.355721,42.907918],[-0.355544,42.9081064],[-0.3556984,42.9082896],[-0.3557569,42.9083826],[-0.3556675,42.9086322],[-0.3559697,42.908853],[-0.3564486,42.9088311],[-0.3612468,42.9085242],[-0.3618378,42.9084926]]},"properties":{"CLC:code":"322","CLC:id":"FR-242221","CLC:year":"2006","natural":"heath","source":"Union européenne - SOeS, CORINE Land Cover, 2006."}},
{"type":"Feature","geometry":{"type":"LineString","coordinates":[[-0.3757883,42.8555742],[-0.3760047,42.8556046],[-0.376916,42.8560219],[-0.3782914,42.8564363],[-0.3787656,42.8566489],[-0.378655,42.8568944],[-0.377859,42.8571123],[-0.3773007,42.8574501],[-0.3773277,42.857764],[-0.3782222,42.8580827],[-0.3792123,42.8583541],[-0.3793861,42.8586733],[-0.3784887,42.8590736],[-0.378039,42.8599029],[-0.3786702,42.8603362],[-0.3794246,42.8605327],[-0.3800516,42.8608762],[-0.3806252,42.8613829],[-0.3807772,42.8620172],[-0.3812944,42.8626241],[-0.3824286,42.8633592],[-0.3828865,42.863743],[-0.381872,42.8639935],[-0.3812325,42.8644232],[-0.3810828,42.865137],[-0.3811944,42.8659521],[-0.3817844,42.8662876],[-0.3826811,42.8661299],[-0.3830945,42.8666047],[-0.3831413,42.8670799],[-0.3830787,42.8675668],[-0.3831532,42.8678525],[-0.3832274,42.8683899],[-0.383193,42.868957],[-0.383055,42.8694009],[-0.3827828,42.8698482],[-0.3819593,42.8702646],[-0.3814716,42.870286],[-0.3805941,42.869814],[-0.3797502,42.8692783],[-0.3795213,42.869347],[-0.3792231,42.8689251],[-0.3784484,42.8687717],[-0.378065,42.8683273],[-0.3769529,42.8677872],[-0.3762317,42.8673949],[-0.3750626,42.8664259],[-0.373771,42.8658082],[-0.37224,42.8654763],[-0.3708091,42.8645835],[-0.3678344,42.8630794],[-0.3678824,42.8614065],[-0.3689655,42.8602646],[-0.3706005,42.8601299],[-0.3720487,42.8587001],[-0.3712487,42.8577913],[-0.3722268,42.8571161],[-0.3739839,42.8568861],[-0.3749707,42.8563971],[-0.3757883,42.8555742]]},"properties":{"CLC:code":"321","CLC:id":"FR-242882","CLC:year":"2006","natural":"grassland","source":"Union européenne - SOeS, CORINE Land Cover, 2006."}},
{"type":"Feature","geometry":{"type":"LineString","coordinates":[[-0.2859236,42.8433496],[-0.2852403,42.8431669],[-0.2849753,42.8429316],[-0.2847444,42.8427931],[-0.2846223,42.8426757],[-0.2842895,42.8426212],[-0.2840606,42.8426649],[-0.2838592,42.8426956],[-0.2836353,42.8424981],[-0.2832688,42.8425419],[-0.2831195,42.8427068],[-0.2829237,42.8429551],[-0.2828151,42.8429619],[-0.283116,42.842557],[-0.2834043,42.842339],[-0.2837624,42.8421443],[-0.2840201,42.8421569],[-0.2842377,42.8421844],[-0.2851056,42.842541],[-0.2859236,42.8433496]]},"properties":{"CLC:code":"335","CLC:id":"FR-243144","CLC:year":"2006","name":"Glacier du Pabat","natural":"glacier","source":"Union européenne - SOeS, CORINE Land Cover, 2006."}},
{"type":"Feature","geometry":{"type":"LineString","coordinates":[[-0.33437,42.8256363],[-0.3338941,42.8247754],[-0.3334326,42.8238612],[-0.3341408,42.8228561],[-0.3353627,42.8220852],[-0.336622,42.8221154],[-0.338447,42.821699],[-0.3395043,42.8209939],[-0.3402323,42.8204196],[-0.3408566,42.8194165],[-0.3412932,42.8179867],[-0.3415853,42.8170537],[-0.3413523,42.8156397],[-0.3414739,42.8146492],[-0.34226,42.8135184],[-0.3438651,42.813787],[-0.3445826,42.8140656],[-0.3436598,42.8150706],[-0.3433378,42.8183286],[-0.3440053,42.8191251],[-0.3470039,42.8191655],[-0.3492094,42.81911],[-0.350121,42.8217573],[-0.3474967,42.8229849],[-0.3468058,42.8250918],[-0.3461796,42.8285911],[-0.3446901,42.8304866],[-0.3443035,42.8323533],[-0.3424396,42.8329809],[-0.3419182,42.8319493],[-0.341947,42.8291614],[-0.3415405,42.8271978],[-0.3400848,42.8264221],[-0.3377162,42.8263647],[-0.33437,42.8256363]]},"properties":{"CLC:code":"321","CLC:id":"FR-243330","CLC:year":"2006","natural":"grassland","source":"Union européenne - SOeS, CORINE Land Cover, 2006."}},
{"type":"Feature","geometry":{"type":"LineString","coordinates":[[-0.3903492,42.8091729],[-0.3939942,42.8093678],[-0.3976509,42.8123548],[-0.3953554,42.8124768],[-0.3925021,42.8138577],[-0.398192,42.8171682],[-0.3966753,42.8174115],[-0.3960461,42.8188206],[-0.3970143,42.8194459],[-0.3982156,42.8186314],[-0.3995162,42.8181791],[-0.3998671,42.8187745],[-0.3990289,42.8192548],[-0.398186,42.8196739],[-0.3971748,42.8207874],[-0.3957944,42.8212446],[-0.3960389,42.8217686],[-0.3961672,42.8219001],[-0.3960055,42.8223536],[-0.3960203,42.8226678],[-0.3961444,42.8227096],[-0.3960983,42.8230253],[-0.3955771,42.8236228],[-0.3949641,42.8248607],[-0.3943276,42.8254275],[-0.3951109,42.8254236],[-0.3951484,42.8254984],[-0.3944431,42.8257526],[-0.3941508,42.8258528],[-0.3934212,42.8260672],[-0.3935954,42.826417],[-0.3940219,42.8264406],[-0.3942204,42.8265252],[-0.3940242,42.8267191],[-0.3938288,42.8268439],[-0.3935419,42.8270167],[-0.3937161,42.8272295],[-0.3938448,42.8274655],[-0.3937268,42.8275245],[-0.39322,42.8274563],[-0.392748,42.8274226],[-0.3923376,42.8274973],[-0.3921096,42.827578],[-0.3918895,42.8275737],[-0.3922839,42.8272377],[-0.3925923,42.827021],[-0.3923885,42.8265278],[-0.3920344,42.8262616],[-0.391402,42.8262191],[-0.3916033,42.8271216],[-0.3918117,42.827737],[-0.3915918,42.8279298],[-0.3917795,42.8279927],[-0.3919828,42.8284998],[-0.3915167,42.8287245],[-0.391345,42.8289842],[-0.3918386,42.8293068],[-0.3919533,42.8296087],[-0.3910661,42.8296766],[-0.3898591,42.8296308],[-0.3892151,42.8296429],[-0.3886779,42.8306722],[-0.3884053,42.8317931],[-0.3886554,42.8329668],[-0.388208,42.8346139],[-0.3881833,42.836421],[-0.3888226,42.8365125],[-0.3893924,42.8359158],[-0.3902722,42.836026],[-0.390053,42.8367327],[-0.3915453,42.8370181],[-0.3905621,42.8376634],[-0.3893194,42.8382433],[-0.388179,42.8391802],[-0.387722,42.8399693],[-0.3876369,42.8411533],[-0.3879026,42.8421261],[-0.3884447,42.843002],[-0.3890957,42.8438572],[-0.3890598,42.8447268],[-0.3889686,42.8448487],[-0.3889417,42.8449895],[-0.3888318,42.8450611],[-0.3887674,42.8449903],[-0.3887165,42.8451358],[-0.3887647,42.8452027],[-0.3888693,42.8452676],[-0.3888828,42.8454013],[-0.3889605,42.8454819],[-0.3890222,42.8455842],[-0.3890786,42.845657],[-0.3890651,42.8457219],[-0.3890196,42.8457533],[-0.388923,42.8458516],[-0.3888372,42.8459873],[-0.3887433,42.8460011],[-0.3887889,42.8461742],[-0.3888506,42.8462843],[-0.3890061,42.8462076],[-0.3891081,42.8462607],[-0.3891247,42.8465859],[-0.3891724,42.8469136],[-0.3889471,42.8468507],[-0.3889096,42.8469726],[-0.3889686,42.8470984],[-0.3891134,42.847067],[-0.3891617,42.8472204],[-0.3893142,42.8473241],[-0.3893602,42.8476845],[-0.389505,42.8478064],[-0.3894353,42.8478654],[-0.3894761,42.8483804],[-0.389607,42.8484907],[-0.3896767,42.8486284],[-0.3898859,42.8486402],[-0.3900951,42.8487267],[-0.3903043,42.8486874],[-0.3903365,42.8489076],[-0.3904867,42.8490059],[-0.3905878,42.8489563],[-0.3907871,42.8490256],[-0.3910929,42.8496077],[-0.3915703,42.8497374],[-0.3916723,42.8498633],[-0.3919506,42.8499648],[-0.3924474,42.8500245],[-0.3924635,42.8500776],[-0.3922302,42.8501189],[-0.3918439,42.8500953],[-0.39186,42.8502762],[-0.3915811,42.8503942],[-0.3916079,42.850524],[-0.3918761,42.8508347],[-0.391801,42.8508898],[-0.3917849,42.8513224],[-0.3918804,42.8513624],[-0.391919,42.8515347],[-0.3917795,42.851814],[-0.3918439,42.8522112],[-0.3917098,42.8524157],[-0.3915596,42.8524432],[-0.3915542,42.8525179],[-0.3917852,42.852661],[-0.39186,42.852803],[-0.3919244,42.852978],[-0.3918976,42.8532337],[-0.3918332,42.8533792],[-0.3919753,42.8533851],[-0.3920156,42.8534736],[-0.3918553,42.8536256],[-0.3918493,42.8537646],[-0.3919458,42.8541618],[-0.3917956,42.8541972],[-0.3918707,42.8542719],[-0.3921068,42.8543348],[-0.3921653,42.8546859],[-0.392729,42.8545078],[-0.393185,42.8543977],[-0.3932172,42.8542955],[-0.3930241,42.8541972],[-0.3926164,42.8542247],[-0.3925896,42.8541342],[-0.3929544,42.8539455],[-0.3932226,42.853914],[-0.3935444,42.8539455],[-0.3936195,42.854087],[-0.3934264,42.8542758],[-0.3934658,42.8545202],[-0.3932762,42.8547005],[-0.3933083,42.8548576],[-0.3938005,42.8549816],[-0.393759,42.8552275],[-0.3935552,42.8553691],[-0.3932119,42.8553219],[-0.3929087,42.8554735],[-0.3935817,42.8558307],[-0.3927924,42.8560403],[-0.3919931,42.856078],[-0.392777,42.8574151],[-0.3937274,42.8583974],[-0.392867,42.8587818],[-0.3928846,42.8592151],[-0.3928873,42.8594057],[-0.3923648,42.8594709],[-0.3918231,42.8596489],[-0.3913783,42.8596168],[-0.3900844,42.8593802],[-0.3895771,42.8593879],[-0.3893683,42.859391],[-0.3892299,42.8593931],[-0.3887615,42.8595373],[-0.3888452,42.8591756],[-0.3891102,42.8584923],[-0.3889042,42.8581807],[-0.3890115,42.8576027],[-0.3892636,42.8573274],[-0.3889096,42.857005],[-0.3889579,42.8566982],[-0.389329,42.856358],[-0.3890891,42.8558915],[-0.3887594,42.8556994],[-0.3883946,42.856132],[-0.388039,42.8559004],[-0.3876927,42.8551637],[-0.3876632,42.8541484],[-0.3878556,42.853047],[-0.387429,42.8524668],[-0.3863766,42.8523656],[-0.3864634,42.85216],[-0.3870857,42.8519477],[-0.3870123,42.8507048],[-0.3863134,42.8501295],[-0.3862081,42.8497098],[-0.3864869,42.8491454],[-0.3863975,42.8485456],[-0.3858891,42.8473452],[-0.3857467,42.8466568],[-0.3859401,42.8460947],[-0.3861081,42.8456462],[-0.3857359,42.8447803],[-0.3855619,42.8438817],[-0.3853432,42.8433898],[-0.3849699,42.8429148],[-0.3846387,42.8422014],[-0.3839425,42.8410228],[-0.3835445,42.8403499],[-0.3834109,42.8399691],[-0.3833341,42.8397711],[-0.3833739,42.8393207],[-0.3831759,42.8377081],[-0.3831968,42.8368537],[-0.3833624,42.836481],[-0.3833985,42.8359499],[-0.3831499,42.8358573],[-0.3827734,42.8356422],[-0.3820921,42.8354349],[-0.3814464,42.8349481],[-0.3816355,42.8340356],[-0.3820194,42.8333697],[-0.3834329,42.8331254],[-0.3838654,42.8321478],[-0.3841839,42.8313707],[-0.3844607,42.8312903],[-0.3855366,42.8315635],[-0.3859919,42.8308599],[-0.3863187,42.8295034],[-0.387227,42.82753],[-0.3877221,42.826376],[-0.3876584,42.8255418],[-0.3874458,42.8249181],[-0.3879149,42.8242501],[-0.3884737,42.8239303],[-0.3895505,42.8234624],[-0.3902846,42.8234976],[-0.3903895,42.8239083],[-0.3907005,42.824808],[-0.3918291,42.8246623],[-0.3924325,42.8245121],[-0.392554,42.8245],[-0.3926269,42.8224221],[-0.3924189,42.8218972],[-0.3929241,42.8212192],[-0.3925121,42.8202501],[-0.391706,42.8199832],[-0.3904877,42.8208142],[-0.3910474,42.8220671],[-0.3902258,42.8222498],[-0.3892185,42.8228957],[-0.387853,42.8224183],[-0.3876409,42.8215429],[-0.38793,42.8209424],[-0.3858018,42.8206013],[-0.3838106,42.8210925],[-0.3829701,42.8216531],[-0.3824443,42.8226731],[-0.382088,42.8244436],[-0.3827353,42.8249664],[-0.3825133,42.8251787],[-0.3819679,42.8252645],[-0.3810495,42.8254677],[-0.380455,42.826067],[-0.3816536,42.8268902],[-0.3812198,42.827791],[-0.3806118,42.8286243],[-0.3805493,42.8296325],[-0.3804275,42.8304175],[-0.3790745,42.8299486],[-0.3788639,42.8309246],[-0.3783118,42.8319093],[-0.3764913,42.8318837],[-0.3763298,42.8328674],[-0.3775238,42.8330707],[-0.3781749,42.8334136],[-0.3772796,42.8341104],[-0.3779332,42.8347679],[-0.376897,42.8353245],[-0.3757934,42.835748],[-0.3743382,42.835704],[-0.3731668,42.8359854],[-0.3725784,42.8364587],[-0.3715585,42.8365835],[-0.3713263,42.836841],[-0.3716266,42.837777],[-0.3725191,42.8391025],[-0.3728968,42.8390839],[-0.3733196,42.8389833],[-0.3739316,42.8390127],[-0.3742975,42.8390034],[-0.3747139,42.8387681],[-0.3751408,42.8387573],[-0.3761679,42.8390458],[-0.3748077,42.8394668],[-0.3738849,42.8399699],[-0.3740149,42.8407901],[-0.3741356,42.8412813],[-0.3747923,42.8417409],[-0.3752045,42.8421978],[-0.3759987,42.8422046],[-0.3759167,42.8430605],[-0.3761014,42.8438736],[-0.3765987,42.8440587],[-0.3774887,42.8440271],[-0.3783002,42.8441413],[-0.378752,42.8443994],[-0.3793246,42.8448881],[-0.3790554,42.8451376],[-0.3786267,42.8453732],[-0.378369,42.8458651],[-0.3786613,42.8461093],[-0.3795498,42.8460418],[-0.380185,42.8463042],[-0.3810836,42.8467127],[-0.3803972,42.8474402],[-0.3804048,42.8478624],[-0.3787183,42.8481031],[-0.3780861,42.8484247],[-0.3779435,42.8487699],[-0.3781283,42.8493224],[-0.3787484,42.8495223],[-0.3789924,42.8495161],[-0.3797181,42.8493628],[-0.3808224,42.8494695],[-0.3817988,42.8494537],[-0.381072,42.8506225],[-0.3814575,42.8510262],[-0.3816057,42.8521009],[-0.3816101,42.8529725],[-0.3819569,42.8535928],[-0.3814344,42.8541724],[-0.3805476,42.8545364],[-0.379311,42.8542174],[-0.3786464,42.855151],[-0.3783692,42.85523],[-0.3776076,42.8548809],[-0.3765617,42.8547187],[-0.3754663,42.853504],[-0.3734704,42.8540198],[-0.3724662,42.8541374],[-0.3712181,42.8544488],[-0.3707703,42.8529739],[-0.3683742,42.8528773],[-0.3674994,42.8510425],[-0.3642875,42.8498465],[-0.3599995,42.8492583],[-0.355815,42.8475058],[-0.3542443,42.8476611],[-0.3529458,42.8468816],[-0.3530439,42.8456019],[-0.3563104,42.8445904],[-0.3583158,42.8436108],[-0.3564744,42.8413352],[-0.3543553,42.8398799],[-0.3561869,42.8385564],[-0.3574317,42.8381767],[-0.3572749,42.8348139],[-0.3594482,42.8340625],[-0.3619641,42.833882],[-0.363491,42.8327987],[-0.3621331,42.8307435],[-0.3654421,42.8306598],[-0.3656647,42.8286803],[-0.3676861,42.8280483],[-0.3696527,42.8262572],[-0.3695713,42.8245169],[-0.371929,42.8243414],[-0.372869,42.8242018],[-0.3730428,42.8211777],[-0.3749928,42.8190387],[-0.3759976,42.8169236],[-0.378958,42.8161518],[-0.3811848,42.8165591],[-0.382608,42.8166385],[-0.38546,42.8169141],[-0.3895608,42.8169262],[-0.3886584,42.8145104],[-0.3874736,42.8131649],[-0.3871588,42.8128074],[-0.387284,42.8125068],[-0.3880406,42.8131648],[-0.3882983,42.8131814],[-0.3883912,42.8128288],[-0.3885189,42.8126809],[-0.3890929,42.8119823],[-0.3891947,42.8119743],[-0.3893501,42.8120567],[-0.3896461,42.8120195],[-0.3897617,42.8117979],[-0.3900571,42.8116924],[-0.3901811,42.811379],[-0.3896131,42.8107838],[-0.3894645,42.8104918],[-0.3898184,42.8102872],[-0.3898023,42.810178],[-0.3890429,42.8101836],[-0.3884453,42.8097176],[-0.3886104,42.8095769],[-0.3886605,42.8094946],[-0.3883637,42.8090593],[-0.3879432,42.8087138],[-0.386913,42.8075888],[-0.3859464,42.8071495],[-0.3838597,42.8066737],[-0.3843482,42.8058041],[-0.3858074,42.8046524],[-0.38644,42.8030746],[-0.386487,42.8029708],[-0.3859068,42.8013989],[-0.3872795,42.8010852],[-0.3903546,42.8014723],[-0.3909592,42.8015484],[-0.391806,42.800783],[-0.3944038,42.7996954],[-0.3937503,42.8022569],[-0.3935408,42.8030782],[-0.3934847,42.8032981],[-0.3933309,42.803901],[-0.389072,42.807757],[-0.3903492,42.8091729]]},"properties":{"CLC:code":"321","CLC:id":"FR-243006","CLC:year":"2006","natural":"grassland"}},
{"type":"Feature","geometry":{"type":"LineString","coordinates":[[-0.2893323,42.8170858],[-0.2894184,42.8170163],[-0.2894667,42.8169205],[-0.2892676,42.8167832],[-0.2893913,42.8167638],[-0.2894303,42.8166808],[-0.2890872,42.8165903],[-0.2890446,42.8166086],[-0.2887883,42.8164773],[-0.288834,42.8160709],[-0.2887183,42.8159911],[-0.2883177,42.8160915],[-0.2874739,42.8161356],[-0.2872824,42.816056],[-0.2872981,42.815814],[-0.2875345,42.8158122],[-0.2878397,42.8156781],[-0.2878797,42.8155959],[-0.2880211,42.8155763],[-0.2880878,42.8154706],[-0.287885,42.8153551],[-0.2875063,42.8154153],[-0.2867969,42.8151873],[-0.2862946,42.8151682],[-0.2857878,42.8149166],[-0.2859024,42.8147797],[-0.2856942,42.814811],[-0.2856462,42.8145369],[-0.2851047,42.8145361],[-0.2843212,42.8144594],[-0.2854434,42.814214],[-0.2862526,42.8138793],[-0.286567,42.8134635],[-0.2870398,42.8130264],[-0.2877693,42.8129038],[-0.2873327,42.8127596],[-0.2877762,42.8125311],[-0.2881801,42.8124463],[-0.2886322,42.8128633],[-0.2893793,42.81274],[-0.2896248,42.8123818],[-0.2892379,42.8123407],[-0.2884928,42.8123109],[-0.2882826,42.8122232],[-0.2882826,42.8120294],[-0.2883759,42.8118421],[-0.2884652,42.8118572],[-0.2886524,42.8116265],[-0.2884123,42.8115653],[-0.2882772,42.8115387],[-0.2881171,42.8114545],[-0.2880671,42.8114102],[-0.2879923,42.8113978],[-0.2879519,42.8114081],[-0.2874287,42.8114324],[-0.2872649,42.8115555],[-0.2870493,42.8115743],[-0.2866885,42.811651],[-0.2862018,42.8116385],[-0.2857247,42.8117038],[-0.2852048,42.811875],[-0.2845364,42.8118606],[-0.2834224,42.812066],[-0.2831918,42.812068],[-0.2833242,42.8119189],[-0.2832929,42.8119097],[-0.283162,42.8118712],[-0.2830263,42.8116837],[-0.283007,42.8116571],[-0.2829933,42.8116381],[-0.2833691,42.8117347],[-0.283567,42.8116388],[-0.2841195,42.8114553],[-0.2844634,42.8114515],[-0.2846928,42.8114133],[-0.2848908,42.8114897],[-0.2850871,42.8114977],[-0.2853253,42.8114049],[-0.2854954,42.8112794],[-0.2854372,42.8112368],[-0.2852348,42.8111992],[-0.2850851,42.8112159],[-0.2850082,42.8111332],[-0.2848178,42.8110921],[-0.285027,42.8110681],[-0.2851466,42.811018],[-0.2852456,42.8110518],[-0.2854276,42.8110386],[-0.2854995,42.8110082],[-0.2856145,42.8109879],[-0.2856165,42.8109457],[-0.2856777,42.8109273],[-0.2856941,42.8108896],[-0.2858297,42.810909],[-0.2860751,42.8108255],[-0.2860791,42.81092],[-0.2863553,42.8109644],[-0.2867409,42.811021],[-0.28699210000000005,42.8108722],[-0.2875222,42.8109132],[-0.2875701,42.8108705],[-0.2873006,42.8107179],[-0.2875621,42.81062],[-0.2880718,42.8106748],[-0.2889017,42.8105808],[-0.2895661,42.8106219],[-0.289809,42.810663],[-0.2904462,42.8104614],[-0.2908992,42.8105712],[-0.2912045,42.8108823],[-0.2912343,42.8109159],[-0.2911458,42.8110917],[-0.2914954,42.8114108],[-0.2913833,42.8117691],[-0.2911165,42.8118023],[-0.2911031,42.8117123],[-0.2911458,42.8116242],[-0.2908737,42.8116222],[-0.290831,42.8117045],[-0.2909057,42.8117925],[-0.2908416,42.8118669],[-0.2912606,42.8121077],[-0.2913566,42.8120607],[-0.2915408,42.8123681],[-0.2916715,42.8124072],[-0.2918316,42.8124111],[-0.2918983,42.8124561],[-0.2922292,42.8125227],[-0.2924118,42.8125173],[-0.2925121,42.8124092],[-0.2924,42.8123504],[-0.2925201,42.8122584],[-0.2926562,42.8122741],[-0.2927442,42.8122447],[-0.2925868,42.8121449],[-0.292432,42.8121038],[-0.2924827,42.8119766],[-0.2923998,42.811792],[-0.2924667,42.8116888],[-0.2926055,42.8116105],[-0.2928163,42.8116183],[-0.2930785,42.8116434],[-0.2933179,42.8115185],[-0.293691,42.8115432],[-0.294259,42.8115694],[-0.2945414,42.8116318],[-0.2949813,42.8117704],[-0.2951796,42.8118966],[-0.2953614,42.8121315],[-0.2953299,42.8122056],[-0.295386,42.8122858],[-0.2952072,42.8124111],[-0.2956629,42.8124269],[-0.2962855,42.8126604],[-0.296504,42.8129612],[-0.296536,42.8132424],[-0.2968523,42.8135981],[-0.2968922,42.814138],[-0.2973892,42.8143776],[-0.2976785,42.8145387],[-0.2975204,42.814608],[-0.2977985,42.8148441],[-0.2967888,42.8162768],[-0.2960633,42.8162609],[-0.2959471,42.8162036],[-0.2949657,42.8164287],[-0.2947485,42.8164864],[-0.2947058,42.8166038],[-0.2945244,42.8166723],[-0.2945404,42.8167721],[-0.2943029,42.8168563],[-0.2934277,42.8167981],[-0.2931955,42.8169503],[-0.2931795,42.8170618],[-0.2929553,42.8170533],[-0.292534,42.8173713],[-0.2924637,42.8174425],[-0.2922772,42.8172356],[-0.2918882,42.8172147],[-0.2917224,42.8172905],[-0.2908599,42.8173448],[-0.2905117,42.8171747],[-0.2901658,42.8170896],[-0.2902519,42.8168369],[-0.2901639,42.8167997],[-0.2900716,42.816799],[-0.2899018,42.8170282],[-0.2894758,42.8171274],[-0.2893323,42.8170858]]},"properties":{"CLC:code":"512","CLC:id":"FR-243538","CLC:year":"2006","name":"Embalse de Respomuso","natural":"water","source":"Union européenne - SOeS, CORINE Land Cover, 2006.","wikidata":"Q3427764"}},
{"type":"Feature","geometry":{"type":"LineString","coordinates":[[-0.3322958,42.8629864],[-0.3322026,42.8626953],[-0.3320433,42.8626218],[-0.3318215,42.8625694],[-0.3313169,42.8624914],[-0.3308837,42.8624612],[-0.330488,42.8625514],[-0.3300698,42.8626127],[-0.3296795,42.8625242],[-0.3293635,42.8624765],[-0.3291219,42.8623879],[-0.3286851,42.8623471],[-0.3283319,42.8621018],[-0.3280427,42.8618145],[-0.3279509,42.8616522],[-0.3280345,42.8615092],[-0.3278208,42.8613798],[-0.3276204,42.8612611],[-0.3275791,42.8612367],[-0.3274583,42.8608689],[-0.3274305,42.8605214],[-0.3275606,42.8601468],[-0.3277464,42.8598538],[-0.3278237,42.8596077],[-0.3276442,42.85952],[-0.3273747,42.8593974],[-0.3273375,42.8591317],[-0.3275048,42.8588797],[-0.3278858,42.8586957],[-0.3279416,42.8585595],[-0.3281275,42.8584846],[-0.3281542,42.8583611],[-0.3281368,42.8581916],[-0.3280438,42.8581099],[-0.3279416,42.8580349],[-0.3280066,42.8579396],[-0.3279881,42.8577692],[-0.3279323,42.8576807],[-0.3280252,42.8576057],[-0.3279602,42.8574763],[-0.3278672,42.8573401],[-0.3279881,42.8570062],[-0.3282483,42.856761],[-0.3286107,42.8565975],[-0.3287966,42.856543],[-0.3289732,42.8564476],[-0.3292404,42.8561444],[-0.32941,42.8558822],[-0.3293821,42.8556641],[-0.3294564,42.8555006],[-0.32941,42.8553099],[-0.3295494,42.8551328],[-0.3298282,42.8549761],[-0.3301163,42.854724],[-0.3303765,42.8545741],[-0.3308597,42.8545264],[-0.3311031,42.8544336],[-0.3312315,42.8541653],[-0.3313802,42.8540972],[-0.3315753,42.853995],[-0.3317984,42.8538519],[-0.3319656,42.8537293],[-0.3322166,42.8535862],[-0.33249,42.8536073],[-0.3325697,42.8536135],[-0.3328578,42.8535726],[-0.3331924,42.8535999],[-0.3335525,42.8536471],[-0.3339266,42.8539405],[-0.334131,42.8539541],[-0.334289,42.8539269],[-0.334447,42.8538042],[-0.3345957,42.8536816],[-0.3347537,42.8537021],[-0.3349303,42.8538179],[-0.3351719,42.8539337],[-0.3351998,42.854104],[-0.3353612,42.8541147],[-0.3355808,42.8540086],[-0.3357202,42.8539201],[-0.3357736,42.8539291],[-0.335841,42.8539405],[-0.3357295,42.8540699],[-0.3357202,42.854213],[-0.3358224,42.8542811],[-0.3357109,42.8544515],[-0.3356273,42.8545264],[-0.3355622,42.854649],[-0.3354228,42.8548262],[-0.3354786,42.8549284],[-0.3355622,42.8550442],[-0.3355901,42.8551941],[-0.3356366,42.8554053],[-0.3357945,42.8555756],[-0.3358038,42.8557595],[-0.3356801,42.8561206],[-0.3356273,42.8564476],[-0.3354321,42.8567133],[-0.3351719,42.8568768],[-0.3351905,42.8570267],[-0.3353206,42.8571152],[-0.3355343,42.8570539],[-0.3356923,42.8570403],[-0.3357388,42.8572038],[-0.3356644,42.8575219],[-0.3354321,42.8579941],[-0.3353206,42.8581712],[-0.3353299,42.8584641],[-0.3353113,42.8586549],[-0.3354611,42.859126],[-0.3354977,42.8593974],[-0.335567,42.8596335],[-0.3356824,42.8599652],[-0.3356139,42.8603128],[-0.3354542,42.860547],[-0.3353235,42.8607066],[-0.3354259,42.8608413],[-0.3356865,42.8608982],[-0.3355268,42.8611111],[-0.3353235,42.861175],[-0.3353862,42.8613314],[-0.3352509,42.8614836],[-0.3353859,42.8615902],[-0.3353618,42.8616165],[-0.3350654,42.8619401],[-0.3348152,42.8617817],[-0.3346111,42.8617535],[-0.3343941,42.861771],[-0.3341455,42.862036],[-0.3340721,42.8621434],[-0.3339666,42.8623318],[-0.3339583,42.8626196],[-0.3337487,42.8626348],[-0.3333937,42.8626781],[-0.3331162,42.8627369],[-0.3328382,42.8628059],[-0.332563,42.8628855],[-0.3322958,42.8629864]]},"properties":{"CLC:code":"512","CLC:id":"FR-242987","CLC:year":"2006","ele":"1997","name":"Lac d'Artouste","natural":"water","source":"Union européenne - SOeS, CORINE Land Cover, 2006.","water":"reservoir","wikidata":"Q3215319"}},
{"type":"Feature","geometry":{"type":"LineString","coordinates":[[-0.2884034,42.8356052],[-0.288485,42.8352908],[-0.2885106,42.835222],[-0.2885082,42.835092],[-0.2883008,42.8349965],[-0.2879571,42.8348936],[-0.2876175,42.834856],[-0.2873964,42.8348672],[-0.2873593,42.8349183],[-0.2875695,42.8350106],[-0.2875473,42.8350922],[-0.2875819,42.8352482],[-0.2877775,42.8354698],[-0.2879809,42.83566],[-0.2881384,42.8356612],[-0.2884034,42.8356052]]},"properties":{"name":"Glacier de la Brêche Latour","natural":"glacier"}},
{"type":"Feature","geometry":{"type":"LineString","coordinates":[[-0.2829978,42.839269],[-0.2819475,42.8393103],[-0.2811231,42.8392069],[-0.2800363,42.8390796],[-0.2802528,42.8389755],[-0.28038,42.8386956],[-0.2801988,42.8385268],[-0.2800972,42.8384571],[-0.2796822,42.8383798],[-0.279228,42.8382758],[-0.2789801,42.838108],[-0.2785301,42.837998],[-0.2780894,42.8379175],[-0.2780502,42.8378294],[-0.2780802,42.8377084],[-0.2781752,42.8375617],[-0.2783851,42.8374591],[-0.2784701,42.8373088],[-0.2786151,42.8372098],[-0.2787601,42.8371805],[-0.2787951,42.8373528],[-0.2788401,42.8374811],[-0.2790901,42.8375067],[-0.2791401,42.8376277],[-0.2791351,42.838009],[-0.2792901,42.8381666],[-0.27945,42.838119],[-0.279515,42.838097],[-0.27977,42.8382143],[-0.27985,42.8382473],[-0.280265,42.8382399],[-0.2803324,42.8382566],[-0.2805276,42.8382727],[-0.2815856,42.8384136],[-0.282604,42.8384274],[-0.2833879,42.8381257],[-0.2855484,42.8381863],[-0.2860056,42.8383137],[-0.2868336,42.8382213],[-0.2872244,42.8382417],[-0.2879518,42.8385614],[-0.2883831,42.8387402],[-0.288507,42.838981],[-0.2887214,42.839094],[-0.2890191,42.8392645],[-0.2887514,42.8395216],[-0.2886678,42.8395913],[-0.2875651,42.8394497],[-0.28594580000000005,42.8393645],[-0.2855681,42.8392895],[-0.2852154,42.839106],[-0.2851161,42.838868],[-0.2848657,42.8388121],[-0.2847138,42.8388641],[-0.2845609,42.8389899],[-0.2837522,42.8391368],[-0.2829978,42.839269]]},"properties":{"CLC:code":"335","CLC:id":"FR-243144","CLC:year":"2006","name":"Glacier de Las Néous","natural":"glacier","source":"Union européenne - SOeS, CORINE Land Cover, 2006."}},